{
 "type": "FeatureCollection",
 "generated": "2023-11-12T06:15:33.120161",
 "suburb": "ADAMSVALE",
 "features": [
  {
   "type": "Feature",
   "geometry": {
    "type": "Point",
    "coordinates": [
     117.60821947,
     -32.22877116
    ]
   },
   "properties": {
    "name": "17452 STONES ROAD ADAMSVALE 6375",
    "locID": "ChIJk1FDHQZDNCoR8LKmojqaljc",
    "tech": "SATELLITE",
    "upgrade": "UNKNOWN",
    "gnaf_pid": "GAWA_147346215"
   }
  },
  {
   "type": "Feature",
   "geometry": {
    "type": "Point",
    "coordinates": [
     117.65754662,
     -32.23833053
    ]
   },
   "properties": {
    "name": "17886 FORTY NINE GATE ROAD WEST ADAMSVALE 6375",
    "locID": "ChIJyXnSyG1ENCoRVrVNptdDNCQ",
    "tech": "SATELLITE",
    "upgrade": "UNKNOWN",
    "gnaf_pid": "GAWA_161600988"
   }
  },
  {
   "type": "Feature",
   "geometry": {
    "type": "Point",
    "coordinates": [
     117.80964053,
     -32.18974293
    ]
   },
   "properties": {
    "name": "1528 BILBARIN-QUAIRADING ROAD ADAMSVALE 6375",
    "locID": "LOC000142456233",
    "tech": "SATELLITE",
    "upgrade": "NULL_NA",
    "gnaf_pid": "GAWA_161922487"
   }
  },
  {
   "type": "Feature",
   "geometry": {
    "type": "Point",
    "coordinates": [
     117.75721936,
     -32.18803085
    ]
   },
   "properties": {
    "name": "2138 BILBARIN-QUAIRADING ROAD ADAMSVALE 6375",
    "locID": "LOC000022028240",
    "tech": "SATELLITE",
    "upgrade": "NULL_NA",
    "gnaf_pid": "GAWA_161922488"
   }
  },
  {
   "type": "Feature",
   "geometry": {
    "type": "Point",
    "coordinates": [
     117.69166644,
     -32.20417782
    ]
   },
   "properties": {
    "name": "51 CAPORN ROAD ADAMSVALE 6375",
    "locID": "LOC000023672171",
    "tech": "SATELLITE",
    "upgrade": "NULL_NA",
    "gnaf_pid": "GAWA_161922760"
   }
  },
  {
   "type": "Feature",
   "geometry": {
    "type": "Point",
    "coordinates": [
     117.70514604,
     -32.24175208
    ]
   },
   "properties": {
    "name": "1429 CORRIGIN-QUAIRADING ROAD ADAMSVALE 6375",
    "locID": "LOC000142863675",
    "tech": "SATELLITE",
    "upgrade": "NULL_NA",
    "gnaf_pid": "GAWA_161923046"
   }
  },
  {
   "type": "Feature",
   "geometry": {
    "type": "Point",
    "coordinates": [
     117.71566651,
     -32.22283164
    ]
   },
   "properties": {
    "name": "1458 CORRIGIN-QUAIRADING ROAD ADAMSVALE 6375",
    "locID": "LOC000065425959",
    "tech": "SATELLITE",
    "upgrade": "NULL_NA",
    "gnaf_pid": "GAWA_161923047"
   }
  },
  {
   "type": "Feature",
   "geometry": {
    "type": "Point",
    "coordinates": [
     117.67588743,
     -32.18995409
    ]
   },
   "properties": {
    "name": "2210 CORRIGIN-QUAIRADING ROAD ADAMSVALE 6375",
    "locID": "LOC000018964639",
    "tech": "SATELLITE",
    "upgrade": "NULL_NA",
    "gnaf_pid": "GAWA_161923048"
   }
  },
  {
   "type": "Feature",
   "geometry": {
    "type": "Point",
    "coordinates": [
     117.75041181,
     -32.21094974
    ]
   },
   "properties": {
    "name": "1947 DRY WELL ROAD ADAMSVALE 6375",
    "locID": "LOC000027007152",
    "tech": "SATELLITE",
    "upgrade": "NULL_NA",
    "gnaf_pid": "GAWA_161923296"
   }
  },
  {
   "type": "Feature",
   "geometry": {
    "type": "Point",
    "coordinates": [
     117.66242649,
     -32.23109404
    ]
   },
   "properties": {
    "name": "510 FORTY NINE GATE ROAD WEST ADAMSVALE 6375",
    "locID": "LOC000002130048",
    "tech": "SATELLITE",
    "upgrade": "NULL_NA",
    "gnaf_pid": "GAWA_161923436"
   }
  },
  {
   "type": "Feature",
   "geometry": {
    "type": "Point",
    "coordinates": [
     117.74130453,
     -32.27454254
    ]
   },
   "properties": {
    "name": "194 GILL ROAD ADAMSVALE 6375",
    "locID": "LOC000066090363",
    "tech": "SATELLITE",
    "upgrade": "NULL_NA",
    "gnaf_pid": "GAWA_161923551"
   }
  },
  {
   "type": "Feature",
   "geometry": {
    "type": "Point",
    "coordinates": [
     117.722494,
     -32.265835
    ]
   },
   "properties": {
    "name": "494 GILL ROAD ADAMSVALE 6375",
    "locID": "LOC000098250922",
    "tech": "SATELLITE",
    "upgrade": "NULL_NA",
    "gnaf_pid": "GAWA_161923552"
   }
  },
  {
   "type": "Feature",
   "geometry": {
    "type": "Point",
    "coordinates": [
     117.82663063,
     -32.23484387
    ]
   },
   "properties": {
    "name": "352 HILLSIDE ROAD ADAMSVALE 6375",
    "locID": "LOC000029477411",
    "tech": "SATELLITE",
    "upgrade": "NULL_NA",
    "gnaf_pid": "GAWA_161923866"
   }
  },
  {
   "type": "Feature",
   "geometry": {
    "type": "Point",
    "coordinates": [
     117.66346259,
     -32.24736582
    ]
   },
   "properties": {
    "name": "1364 JUBUK NORTH ROAD ADAMSVALE 6375",
    "locID": "LOC000073433181",
    "tech": "SATELLITE",
    "upgrade": "NULL_NA",
    "gnaf_pid": "GAWA_161923994"
   }
  },
  {
   "type": "Feature",
   "geometry": {
    "type": "Point",
    "coordinates": [
     117.62411641,
     -32.26473636
    ]
   },
   "properties": {
    "name": "1271 LOMOS NORTH ROAD ADAMSVALE 6375",
    "locID": "LOC000018934270",
    "tech": "SATELLITE",
    "upgrade": "NULL_NA",
    "gnaf_pid": "GAWA_161924307"
   }
  },
  {
   "type": "Feature",
   "geometry": {
    "type": "Point",
    "coordinates": [
     117.64871775,
     -32.16635971
    ]
   },
   "properties": {
    "name": "248 PANNELL ROAD ADAMSVALE 6375",
    "locID": "LOC000032677873",
    "tech": "SATELLITE",
    "upgrade": "NULL_NA",
    "gnaf_pid": "GAWA_161924879"
   }
  },
  {
   "type": "Feature",
   "geometry": {
    "type": "Point",
    "coordinates": [
     117.66304005,
     -32.20008793
    ]
   },
   "properties": {
    "name": "90 SHARRETT ROAD ADAMSVALE 6375",
    "locID": "LOC000076643451",
    "tech": "SATELLITE",
    "upgrade": "NULL_NA",
    "gnaf_pid": "GAWA_161925364"
   }
  },
  {
   "type": "Feature",
   "geometry": {
    "type": "Point",
    "coordinates": [
     117.6130776,
     -32.21639662
    ]
   },
   "properties": {
    "name": "1197 STONES ROAD ADAMSVALE 6375",
    "locID": "LOC000003690231",
    "tech": "SATELLITE",
    "upgrade": "NULL_NA",
    "gnaf_pid": "GAWA_161925516"
   }
  },
  {
   "type": "Feature",
   "geometry": {
    "type": "Point",
    "coordinates": [
     117.81197744,
     -32.21581028
    ]
   },
   "properties": {
    "name": "160 TURNBULL ROAD ADAMSVALE 6375",
    "locID": "LOC000106471269",
    "tech": "SATELLITE",
    "upgrade": "NULL_NA",
    "gnaf_pid": "GAWA_161925709"
   }
  },
  {
   "type": "Feature",
   "geometry": {
    "type": "Point",
    "coordinates": [
     117.69166644,
     -32.20417782
    ]
   },
   "properties": {
    "name": "61 CAPORN ROAD ADAMSVALE 6375",
    "locID": "LOC000054019651",
    "tech": "SATELLITE",
    "upgrade": "NULL_NA",
    "gnaf_pid": "GAWA_161990086"
   }
  },
  {
   "type": "Feature",
   "geometry": {
    "type": "Point",
    "coordinates": [
     117.63937299,
     -32.25168627
    ]
   },
   "properties": {
    "name": "604 FORTY NINE GATE ROAD WEST ADAMSVALE 6375",
    "locID": "LOC000055451217",
    "tech": "SATELLITE",
    "upgrade": "NULL_NA",
    "gnaf_pid": "GAWA_161991280"
   }
  },
  {
   "type": "Feature",
   "geometry": {
    "type": "Point",
    "coordinates": [
     117.75390022,
     -32.19860197
    ]
   },
   "properties": {
    "name": "10 BILBARIN-QUAIRADING ROAD ADAMSVALE 6375",
    "locID": "ChIJEweT9p1PNCoR4GR6QCHemRs",
    "tech": "SATELLITE",
    "upgrade": "UNKNOWN",
    "gnaf_pid": "GAWA_163207115"
   }
  },
  {
   "type": "Feature",
   "geometry": {
    "type": "Point",
    "coordinates": [
     117.75390022,
     -32.19860197
    ]
   },
   "properties": {
    "name": "23 BILBARIN-QUAIRADING ROAD ADAMSVALE 6375",
    "locID": "ChIJEweT9p1PNCoRE5NoRbKOC50",
    "tech": "SATELLITE",
    "upgrade": "UNKNOWN",
    "gnaf_pid": "GAWA_163207116"
   }
  },
  {
   "type": "Feature",
   "geometry": {
    "type": "Point",
    "coordinates": [
     117.75390022,
     -32.19860197
    ]
   },
   "properties": {
    "name": "13586 BILBARIN-QUAIRADING ROAD ADAMSVALE 6375",
    "locID": "ChIJEweT9p1PNCoRWvpuPmfTwrU",
    "tech": "SATELLITE",
    "upgrade": "UNKNOWN",
    "gnaf_pid": "GAWA_163386966"
   }
  },
  {
   "type": "Feature",
   "geometry": {
    "type": "Point",
    "coordinates": [
     117.82663063,
     -32.23484387
    ]
   },
   "properties": {
    "name": "332 HILLSIDE ROAD ADAMSVALE 6375",
    "locID": "LOC000153536831",
    "tech": "SATELLITE",
    "upgrade": "NULL_NA",
    "gnaf_pid": "GAWA_719036447"
   }
  }
 ]
}