{
 "type": "FeatureCollection",
 "generated": "2023-10-25T17:28:44.677919",
 "suburb": "BAANDEE",
 "features": [
  {
   "type": "Feature",
   "geometry": {
    "type": "Point",
    "coordinates": [
     117.97881,
     -31.53511
    ]
   },
   "properties": {
    "name": "423 BAANDEE NORTH ROAD BAANDEE 6412",
    "locID": "LOC000043503273",
    "tech": "SATELLITE",
    "upgrade": "NULL_NA",
    "gnaf_pid": "GAWA_161989151"
   }
  },
  {
   "type": "Feature",
   "geometry": {
    "type": "Point",
    "coordinates": [
     117.95399926,
     -31.48438925
    ]
   },
   "properties": {
    "name": "1511 BARNES ROAD BAANDEE 6412",
    "locID": "LOC000024643894",
    "tech": "SATELLITE",
    "upgrade": "NULL_NA",
    "gnaf_pid": "GAWA_161989223"
   }
  },
  {
   "type": "Feature",
   "geometry": {
    "type": "Point",
    "coordinates": [
     117.96783,
     -31.51744
    ]
   },
   "properties": {
    "name": "222 GARBIN ROAD BAANDEE 6412",
    "locID": "LOC000040002925",
    "tech": "SATELLITE",
    "upgrade": "NULL_NA",
    "gnaf_pid": "GAWA_161991376"
   }
  },
  {
   "type": "Feature",
   "geometry": {
    "type": "Point",
    "coordinates": [
     117.96348,
     -31.55671
    ]
   },
   "properties": {
    "name": "12224 GOLDFIELDS ROAD BAANDEE 6412",
    "locID": "LOC000106413698",
    "tech": "SATELLITE",
    "upgrade": "NULL_NA",
    "gnaf_pid": "GAWA_161991504"
   }
  },
  {
   "type": "Feature",
   "geometry": {
    "type": "Point",
    "coordinates": [
     117.9312,
     -31.58883
    ]
   },
   "properties": {
    "name": "19657 GREAT EASTERN HIGHWAY BAANDEE 6412",
    "locID": "LOC000077832081",
    "tech": "SATELLITE",
    "upgrade": "NULL_NA",
    "gnaf_pid": "GAWA_161991664"
   }
  },
  {
   "type": "Feature",
   "geometry": {
    "type": "Point",
    "coordinates": [
     117.94374,
     -31.58019
    ]
   },
   "properties": {
    "name": "19819 GREAT EASTERN HIGHWAY BAANDEE 6412",
    "locID": "LOC000015646738",
    "tech": "SATELLITE",
    "upgrade": "NULL_NA",
    "gnaf_pid": "GAWA_161991665"
   }
  },
  {
   "type": "Feature",
   "geometry": {
    "type": "Point",
    "coordinates": [
     118.01736316,
     -31.55531269
    ]
   },
   "properties": {
    "name": "254 HEWITT ROAD BAANDEE 6412",
    "locID": "LOC000047810623",
    "tech": "SATELLITE",
    "upgrade": "NULL_NA",
    "gnaf_pid": "GAWA_161991967"
   }
  },
  {
   "type": "Feature",
   "geometry": {
    "type": "Point",
    "coordinates": [
     118.02962106,
     -31.5654835
    ]
   },
   "properties": {
    "name": "20661 GREAT EASTERN HIGHWAY BAANDEE 6412",
    "locID": "ChIJLzSFzyIiNSoR31jPyN5oHFk",
    "tech": "SATELLITE",
    "upgrade": "UNKNOWN",
    "gnaf_pid": "GAWA_718912847"
   }
  }
 ]
}