{
 "type": "FeatureCollection",
 "generated": "2024-07-26T04:09:40.399908",
 "suburb": "BAANDEE",
 "features": [
  {
   "type": "Feature",
   "geometry": {
    "type": "Point",
    "coordinates": [
     117.97881,
     -31.53511
    ]
   },
   "properties": {
    "name": "423 BAANDEE NORTH ROAD BAANDEE 6412",
    "locID": "LOC000043503273",
    "tech": "SATELLITE",
    "upgrade": "NULL_NA",
    "gnaf_pid": "GAWA_161989151",
    "tech_change_status": "Not Planned"
   }
  },
  {
   "type": "Feature",
   "geometry": {
    "type": "Point",
    "coordinates": [
     117.95399926,
     -31.48438925
    ]
   },
   "properties": {
    "name": "1511 BARNES ROAD BAANDEE 6412",
    "locID": "LOC000024643894",
    "tech": "SATELLITE",
    "upgrade": "NULL_NA",
    "gnaf_pid": "GAWA_161989223",
    "tech_change_status": "Not Planned"
   }
  },
  {
   "type": "Feature",
   "geometry": {
    "type": "Point",
    "coordinates": [
     117.96783,
     -31.51744
    ]
   },
   "properties": {
    "name": "222 GARBIN ROAD BAANDEE 6412",
    "locID": "LOC000040002925",
    "tech": "SATELLITE",
    "upgrade": "NULL_NA",
    "gnaf_pid": "GAWA_161991376",
    "tech_change_status": "Not Planned"
   }
  },
  {
   "type": "Feature",
   "geometry": {
    "type": "Point",
    "coordinates": [
     117.96348,
     -31.55671
    ]
   },
   "properties": {
    "name": "12224 GOLDFIELDS ROAD BAANDEE 6412",
    "locID": "LOC000106413698",
    "tech": "SATELLITE",
    "upgrade": "NULL_NA",
    "gnaf_pid": "GAWA_161991504",
    "tech_change_status": "Not Planned"
   }
  },
  {
   "type": "Feature",
   "geometry": {
    "type": "Point",
    "coordinates": [
     117.9312,
     -31.58883
    ]
   },
   "properties": {
    "name": "19657 GREAT EASTERN HIGHWAY BAANDEE 6412",
    "locID": "LOC000077832081",
    "tech": "SATELLITE",
    "upgrade": "NULL_NA",
    "gnaf_pid": "GAWA_161991664",
    "tech_change_status": "Not Planned"
   }
  },
  {
   "type": "Feature",
   "geometry": {
    "type": "Point",
    "coordinates": [
     117.94374,
     -31.58019
    ]
   },
   "properties": {
    "name": "19819 GREAT EASTERN HIGHWAY BAANDEE 6412",
    "locID": "LOC000015646738",
    "tech": "SATELLITE",
    "upgrade": "NULL_NA",
    "gnaf_pid": "GAWA_161991665",
    "tech_change_status": "Not Planned"
   }
  },
  {
   "type": "Feature",
   "geometry": {
    "type": "Point",
    "coordinates": [
     118.01736316,
     -31.55531269
    ]
   },
   "properties": {
    "name": "254 HEWITT ROAD BAANDEE 6412",
    "locID": "LOC000047810623",
    "tech": "SATELLITE",
    "upgrade": "NULL_NA",
    "gnaf_pid": "GAWA_161991967",
    "tech_change_status": "Not Planned"
   }
  }
 ]
}