{
 "type": "FeatureCollection",
 "generated": "2024-07-26T04:51:33.345438",
 "suburb": "BERKSHIRE VALLEY",
 "features": [
  {
   "type": "Feature",
   "geometry": {
    "type": "Point",
    "coordinates": [
     116.075248,
     -30.568277
    ]
   },
   "properties": {
    "name": "618 CATTADY ROAD BERKSHIRE VALLEY 6510",
    "locID": "LOC000035501316",
    "tech": "SATELLITE",
    "upgrade": "NULL_NA",
    "gnaf_pid": "GAWA_162260402",
    "tech_change_status": "Not Planned"
   }
  },
  {
   "type": "Feature",
   "geometry": {
    "type": "Point",
    "coordinates": [
     116.20895697,
     -30.52892724
    ]
   },
   "properties": {
    "name": "433 CRESTLOW ROAD BERKSHIRE VALLEY 6510",
    "locID": "LOC000086651746",
    "tech": "SATELLITE",
    "upgrade": "NULL_NA",
    "gnaf_pid": "GAWA_162261499",
    "tech_change_status": "Not Planned"
   }
  },
  {
   "type": "Feature",
   "geometry": {
    "type": "Point",
    "coordinates": [
     116.135702,
     -30.535203
    ]
   },
   "properties": {
    "name": "1136 KIAKA ROAD BERKSHIRE VALLEY 6510",
    "locID": "LOC000050743704",
    "tech": "SATELLITE",
    "upgrade": "NULL_NA",
    "gnaf_pid": "GAWA_162265146",
    "tech_change_status": "Not Planned"
   }
  },
  {
   "type": "Feature",
   "geometry": {
    "type": "Point",
    "coordinates": [
     116.084297,
     -30.521383
    ]
   },
   "properties": {
    "name": "600 KIAKA ROAD BERKSHIRE VALLEY 6510",
    "locID": "LOC000066299525",
    "tech": "SATELLITE",
    "upgrade": "NULL_NA",
    "gnaf_pid": "GAWA_162265147",
    "tech_change_status": "Not Planned"
   }
  },
  {
   "type": "Feature",
   "geometry": {
    "type": "Point",
    "coordinates": [
     116.116837,
     -30.534583
    ]
   },
   "properties": {
    "name": "912 KIAKA ROAD BERKSHIRE VALLEY 6510",
    "locID": "LOC000051838540",
    "tech": "SATELLITE",
    "upgrade": "NULL_NA",
    "gnaf_pid": "GAWA_162265148",
    "tech_change_status": "Not Planned"
   }
  },
  {
   "type": "Feature",
   "geometry": {
    "type": "Point",
    "coordinates": [
     116.218464,
     -30.578956
    ]
   },
   "properties": {
    "name": "1373 MILING-MOORA ROAD BERKSHIRE VALLEY 6510",
    "locID": "LOC000014585616",
    "tech": "SATELLITE",
    "upgrade": "NULL_NA",
    "gnaf_pid": "GAWA_162266752",
    "tech_change_status": "Not Planned"
   }
  },
  {
   "type": "Feature",
   "geometry": {
    "type": "Point",
    "coordinates": [
     116.182123,
     -30.575288
    ]
   },
   "properties": {
    "name": "1763 MILING-MOORA ROAD BERKSHIRE VALLEY 6510",
    "locID": "LOC000040484056",
    "tech": "SATELLITE",
    "upgrade": "NULL_NA",
    "gnaf_pid": "GAWA_162266753",
    "tech_change_status": "Not Planned"
   }
  },
  {
   "type": "Feature",
   "geometry": {
    "type": "Point",
    "coordinates": [
     116.153336,
     -30.587748
    ]
   },
   "properties": {
    "name": "1997 MILING-MOORA ROAD BERKSHIRE VALLEY 6510",
    "locID": "LOC000073018243",
    "tech": "SATELLITE",
    "upgrade": "NULL_NA",
    "gnaf_pid": "GAWA_162266754",
    "tech_change_status": "Not Planned"
   }
  },
  {
   "type": "Feature",
   "geometry": {
    "type": "Point",
    "coordinates": [
     116.136234,
     -30.570951
    ]
   },
   "properties": {
    "name": "2240 MILING-MOORA ROAD BERKSHIRE VALLEY 6510",
    "locID": "LOC000053885352",
    "tech": "SATELLITE",
    "upgrade": "NULL_NA",
    "gnaf_pid": "GAWA_162266755",
    "tech_change_status": "Not Planned"
   }
  },
  {
   "type": "Feature",
   "geometry": {
    "type": "Point",
    "coordinates": [
     116.13962095,
     -30.58864143
    ]
   },
   "properties": {
    "name": "2241 MILING-MOORA ROAD BERKSHIRE VALLEY 6510",
    "locID": "LOC000062460532",
    "tech": "SATELLITE",
    "upgrade": "NULL_NA",
    "gnaf_pid": "GAWA_162266756",
    "tech_change_status": "Not Planned"
   }
  },
  {
   "type": "Feature",
   "geometry": {
    "type": "Point",
    "coordinates": [
     116.157835,
     -30.505958
    ]
   },
   "properties": {
    "name": "856 OLD GERALDTON ROAD BERKSHIRE VALLEY 6510",
    "locID": "LOC000008824246",
    "tech": "SATELLITE",
    "upgrade": "NULL_NA",
    "gnaf_pid": "GAWA_162267686",
    "tech_change_status": "Not Planned"
   }
  },
  {
   "type": "Feature",
   "geometry": {
    "type": "Point",
    "coordinates": [
     116.189925,
     -30.590948
    ]
   },
   "properties": {
    "name": "139 READWRIGHT ROAD BERKSHIRE VALLEY 6510",
    "locID": "LOC000016249884",
    "tech": "SATELLITE",
    "upgrade": "NULL_NA",
    "gnaf_pid": "GAWA_162268535",
    "tech_change_status": "Not Planned"
   }
  },
  {
   "type": "Feature",
   "geometry": {
    "type": "Point",
    "coordinates": [
     116.10571,
     -30.479536
    ]
   },
   "properties": {
    "name": "642 COOMBERDALE EAST ROAD BERKSHIRE VALLEY 6510",
    "locID": "LOC000104026220",
    "tech": "SATELLITE",
    "upgrade": "NULL_NA",
    "gnaf_pid": "GAWA_162276668",
    "tech_change_status": "Not Planned"
   }
  },
  {
   "type": "Feature",
   "geometry": {
    "type": "Point",
    "coordinates": [
     116.20500868,
     -30.54913695
    ]
   },
   "properties": {
    "name": "1374 MILING-MOORA ROAD BERKSHIRE VALLEY 6510",
    "locID": "LOC000059508250",
    "tech": "SATELLITE",
    "upgrade": "NULL_NA",
    "gnaf_pid": "GAWA_162278420",
    "tech_change_status": "Not Planned"
   }
  },
  {
   "type": "Feature",
   "geometry": {
    "type": "Point",
    "coordinates": [
     116.16199122,
     -30.54707169
    ]
   },
   "properties": {
    "name": "340 OLD GERALDTON ROAD BERKSHIRE VALLEY 6510",
    "locID": "LOC000102023700",
    "tech": "SATELLITE",
    "upgrade": "NULL_NA",
    "gnaf_pid": "GAWA_162278767",
    "tech_change_status": "Not Planned"
   }
  },
  {
   "type": "Feature",
   "geometry": {
    "type": "Point",
    "coordinates": [
     116.138014,
     -30.511994
    ]
   },
   "properties": {
    "name": "861 OLD GERALDTON ROAD BERKSHIRE VALLEY 6510",
    "locID": "LOC000066080714",
    "tech": "SATELLITE",
    "upgrade": "NULL_NA",
    "gnaf_pid": "GAWA_162278769",
    "tech_change_status": "Not Planned"
   }
  },
  {
   "type": "Feature",
   "geometry": {
    "type": "Point",
    "coordinates": [
     116.209888,
     -30.609722
    ]
   },
   "properties": {
    "name": "472 NIBY NIBY ROAD BERKSHIRE VALLEY 6510",
    "locID": "LOC000041967716",
    "tech": "SATELLITE",
    "upgrade": "NULL_NA",
    "gnaf_pid": "GAWA_162392177",
    "tech_change_status": "Not Planned"
   }
  },
  {
   "type": "Feature",
   "geometry": {
    "type": "Point",
    "coordinates": [
     116.23599024,
     -30.57379893
    ]
   },
   "properties": {
    "name": "744 ROUND HILL ROAD BERKSHIRE VALLEY 6510",
    "locID": "LOC000052432079",
    "tech": "SATELLITE",
    "upgrade": "NULL_NA",
    "gnaf_pid": "GAWA_162877218",
    "tech_change_status": "Not Planned"
   }
  },
  {
   "type": "Feature",
   "geometry": {
    "type": "Point",
    "coordinates": [
     116.12490536,
     -30.62396131
    ]
   },
   "properties": {
    "name": "441 PRIOR ROAD BERKSHIRE VALLEY 6510",
    "locID": "LOC100079659938",
    "tech": "SATELLITE",
    "upgrade": "NULL_NA",
    "gnaf_pid": "GAWA_720717587",
    "tech_change_status": "Not Planned"
   }
  }
 ]
}