{
 "type": "FeatureCollection",
 "generated": "2024-09-06T01:19:17.396776",
 "suburb": "BOYATUP",
 "features": [
  {
   "type": "Feature",
   "geometry": {
    "type": "Point",
    "coordinates": [
     122.93781712,
     -33.78551978
    ]
   },
   "properties": {
    "name": "LOT 1 MERIVALE ROAD BOYATUP 6450",
    "locID": "LOC000108378016",
    "tech": "NULL",
    "upgrade": "NULL_NA",
    "gnaf_pid": "GAWA_161564422",
    "tech_change_status": "Not Planned"
   }
  },
  {
   "type": "Feature",
   "geometry": {
    "type": "Point",
    "coordinates": [
     123.17528608,
     -33.79553132
    ]
   },
   "properties": {
    "name": "LOT 313 BARING ROAD BOYATUP 6450",
    "locID": "LOC000109454311",
    "tech": "SATELLITE",
    "upgrade": "NULL_NA",
    "gnaf_pid": "GAWA_161595497",
    "tech_change_status": "Not Planned"
   }
  },
  {
   "type": "Feature",
   "geometry": {
    "type": "Point",
    "coordinates": [
     122.90705678,
     -33.78628116
    ]
   },
   "properties": {
    "name": "LOT 123 MERIVALE ROAD BOYATUP 6450",
    "locID": "LOC000108378016",
    "tech": "NULL",
    "upgrade": "NULL_NA",
    "gnaf_pid": "GAWA_162797640",
    "tech_change_status": "Not Planned"
   }
  },
  {
   "type": "Feature",
   "geometry": {
    "type": "Point",
    "coordinates": [
     123.0689068,
     -33.74366607
    ]
   },
   "properties": {
    "name": "312 FISHERIES ROAD BOYATUP 6450",
    "locID": "LOC000148160693",
    "tech": "NULL",
    "upgrade": "NULL_NA",
    "gnaf_pid": "GAWA_163388762",
    "tech_change_status": "Not Planned"
   }
  },
  {
   "type": "Feature",
   "geometry": {
    "type": "Point",
    "coordinates": [
     123.0689068,
     -33.74366607
    ]
   },
   "properties": {
    "name": "467 FISHERIES ROAD BOYATUP 6450",
    "locID": "LOC000148160705",
    "tech": "NULL",
    "upgrade": "NULL_NA",
    "gnaf_pid": "GAWA_163388763",
    "tech_change_status": "Not Planned"
   }
  },
  {
   "type": "Feature",
   "geometry": {
    "type": "Point",
    "coordinates": [
     123.04486234,
     -33.81085883
    ]
   },
   "properties": {
    "name": "301 MERIVALE ROAD BOYATUP 6450",
    "locID": "LOC000148162550",
    "tech": "SATELLITE",
    "upgrade": "NULL_NA",
    "gnaf_pid": "GAWA_163390691",
    "tech_change_status": "Not Planned"
   }
  },
  {
   "type": "Feature",
   "geometry": {
    "type": "Point",
    "coordinates": [
     123.22184652,
     -33.8025075
    ]
   },
   "properties": {
    "name": "605 BARING ROAD BOYATUP 6450",
    "locID": "LOC000148368932",
    "tech": "SATELLITE",
    "upgrade": "NULL_NA",
    "gnaf_pid": "GAWA_718447715",
    "tech_change_status": "Not Planned"
   }
  },
  {
   "type": "Feature",
   "geometry": {
    "type": "Point",
    "coordinates": [
     122.9158314,
     -33.73660985
    ]
   },
   "properties": {
    "name": "10067 FISHERIES ROAD BOYATUP 6450",
    "locID": "LOC000148152088",
    "tech": "NULL",
    "upgrade": "NULL_NA",
    "gnaf_pid": "GAWA_718449455",
    "tech_change_status": "Not Planned"
   }
  },
  {
   "type": "Feature",
   "geometry": {
    "type": "Point",
    "coordinates": [
     122.90625516,
     -33.75975816
    ]
   },
   "properties": {
    "name": "LOT 122 FISHERIES ROAD BOYATUP 6450",
    "locID": "LOC000148160672",
    "tech": "SATELLITE",
    "upgrade": "NULL_NA",
    "gnaf_pid": "GAWA_718449462",
    "tech_change_status": "Not Planned"
   }
  },
  {
   "type": "Feature",
   "geometry": {
    "type": "Point",
    "coordinates": [
     123.17642874,
     -33.76272153
    ]
   },
   "properties": {
    "name": "LOT 312 FISHERIES ROAD BOYATUP 6450",
    "locID": "LOC000148160693",
    "tech": "NULL",
    "upgrade": "NULL_NA",
    "gnaf_pid": "GAWA_718449464",
    "tech_change_status": "Not Planned"
   }
  },
  {
   "type": "Feature",
   "geometry": {
    "type": "Point",
    "coordinates": [
     123.20945808,
     -33.72696777
    ]
   },
   "properties": {
    "name": "LOT 467 FISHERIES ROAD BOYATUP 6450",
    "locID": "LOC000148160705",
    "tech": "NULL",
    "upgrade": "NULL_NA",
    "gnaf_pid": "GAWA_718449465",
    "tech_change_status": "Not Planned"
   }
  },
  {
   "type": "Feature",
   "geometry": {
    "type": "Point",
    "coordinates": [
     123.06597739,
     -33.78647157
    ]
   },
   "properties": {
    "name": "474 GREWAR ROAD BOYATUP 6450",
    "locID": "LOC000148369255",
    "tech": "SATELLITE",
    "upgrade": "NULL_NA",
    "gnaf_pid": "GAWA_718449811",
    "tech_change_status": "Not Planned"
   }
  },
  {
   "type": "Feature",
   "geometry": {
    "type": "Point",
    "coordinates": [
     122.98260604,
     -33.78912078
    ]
   },
   "properties": {
    "name": "LOT 301 MERIVALE ROAD BOYATUP 6450",
    "locID": "LOC000148162550",
    "tech": "SATELLITE",
    "upgrade": "NULL_NA",
    "gnaf_pid": "GAWA_718451099",
    "tech_change_status": "Not Planned"
   }
  },
  {
   "type": "Feature",
   "geometry": {
    "type": "Point",
    "coordinates": [
     122.9820058,
     -33.77086075
    ]
   },
   "properties": {
    "name": "245 TAGON ROAD BOYATUP 6450",
    "locID": "LOC000148369962",
    "tech": "NULL",
    "upgrade": "NULL_NA",
    "gnaf_pid": "GAWA_718453071",
    "tech_change_status": "Not Planned"
   }
  },
  {
   "type": "Feature",
   "geometry": {
    "type": "Point",
    "coordinates": [
     123.1968568,
     -33.78007301
    ]
   },
   "properties": {
    "name": "313 BARING ROAD BOYATUP 6450",
    "locID": "LOC000109454311",
    "tech": "SATELLITE",
    "upgrade": "NULL_NA",
    "gnaf_pid": "GAWA_719044741",
    "tech_change_status": "Not Planned"
   }
  }
 ]
}