{
 "type": "FeatureCollection",
 "generated": "2023-10-25T19:00:08.074028",
 "suburb": "BRETON BAY",
 "features": [
  {
   "type": "Feature",
   "geometry": {
    "type": "Point",
    "coordinates": [
     115.44371,
     -31.20457
    ]
   },
   "properties": {
    "name": "22 GREENWOOD COAST ROAD BRETON BAY 6043",
    "locID": "LOC000028796489",
    "tech": "SATELLITE",
    "upgrade": "NULL_NA",
    "gnaf_pid": "GAWA_146975306"
   }
  },
  {
   "type": "Feature",
   "geometry": {
    "type": "Point",
    "coordinates": [
     115.44383436,
     -31.15343993
    ]
   },
   "properties": {
    "name": "222 BENNIES ROAD BRETON BAY 6043",
    "locID": "LOC000042199516",
    "tech": "WIRELESS",
    "upgrade": "NULL_NA",
    "gnaf_pid": "GAWA_147080547"
   }
  },
  {
   "type": "Feature",
   "geometry": {
    "type": "Point",
    "coordinates": [
     115.47367338,
     -31.21524811
    ]
   },
   "properties": {
    "name": "LOT 105 INDIAN OCEAN DRIVE BRETON BAY 6043",
    "locID": "Ei5JbmRpYW4gT2NlYW4gRHIsIEJyZXRvbiBCYXkgV0EgNjA0MywgQXVzdHJhbGlhIi4qLAoUChIJNRkQiTSb0isR-a-lfAHtOnASFAoSCUsYVvkNiNIrERDjeSQ49gAE",
    "tech": "SATELLITE",
    "upgrade": "UNKNOWN",
    "gnaf_pid": "GAWA_162722550"
   }
  },
  {
   "type": "Feature",
   "geometry": {
    "type": "Point",
    "coordinates": [
     115.47604479,
     -31.21865052
    ]
   },
   "properties": {
    "name": "1752 INDIAN OCEAN DRIVE BRETON BAY 6043",
    "locID": "ChIJsx72l6iI0isR-n1C9mcTHjk",
    "tech": "SATELLITE",
    "upgrade": "UNKNOWN",
    "gnaf_pid": "GAWA_162727644"
   }
  },
  {
   "type": "Feature",
   "geometry": {
    "type": "Point",
    "coordinates": [
     115.47507141,
     -31.1135366
    ]
   },
   "properties": {
    "name": "2719 KILDARE ROAD BRETON BAY 6043",
    "locID": "LOC000114512892",
    "tech": "SATELLITE",
    "upgrade": "NULL_NA",
    "gnaf_pid": "GAWA_163390109"
   }
  },
  {
   "type": "Feature",
   "geometry": {
    "type": "Point",
    "coordinates": [
     115.47507141,
     -31.1135366
    ]
   },
   "properties": {
    "name": "LOT 1 KILDARE ROAD BRETON BAY 6043",
    "locID": "LOC000114512892",
    "tech": "SATELLITE",
    "upgrade": "NULL_NA",
    "gnaf_pid": "GAWA_718537595"
   }
  },
  {
   "type": "Feature",
   "geometry": {
    "type": "Point",
    "coordinates": [
     115.49615622,
     -31.24235911
    ]
   },
   "properties": {
    "name": "968 INDIAN OCEAN DRIVE BRETON BAY 6043",
    "locID": "ChIJJd9RbuqF0isRS3kktW3J9fo",
    "tech": "SATELLITE",
    "upgrade": "UNKNOWN",
    "gnaf_pid": "GAWA_720888752"
   }
  }
 ]
}