{
 "type": "FeatureCollection",
 "generated": "2024-09-24T16:56:22.060647",
 "suburb": "BUNTINE",
 "features": [
  {
   "type": "Feature",
   "geometry": {
    "type": "Point",
    "coordinates": [
     116.56987519,
     -29.98738202
    ]
   },
   "properties": {
    "name": "25 DOUGLAS STREET BUNTINE 6613",
    "locID": "LOC000100414955",
    "tech": "NULL",
    "upgrade": "NULL_NA",
    "gnaf_pid": "GAWA_146978242",
    "tech_change_status": "Not Planned"
   }
  },
  {
   "type": "Feature",
   "geometry": {
    "type": "Point",
    "coordinates": [
     116.565086,
     -29.979466
    ]
   },
   "properties": {
    "name": "4 NELSON STREET BUNTINE 6613",
    "locID": "LOC000065217098",
    "tech": "NULL",
    "upgrade": "NULL_NA",
    "gnaf_pid": "GAWA_147240044",
    "tech_change_status": "Not Planned"
   }
  },
  {
   "type": "Feature",
   "geometry": {
    "type": "Point",
    "coordinates": [
     116.56966725,
     -29.98706744
    ]
   },
   "properties": {
    "name": "21 DOUGLAS STREET BUNTINE 6613",
    "locID": "LOC000045201180",
    "tech": "NULL",
    "upgrade": "NULL_NA",
    "gnaf_pid": "GAWA_147240047",
    "tech_change_status": "Not Planned"
   }
  },
  {
   "type": "Feature",
   "geometry": {
    "type": "Point",
    "coordinates": [
     116.567846,
     -29.986052
    ]
   },
   "properties": {
    "name": "2 DOUGLAS STREET BUNTINE 6613",
    "locID": "LOC000045850202",
    "tech": "NULL",
    "upgrade": "NULL_NA",
    "gnaf_pid": "GAWA_147544235",
    "tech_change_status": "Not Planned"
   }
  },
  {
   "type": "Feature",
   "geometry": {
    "type": "Point",
    "coordinates": [
     116.56846678,
     -29.98534399
    ]
   },
   "properties": {
    "name": "1 DOUGLAS STREET BUNTINE 6613",
    "locID": "LOC000035252533",
    "tech": "NULL",
    "upgrade": "NULL_NA",
    "gnaf_pid": "GAWA_149187990",
    "tech_change_status": "Not Planned"
   }
  },
  {
   "type": "Feature",
   "geometry": {
    "type": "Point",
    "coordinates": [
     116.56862759,
     -29.98549458
    ]
   },
   "properties": {
    "name": "3 DOUGLAS STREET BUNTINE 6613",
    "locID": "LOC000133644249",
    "tech": "NULL",
    "upgrade": "NULL_NA",
    "gnaf_pid": "GAWA_149187991",
    "tech_change_status": "Not Planned"
   }
  },
  {
   "type": "Feature",
   "geometry": {
    "type": "Point",
    "coordinates": [
     116.56873156,
     -29.98565187
    ]
   },
   "properties": {
    "name": "5 DOUGLAS STREET BUNTINE 6613",
    "locID": "LOC000111931341",
    "tech": "NULL",
    "upgrade": "NULL_NA",
    "gnaf_pid": "GAWA_149187992",
    "tech_change_status": "Not Planned"
   }
  },
  {
   "type": "Feature",
   "geometry": {
    "type": "Point",
    "coordinates": [
     116.56883553,
     -29.98580916
    ]
   },
   "properties": {
    "name": "7 DOUGLAS STREET BUNTINE 6613",
    "locID": "LOC000003753012",
    "tech": "SATELLITE",
    "upgrade": "NULL_NA",
    "gnaf_pid": "GAWA_149187993",
    "tech_change_status": "Not Planned"
   }
  },
  {
   "type": "Feature",
   "geometry": {
    "type": "Point",
    "coordinates": [
     116.56893949,
     -29.98596645
    ]
   },
   "properties": {
    "name": "9 DOUGLAS STREET BUNTINE 6613",
    "locID": "LOC000044981336",
    "tech": "SATELLITE",
    "upgrade": "NULL_NA",
    "gnaf_pid": "GAWA_149187994",
    "tech_change_status": "Not Planned"
   }
  },
  {
   "type": "Feature",
   "geometry": {
    "type": "Point",
    "coordinates": [
     116.56956329,
     -29.98691015
    ]
   },
   "properties": {
    "name": "19 DOUGLAS STREET BUNTINE 6613",
    "locID": "LOC000035252533",
    "tech": "NULL",
    "upgrade": "NULL_NA",
    "gnaf_pid": "GAWA_161035309",
    "tech_change_status": "Not Planned"
   }
  },
  {
   "type": "Feature",
   "geometry": {
    "type": "Point",
    "coordinates": [
     116.63615407,
     -30.02829421
    ]
   },
   "properties": {
    "name": "383 BOUCHER ROAD BUNTINE 6613",
    "locID": "LOC000087282159",
    "tech": "NULL",
    "upgrade": "NULL_NA",
    "gnaf_pid": "GAWA_162327441",
    "tech_change_status": "Not Planned"
   }
  },
  {
   "type": "Feature",
   "geometry": {
    "type": "Point",
    "coordinates": [
     116.339354,
     -29.944064
    ]
   },
   "properties": {
    "name": "745 BRYANT ROAD BUNTINE 6613",
    "locID": "LOC000032139486",
    "tech": "SATELLITE",
    "upgrade": "NULL_NA",
    "gnaf_pid": "GAWA_162327553",
    "tech_change_status": "Not Planned"
   }
  },
  {
   "type": "Feature",
   "geometry": {
    "type": "Point",
    "coordinates": [
     116.376452,
     -29.952035
    ]
   },
   "properties": {
    "name": "766 BRYANT ROAD BUNTINE 6613",
    "locID": "LOC000107630959",
    "tech": "SATELLITE",
    "upgrade": "NULL_NA",
    "gnaf_pid": "GAWA_162327554",
    "tech_change_status": "Not Planned"
   }
  },
  {
   "type": "Feature",
   "geometry": {
    "type": "Point",
    "coordinates": [
     116.698939,
     -29.984849
    ]
   },
   "properties": {
    "name": "1166 BUNTINE EAST ROAD BUNTINE 6613",
    "locID": "LOC000014441230",
    "tech": "NULL",
    "upgrade": "NULL_NA",
    "gnaf_pid": "GAWA_162327576",
    "tech_change_status": "Not Planned"
   }
  },
  {
   "type": "Feature",
   "geometry": {
    "type": "Point",
    "coordinates": [
     116.615938,
     -29.956519
    ]
   },
   "properties": {
    "name": "529 BUNTINE EAST ROAD BUNTINE 6613",
    "locID": "LOC000002868244",
    "tech": "NULL",
    "upgrade": "NULL_NA",
    "gnaf_pid": "GAWA_162327577",
    "tech_change_status": "Not Planned"
   }
  },
  {
   "type": "Feature",
   "geometry": {
    "type": "Point",
    "coordinates": [
     116.40741074,
     -30.01051038
    ]
   },
   "properties": {
    "name": "1773 BUNTINE-MARCHAGEE ROAD BUNTINE 6613",
    "locID": "LOC000034442769",
    "tech": "SATELLITE",
    "upgrade": "NULL_NA",
    "gnaf_pid": "GAWA_162327578",
    "tech_change_status": "Not Planned"
   }
  },
  {
   "type": "Feature",
   "geometry": {
    "type": "Point",
    "coordinates": [
     116.37091023,
     -30.01865886
    ]
   },
   "properties": {
    "name": "1898 BUNTINE-MARCHAGEE ROAD BUNTINE 6613",
    "locID": "LOC000002931183",
    "tech": "SATELLITE",
    "upgrade": "NULL_NA",
    "gnaf_pid": "GAWA_162327579",
    "tech_change_status": "Not Planned"
   }
  },
  {
   "type": "Feature",
   "geometry": {
    "type": "Point",
    "coordinates": [
     116.615678,
     -29.91638
    ]
   },
   "properties": {
    "name": "248 BURGESS ROAD BUNTINE 6613",
    "locID": "LOC000056446649",
    "tech": "NULL",
    "upgrade": "NULL_NA",
    "gnaf_pid": "GAWA_162327585",
    "tech_change_status": "Not Planned"
   }
  },
  {
   "type": "Feature",
   "geometry": {
    "type": "Point",
    "coordinates": [
     116.52128184,
     -29.97721931
    ]
   },
   "properties": {
    "name": "354 COUNSEL ROAD BUNTINE 6613",
    "locID": "LOC000061500182",
    "tech": "NULL",
    "upgrade": "NULL_NA",
    "gnaf_pid": "GAWA_162328214",
    "tech_change_status": "Not Planned"
   }
  },
  {
   "type": "Feature",
   "geometry": {
    "type": "Point",
    "coordinates": [
     116.49692919,
     -29.9566421
    ]
   },
   "properties": {
    "name": "646 COUNSEL ROAD BUNTINE 6613",
    "locID": "LOC000025684091",
    "tech": "NULL",
    "upgrade": "NULL_NA",
    "gnaf_pid": "GAWA_162328215",
    "tech_change_status": "Not Planned"
   }
  },
  {
   "type": "Feature",
   "geometry": {
    "type": "Point",
    "coordinates": [
     116.567832,
     -29.984405
    ]
   },
   "properties": {
    "name": "14 DERMER STREET BUNTINE 6613",
    "locID": "LOC000004525441",
    "tech": "NULL",
    "upgrade": "NULL_NA",
    "gnaf_pid": "GAWA_162328445",
    "tech_change_status": "Not Planned"
   }
  },
  {
   "type": "Feature",
   "geometry": {
    "type": "Point",
    "coordinates": [
     116.564207,
     -29.984145
    ]
   },
   "properties": {
    "name": "44 DERMER STREET BUNTINE 6613",
    "locID": "LOC000059340043",
    "tech": "NULL",
    "upgrade": "NULL_NA",
    "gnaf_pid": "GAWA_162328446",
    "tech_change_status": "Not Planned"
   }
  },
  {
   "type": "Feature",
   "geometry": {
    "type": "Point",
    "coordinates": [
     116.560873,
     -29.98415
    ]
   },
   "properties": {
    "name": "76 DERMER STREET BUNTINE 6613",
    "locID": "LOC000082275422",
    "tech": "NULL",
    "upgrade": "NULL_NA",
    "gnaf_pid": "GAWA_162328447",
    "tech_change_status": "Not Planned"
   }
  },
  {
   "type": "Feature",
   "geometry": {
    "type": "Point",
    "coordinates": [
     116.573802,
     -29.970092
    ]
   },
   "properties": {
    "name": "140 DINNIE ROAD BUNTINE 6613",
    "locID": "LOC000049742027",
    "tech": "NULL",
    "upgrade": "NULL_NA",
    "gnaf_pid": "GAWA_162328504",
    "tech_change_status": "Not Planned"
   }
  },
  {
   "type": "Feature",
   "geometry": {
    "type": "Point",
    "coordinates": [
     116.688557,
     -29.934589
    ]
   },
   "properties": {
    "name": "526 FITZSIMONS ROAD BUNTINE 6613",
    "locID": "LOC000091699690",
    "tech": "SATELLITE",
    "upgrade": "NULL_NA",
    "gnaf_pid": "GAWA_162328946",
    "tech_change_status": "Not Planned"
   }
  },
  {
   "type": "Feature",
   "geometry": {
    "type": "Point",
    "coordinates": [
     116.67692,
     -29.9721
    ]
   },
   "properties": {
    "name": "62 FITZSIMONS ROAD BUNTINE 6613",
    "locID": "LOC000097883921",
    "tech": "NULL",
    "upgrade": "NULL_NA",
    "gnaf_pid": "GAWA_162328947",
    "tech_change_status": "Not Planned"
   }
  },
  {
   "type": "Feature",
   "geometry": {
    "type": "Point",
    "coordinates": [
     116.585975,
     -29.923614
    ]
   },
   "properties": {
    "name": "160 HARLE ROAD BUNTINE 6613",
    "locID": "LOC000055878845",
    "tech": "NULL",
    "upgrade": "NULL_NA",
    "gnaf_pid": "GAWA_162329626",
    "tech_change_status": "Not Planned"
   }
  },
  {
   "type": "Feature",
   "geometry": {
    "type": "Point",
    "coordinates": [
     116.550226,
     -29.911386
    ]
   },
   "properties": {
    "name": "363 HARLE ROAD BUNTINE 6613",
    "locID": "LOC000095909283",
    "tech": "NULL",
    "upgrade": "NULL_NA",
    "gnaf_pid": "GAWA_162329627",
    "tech_change_status": "Not Planned"
   }
  },
  {
   "type": "Feature",
   "geometry": {
    "type": "Point",
    "coordinates": [
     116.44199252,
     -30.00796302
    ]
   },
   "properties": {
    "name": "1152 JACKSON ROAD BUNTINE 6613",
    "locID": "LOC000012960001",
    "tech": "SATELLITE",
    "upgrade": "NULL_NA",
    "gnaf_pid": "GAWA_162329951",
    "tech_change_status": "Not Planned"
   }
  },
  {
   "type": "Feature",
   "geometry": {
    "type": "Point",
    "coordinates": [
     116.47288363,
     -29.95667287
    ]
   },
   "properties": {
    "name": "539 JACKSON ROAD BUNTINE 6613",
    "locID": "LOC000018120718",
    "tech": "SATELLITE",
    "upgrade": "NULL_NA",
    "gnaf_pid": "GAWA_162329952",
    "tech_change_status": "Not Planned"
   }
  },
  {
   "type": "Feature",
   "geometry": {
    "type": "Point",
    "coordinates": [
     116.545875,
     -29.965313
    ]
   },
   "properties": {
    "name": "20182 MULLEWA-WUBIN ROAD BUNTINE 6613",
    "locID": "LOC000083031179",
    "tech": "NULL",
    "upgrade": "NULL_NA",
    "gnaf_pid": "GAWA_162331079",
    "tech_change_status": "Not Planned"
   }
  },
  {
   "type": "Feature",
   "geometry": {
    "type": "Point",
    "coordinates": [
     116.56315183,
     -29.97375042
    ]
   },
   "properties": {
    "name": "20566 MULLEWA-WUBIN ROAD BUNTINE 6613",
    "locID": "LOC000059491877",
    "tech": "NULL",
    "upgrade": "NULL_NA",
    "gnaf_pid": "GAWA_162331080",
    "tech_change_status": "Not Planned"
   }
  },
  {
   "type": "Feature",
   "geometry": {
    "type": "Point",
    "coordinates": [
     116.5735509,
     -29.98350983
    ]
   },
   "properties": {
    "name": "20573 MULLEWA-WUBIN ROAD BUNTINE 6613",
    "locID": "LOC000060161081",
    "tech": "NULL",
    "upgrade": "NULL_NA",
    "gnaf_pid": "GAWA_162331081",
    "tech_change_status": "Not Planned"
   }
  },
  {
   "type": "Feature",
   "geometry": {
    "type": "Point",
    "coordinates": [
     116.59644044,
     -30.02857802
    ]
   },
   "properties": {
    "name": "21081 MULLEWA-WUBIN ROAD BUNTINE 6613",
    "locID": "LOC000006549129",
    "tech": "NULL",
    "upgrade": "NULL_NA",
    "gnaf_pid": "GAWA_162331082",
    "tech_change_status": "Not Planned"
   }
  },
  {
   "type": "Feature",
   "geometry": {
    "type": "Point",
    "coordinates": [
     116.56941971,
     -29.9851053
    ]
   },
   "properties": {
    "name": "66 NELSON STREET BUNTINE 6613",
    "locID": "LOC000065217098",
    "tech": "NULL",
    "upgrade": "NULL_NA",
    "gnaf_pid": "GAWA_162331284",
    "tech_change_status": "Not Planned"
   }
  },
  {
   "type": "Feature",
   "geometry": {
    "type": "Point",
    "coordinates": [
     116.723166,
     -29.97141
    ]
   },
   "properties": {
    "name": "1100 RICHARDS ROAD BUNTINE 6613",
    "locID": "LOC000067933707",
    "tech": "NULL",
    "upgrade": "NULL_NA",
    "gnaf_pid": "GAWA_162332115",
    "tech_change_status": "Not Planned"
   }
  },
  {
   "type": "Feature",
   "geometry": {
    "type": "Point",
    "coordinates": [
     116.716237,
     -30.001804
    ]
   },
   "properties": {
    "name": "698 RICHARDS ROAD BUNTINE 6613",
    "locID": "LOC000015469488",
    "tech": "NULL",
    "upgrade": "NULL_NA",
    "gnaf_pid": "GAWA_162332116",
    "tech_change_status": "Not Planned"
   }
  },
  {
   "type": "Feature",
   "geometry": {
    "type": "Point",
    "coordinates": [
     116.754196,
     -29.899173
    ]
   },
   "properties": {
    "name": "1356 WASLEY ROAD BUNTINE 6613",
    "locID": "LOC000043561645",
    "tech": "SATELLITE",
    "upgrade": "NULL_NA",
    "gnaf_pid": "GAWA_162333686",
    "tech_change_status": "Not Planned"
   }
  },
  {
   "type": "Feature",
   "geometry": {
    "type": "Point",
    "coordinates": [
     116.414284,
     -29.951718
    ]
   },
   "properties": {
    "name": "1009 WESTS ROAD BUNTINE 6613",
    "locID": "LOC000017042682",
    "tech": "SATELLITE",
    "upgrade": "NULL_NA",
    "gnaf_pid": "GAWA_162333787",
    "tech_change_status": "Not Planned"
   }
  },
  {
   "type": "Feature",
   "geometry": {
    "type": "Point",
    "coordinates": [
     116.43525862,
     -29.97474245
    ]
   },
   "properties": {
    "name": "1118 WESTS ROAD BUNTINE 6613",
    "locID": "LOC000107593354",
    "tech": "NULL",
    "upgrade": "NULL_NA",
    "gnaf_pid": "GAWA_162333788",
    "tech_change_status": "Not Planned"
   }
  },
  {
   "type": "Feature",
   "geometry": {
    "type": "Point",
    "coordinates": [
     116.645448,
     -29.915875
    ]
   },
   "properties": {
    "name": "1244 WILDER ROAD BUNTINE 6613",
    "locID": "LOC000080747231",
    "tech": "NULL",
    "upgrade": "NULL_NA",
    "gnaf_pid": "GAWA_162333855",
    "tech_change_status": "Not Planned"
   }
  },
  {
   "type": "Feature",
   "geometry": {
    "type": "Point",
    "coordinates": [
     116.40741074,
     -30.01051038
    ]
   },
   "properties": {
    "name": "1541 BUNTINE-MARCHAGEE ROAD BUNTINE 6613",
    "locID": "LOC000019481370",
    "tech": "SATELLITE",
    "upgrade": "NULL_NA",
    "gnaf_pid": "GAWA_162337572",
    "tech_change_status": "Not Planned"
   }
  },
  {
   "type": "Feature",
   "geometry": {
    "type": "Point",
    "coordinates": [
     116.44199252,
     -30.00796302
    ]
   },
   "properties": {
    "name": "1164 JACKSON ROAD BUNTINE 6613",
    "locID": "LOC000038447627",
    "tech": "NULL",
    "upgrade": "NULL_NA",
    "gnaf_pid": "GAWA_162338116",
    "tech_change_status": "Not Planned"
   }
  },
  {
   "type": "Feature",
   "geometry": {
    "type": "Point",
    "coordinates": [
     116.54189216,
     -29.98055319
    ]
   },
   "properties": {
    "name": "3 SMITH STREET BUNTINE 6613",
    "locID": "LOC000091596636",
    "tech": "NULL",
    "upgrade": "NULL_NA",
    "gnaf_pid": "GAWA_162645588",
    "tech_change_status": "Not Planned"
   }
  },
  {
   "type": "Feature",
   "geometry": {
    "type": "Point",
    "coordinates": [
     116.54189216,
     -29.98055319
    ]
   },
   "properties": {
    "name": "43 SMITH STREET BUNTINE 6613",
    "locID": "LOC000037433002",
    "tech": "SATELLITE",
    "upgrade": "NULL_NA",
    "gnaf_pid": "GAWA_162651864",
    "tech_change_status": "Not Planned"
   }
  },
  {
   "type": "Feature",
   "geometry": {
    "type": "Point",
    "coordinates": [
     116.40741074,
     -30.01051038
    ]
   },
   "properties": {
    "name": "1716 PEARSE ROAD BUNTINE 6613",
    "locID": "LOC000019526028",
    "tech": "SATELLITE",
    "upgrade": "NULL_NA",
    "gnaf_pid": "GAWA_162690430",
    "tech_change_status": "Not Planned"
   }
  },
  {
   "type": "Feature",
   "geometry": {
    "type": "Point",
    "coordinates": [
     116.56849079,
     -29.98658808
    ]
   },
   "properties": {
    "name": "10 HOPE STREET BUNTINE 6613",
    "locID": "LOC000112779630",
    "tech": "NULL",
    "upgrade": "NULL_NA",
    "gnaf_pid": "GAWA_162759379",
    "tech_change_status": "Not Planned"
   }
  },
  {
   "type": "Feature",
   "geometry": {
    "type": "Point",
    "coordinates": [
     116.56926917,
     -29.9870984
    ]
   },
   "properties": {
    "name": "LOT 21 DOUGLAS STREET BUNTINE 6613",
    "locID": "LOC000045201180",
    "tech": "NULL",
    "upgrade": "NULL_NA",
    "gnaf_pid": "GAWA_162837233",
    "tech_change_status": "Not Planned"
   }
  }
 ]
}