{
 "type": "FeatureCollection",
 "generated": "2024-07-07T11:55:45.158434",
 "suburb": "BURLONG",
 "features": [
  {
   "type": "Feature",
   "geometry": {
    "type": "Point",
    "coordinates": [
     116.59130052,
     -31.69174005
    ]
   },
   "properties": {
    "name": "66 APHYLLA ROAD BURLONG 6401",
    "locID": "LOC000002072196",
    "tech": "SATELLITE",
    "upgrade": "NULL_NA",
    "gnaf_pid": "GAWA_160647999",
    "tech_change_status": "Not Planned"
   }
  },
  {
   "type": "Feature",
   "geometry": {
    "type": "Point",
    "coordinates": [
     116.59547756,
     -31.69997692
    ]
   },
   "properties": {
    "name": "68 APHYLLA ROAD BURLONG 6401",
    "locID": "LOC000019446421",
    "tech": "SATELLITE",
    "upgrade": "NULL_NA",
    "gnaf_pid": "GAWA_160648000",
    "tech_change_status": "Not Planned"
   }
  },
  {
   "type": "Feature",
   "geometry": {
    "type": "Point",
    "coordinates": [
     116.60208091,
     -31.68041783
    ]
   },
   "properties": {
    "name": "4 TRIMMER ROAD BURLONG 6401",
    "locID": "LOC000056799330",
    "tech": "SATELLITE",
    "upgrade": "NULL_NA",
    "gnaf_pid": "GAWA_160648001",
    "tech_change_status": "Not Planned"
   }
  },
  {
   "type": "Feature",
   "geometry": {
    "type": "Point",
    "coordinates": [
     116.59602393,
     -31.6831064
    ]
   },
   "properties": {
    "name": "6175 GREAT EASTERN HIGHWAY BURLONG 6401",
    "locID": "LOC000106549715",
    "tech": "SATELLITE",
    "upgrade": "NULL_NA",
    "gnaf_pid": "GAWA_160649031",
    "tech_change_status": "Not Planned"
   }
  },
  {
   "type": "Feature",
   "geometry": {
    "type": "Point",
    "coordinates": [
     116.58780639,
     -31.69320495
    ]
   },
   "properties": {
    "name": "6 APHYLLA ROAD BURLONG 6401",
    "locID": "LOC000019446421",
    "tech": "SATELLITE",
    "upgrade": "NULL_NA",
    "gnaf_pid": "GAWA_160652292",
    "tech_change_status": "Not Planned"
   }
  },
  {
   "type": "Feature",
   "geometry": {
    "type": "Point",
    "coordinates": [
     116.60827928,
     -31.6710961
    ]
   },
   "properties": {
    "name": "6349 GREAT EASTERN HIGHWAY BURLONG 6401",
    "locID": "LOC000023727086",
    "tech": "SATELLITE",
    "upgrade": "NULL_NA",
    "gnaf_pid": "GAWA_160652533",
    "tech_change_status": "Not Planned"
   }
  },
  {
   "type": "Feature",
   "geometry": {
    "type": "Point",
    "coordinates": [
     116.58782239,
     -31.68079563
    ]
   },
   "properties": {
    "name": "54 DEMPSTER ROAD BURLONG 6401",
    "locID": "LOC000045678802",
    "tech": "SATELLITE",
    "upgrade": "NULL_NA",
    "gnaf_pid": "GAWA_160655912",
    "tech_change_status": "Not Planned"
   }
  },
  {
   "type": "Feature",
   "geometry": {
    "type": "Point",
    "coordinates": [
     116.6171982,
     -31.64746411
    ]
   },
   "properties": {
    "name": "281 NORTHAM-TOODYAY ROAD BURLONG 6401",
    "locID": "LOC000098105717",
    "tech": "SATELLITE",
    "upgrade": "NULL_NA",
    "gnaf_pid": "GAWA_160656142",
    "tech_change_status": "Not Planned"
   }
  },
  {
   "type": "Feature",
   "geometry": {
    "type": "Point",
    "coordinates": [
     116.59923317,
     -31.6463923
    ]
   },
   "properties": {
    "name": "439 NORTHAM-TOODYAY ROAD BURLONG 6401",
    "locID": "LOC000028648328",
    "tech": "SATELLITE",
    "upgrade": "NULL_NA",
    "gnaf_pid": "GAWA_160656143",
    "tech_change_status": "Not Planned"
   }
  },
  {
   "type": "Feature",
   "geometry": {
    "type": "Point",
    "coordinates": [
     116.60991532,
     -31.67638746
    ]
   },
   "properties": {
    "name": "6322 GREAT EASTERN HIGHWAY BURLONG 6401",
    "locID": "LOC000019034848",
    "tech": "SATELLITE",
    "upgrade": "NULL_NA",
    "gnaf_pid": "GAWA_160656158",
    "tech_change_status": "Not Planned"
   }
  },
  {
   "type": "Feature",
   "geometry": {
    "type": "Point",
    "coordinates": [
     116.61190293,
     -31.6761611
    ]
   },
   "properties": {
    "name": "6348 GREAT EASTERN HIGHWAY BURLONG 6401",
    "locID": "LOC000059292551",
    "tech": "SATELLITE",
    "upgrade": "NULL_NA",
    "gnaf_pid": "GAWA_160664057",
    "tech_change_status": "Not Planned"
   }
  },
  {
   "type": "Feature",
   "geometry": {
    "type": "Point",
    "coordinates": [
     116.61508206,
     -31.67250035
    ]
   },
   "properties": {
    "name": "6392 GREAT EASTERN HIGHWAY BURLONG 6401",
    "locID": "LOC000090366060",
    "tech": "SATELLITE",
    "upgrade": "NULL_NA",
    "gnaf_pid": "GAWA_160664058",
    "tech_change_status": "Not Planned"
   }
  },
  {
   "type": "Feature",
   "geometry": {
    "type": "Point",
    "coordinates": [
     116.56680216,
     -31.68047946
    ]
   },
   "properties": {
    "name": "228 SMITH ROAD BURLONG 6401",
    "locID": "LOC000046115614",
    "tech": "SATELLITE",
    "upgrade": "NULL_NA",
    "gnaf_pid": "GAWA_160668344",
    "tech_change_status": "Not Planned"
   }
  },
  {
   "type": "Feature",
   "geometry": {
    "type": "Point",
    "coordinates": [
     116.60780091,
     -31.67729211
    ]
   },
   "properties": {
    "name": "24 FOX ROAD BURLONG 6401",
    "locID": "LOC000046520733",
    "tech": "SATELLITE",
    "upgrade": "NULL_NA",
    "gnaf_pid": "GAWA_160668875",
    "tech_change_status": "Not Planned"
   }
  },
  {
   "type": "Feature",
   "geometry": {
    "type": "Point",
    "coordinates": [
     116.62162235,
     -31.68883115
    ]
   },
   "properties": {
    "name": "90 FOX ROAD BURLONG 6401",
    "locID": "LOC000033645427",
    "tech": "WIRELESS",
    "upgrade": "NULL_NA",
    "gnaf_pid": "GAWA_160668876",
    "tech_change_status": "Not Planned",
    "program_type": "Fixed Wireless and Satellite Upgrade Program",
    "target_eligibility_quarter": "NA"
   }
  },
  {
   "type": "Feature",
   "geometry": {
    "type": "Point",
    "coordinates": [
     116.61692761,
     -31.68203898
    ]
   },
   "properties": {
    "name": "142 FOX ROAD BURLONG 6401",
    "locID": "LOC000055558795",
    "tech": "WIRELESS",
    "upgrade": "NULL_NA",
    "gnaf_pid": "GAWA_160668877",
    "tech_change_status": "Not Planned"
   }
  },
  {
   "type": "Feature",
   "geometry": {
    "type": "Point",
    "coordinates": [
     116.62575375,
     -31.6490049
    ]
   },
   "properties": {
    "name": "189 NORTHAM-TOODYAY ROAD BURLONG 6401",
    "locID": "LOC000101406077",
    "tech": "SATELLITE",
    "upgrade": "NULL_NA",
    "gnaf_pid": "GAWA_160673433",
    "tech_change_status": "Not Planned"
   }
  },
  {
   "type": "Feature",
   "geometry": {
    "type": "Point",
    "coordinates": [
     116.58550151,
     -31.69618655
    ]
   },
   "properties": {
    "name": "768 EADINE ROAD BURLONG 6401",
    "locID": "LOC000072690825",
    "tech": "SATELLITE",
    "upgrade": "NULL_NA",
    "gnaf_pid": "GAWA_160795779",
    "tech_change_status": "Not Planned"
   }
  },
  {
   "type": "Feature",
   "geometry": {
    "type": "Point",
    "coordinates": [
     116.63500798,
     -31.64374595
    ]
   },
   "properties": {
    "name": "LOT 15 NORTHAM-TOODYAY ROAD BURLONG 6401",
    "locID": "LOC000133335386",
    "tech": "SATELLITE",
    "upgrade": "NULL_NA",
    "gnaf_pid": "GAWA_162579459",
    "tech_change_status": "Not Planned"
   }
  },
  {
   "type": "Feature",
   "geometry": {
    "type": "Point",
    "coordinates": [
     116.56223452,
     -31.67722615
    ]
   },
   "properties": {
    "name": "LOT 21 SMITH ROAD BURLONG 6401",
    "locID": "LOC000074791984",
    "tech": "SATELLITE",
    "upgrade": "NULL_NA",
    "gnaf_pid": "GAWA_163091019",
    "tech_change_status": "Not Planned"
   }
  },
  {
   "type": "Feature",
   "geometry": {
    "type": "Point",
    "coordinates": [
     116.6480516,
     -31.63995783
    ]
   },
   "properties": {
    "name": "3 COLEBATCH STREET BURLONG 6401",
    "locID": "LOC000133327785",
    "tech": "WIRELESS",
    "upgrade": "NULL_NA",
    "gnaf_pid": "GAWA_718786331",
    "tech_change_status": "Not Planned",
    "program_type": "Fixed Wireless and Satellite Upgrade Program",
    "target_eligibility_quarter": "NA"
   }
  }
 ]
}