{
 "type": "FeatureCollection",
 "generated": "2024-05-27T01:41:57.098789",
 "suburb": "COBLININE",
 "features": [
  {
   "type": "Feature",
   "geometry": {
    "type": "Point",
    "coordinates": [
     117.67999,
     -33.59075
    ]
   },
   "properties": {
    "name": "329 BADGER ROAD COBLININE 6317",
    "locID": "LOC000102094111",
    "tech": "SATELLITE",
    "upgrade": "NULL_NA",
    "gnaf_pid": "GAWA_161989159"
   }
  },
  {
   "type": "Feature",
   "geometry": {
    "type": "Point",
    "coordinates": [
     117.65884822,
     -33.66275959
    ]
   },
   "properties": {
    "name": "324 BUTTERWORTH ROAD COBLININE 6317",
    "locID": "LOC000088983796",
    "tech": "SATELLITE",
    "upgrade": "NULL_NA",
    "gnaf_pid": "GAWA_161989902"
   }
  },
  {
   "type": "Feature",
   "geometry": {
    "type": "Point",
    "coordinates": [
     117.65883,
     -33.65333
    ]
   },
   "properties": {
    "name": "468 BUTTERWORTH ROAD COBLININE 6317",
    "locID": "LOC000012959941",
    "tech": "SATELLITE",
    "upgrade": "NULL_NA",
    "gnaf_pid": "GAWA_161989903"
   }
  },
  {
   "type": "Feature",
   "geometry": {
    "type": "Point",
    "coordinates": [
     117.60325,
     -33.62476
    ]
   },
   "properties": {
    "name": "100 GIBNEY ROAD COBLININE 6317",
    "locID": "LOC000051665165",
    "tech": "SATELLITE",
    "upgrade": "NULL_NA",
    "gnaf_pid": "GAWA_161991442"
   }
  },
  {
   "type": "Feature",
   "geometry": {
    "type": "Point",
    "coordinates": [
     117.61202258,
     -33.62083792
    ]
   },
   "properties": {
    "name": "231 GIBNEY ROAD COBLININE 6317",
    "locID": "LOC000059824550",
    "tech": "SATELLITE",
    "upgrade": "NULL_NA",
    "gnaf_pid": "GAWA_161991443"
   }
  },
  {
   "type": "Feature",
   "geometry": {
    "type": "Point",
    "coordinates": [
     117.62587308,
     -33.62745604
    ]
   },
   "properties": {
    "name": "320 GIBNEY ROAD COBLININE 6317",
    "locID": "LOC000077445866",
    "tech": "SATELLITE",
    "upgrade": "NULL_NA",
    "gnaf_pid": "GAWA_161991444"
   }
  },
  {
   "type": "Feature",
   "geometry": {
    "type": "Point",
    "coordinates": [
     117.66826,
     -33.58154
    ]
   },
   "properties": {
    "name": "212 JAM HILLS ROAD COBLININE 6317",
    "locID": "LOC000071133702",
    "tech": "SATELLITE",
    "upgrade": "NULL_NA",
    "gnaf_pid": "GAWA_161992149"
   }
  },
  {
   "type": "Feature",
   "geometry": {
    "type": "Point",
    "coordinates": [
     117.65559401,
     -33.6001041
    ]
   },
   "properties": {
    "name": "47 JAM HILLS ROAD COBLININE 6317",
    "locID": "LOC000055749936",
    "tech": "SATELLITE",
    "upgrade": "NULL_NA",
    "gnaf_pid": "GAWA_161992150"
   }
  },
  {
   "type": "Feature",
   "geometry": {
    "type": "Point",
    "coordinates": [
     117.6146,
     -33.61507
    ]
   },
   "properties": {
    "name": "1050 MCKENZIE ROAD COBLININE 6317",
    "locID": "LOC000103620949",
    "tech": "SATELLITE",
    "upgrade": "NULL_NA",
    "gnaf_pid": "GAWA_161992998"
   }
  },
  {
   "type": "Feature",
   "geometry": {
    "type": "Point",
    "coordinates": [
     117.62022772,
     -33.61945417
    ]
   },
   "properties": {
    "name": "1052 MCKENZIE ROAD COBLININE 6317",
    "locID": "LOC000064251401",
    "tech": "SATELLITE",
    "upgrade": "NULL_NA",
    "gnaf_pid": "GAWA_161992999"
   }
  },
  {
   "type": "Feature",
   "geometry": {
    "type": "Point",
    "coordinates": [
     117.64116,
     -33.63427
    ]
   },
   "properties": {
    "name": "12 NEWTON ROAD COBLININE 6317",
    "locID": "LOC000018926868",
    "tech": "SATELLITE",
    "upgrade": "NULL_NA",
    "gnaf_pid": "GAWA_161993552"
   }
  },
  {
   "type": "Feature",
   "geometry": {
    "type": "Point",
    "coordinates": [
     117.63852,
     -33.62717
    ]
   },
   "properties": {
    "name": "172 NEWTON ROAD COBLININE 6317",
    "locID": "LOC000010381712",
    "tech": "SATELLITE",
    "upgrade": "NULL_NA",
    "gnaf_pid": "GAWA_161993553"
   }
  },
  {
   "type": "Feature",
   "geometry": {
    "type": "Point",
    "coordinates": [
     117.68786,
     -33.65771
    ]
   },
   "properties": {
    "name": "1103 RANFORD ROAD COBLININE 6317",
    "locID": "LOC000021155059",
    "tech": "SATELLITE",
    "upgrade": "NULL_NA",
    "gnaf_pid": "GAWA_161994137"
   }
  },
  {
   "type": "Feature",
   "geometry": {
    "type": "Point",
    "coordinates": [
     117.69399,
     -33.65322
    ]
   },
   "properties": {
    "name": "1151 RANFORD ROAD COBLININE 6317",
    "locID": "LOC000022898375",
    "tech": "SATELLITE",
    "upgrade": "NULL_NA",
    "gnaf_pid": "GAWA_161994138"
   }
  },
  {
   "type": "Feature",
   "geometry": {
    "type": "Point",
    "coordinates": [
     117.70755,
     -33.65123
    ]
   },
   "properties": {
    "name": "1381 RANFORD ROAD COBLININE 6317",
    "locID": "LOC000098838602",
    "tech": "SATELLITE",
    "upgrade": "NULL_NA",
    "gnaf_pid": "GAWA_161994139"
   }
  },
  {
   "type": "Feature",
   "geometry": {
    "type": "Point",
    "coordinates": [
     117.71683,
     -33.65048
    ]
   },
   "properties": {
    "name": "1395 RANFORD ROAD COBLININE 6317",
    "locID": "LOC000014660590",
    "tech": "SATELLITE",
    "upgrade": "NULL_NA",
    "gnaf_pid": "GAWA_161994140"
   }
  },
  {
   "type": "Feature",
   "geometry": {
    "type": "Point",
    "coordinates": [
     117.74367,
     -33.53688
    ]
   },
   "properties": {
    "name": "1116 RIVER ROAD COBLININE 6317",
    "locID": "LOC000102314659",
    "tech": "SATELLITE",
    "upgrade": "NULL_NA",
    "gnaf_pid": "GAWA_161994347"
   }
  },
  {
   "type": "Feature",
   "geometry": {
    "type": "Point",
    "coordinates": [
     117.7839,
     -33.5182
    ]
   },
   "properties": {
    "name": "1551 RIVER ROAD COBLININE 6317",
    "locID": "LOC000013753507",
    "tech": "SATELLITE",
    "upgrade": "NULL_NA",
    "gnaf_pid": "GAWA_161994348"
   }
  },
  {
   "type": "Feature",
   "geometry": {
    "type": "Point",
    "coordinates": [
     117.66484,
     -33.56619
    ]
   },
   "properties": {
    "name": "5440 ROBINSON ROAD COBLININE 6317",
    "locID": "LOC000092857967",
    "tech": "SATELLITE",
    "upgrade": "NULL_NA",
    "gnaf_pid": "GAWA_161994394"
   }
  },
  {
   "type": "Feature",
   "geometry": {
    "type": "Point",
    "coordinates": [
     117.78621672,
     -33.61805196
    ]
   },
   "properties": {
    "name": "444 STOTT ROAD COBLININE 6317",
    "locID": "LOC000092655113",
    "tech": "SATELLITE",
    "upgrade": "NULL_NA",
    "gnaf_pid": "GAWA_161994956"
   }
  },
  {
   "type": "Feature",
   "geometry": {
    "type": "Point",
    "coordinates": [
     117.69417817,
     -33.61005293
    ]
   },
   "properties": {
    "name": "1579 WARREN ROAD COBLININE 6317",
    "locID": "LOC000032699419",
    "tech": "SATELLITE",
    "upgrade": "NULL_NA",
    "gnaf_pid": "GAWA_161995682"
   }
  },
  {
   "type": "Feature",
   "geometry": {
    "type": "Point",
    "coordinates": [
     117.73442644,
     -33.58567551
    ]
   },
   "properties": {
    "name": "2007 WARREN ROAD COBLININE 6317",
    "locID": "LOC000027970957",
    "tech": "SATELLITE",
    "upgrade": "NULL_NA",
    "gnaf_pid": "GAWA_161995683"
   }
  },
  {
   "type": "Feature",
   "geometry": {
    "type": "Point",
    "coordinates": [
     117.77726,
     -33.57196
    ]
   },
   "properties": {
    "name": "2401 WARREN ROAD COBLININE 6317",
    "locID": "LOC000104475581",
    "tech": "SATELLITE",
    "upgrade": "NULL_NA",
    "gnaf_pid": "GAWA_161995684"
   }
  },
  {
   "type": "Feature",
   "geometry": {
    "type": "Point",
    "coordinates": [
     117.76950822,
     -33.59196745
    ]
   },
   "properties": {
    "name": "2416 WARREN ROAD COBLININE 6317",
    "locID": "LOC000085323202",
    "tech": "SATELLITE",
    "upgrade": "NULL_NA",
    "gnaf_pid": "GAWA_161995685"
   }
  },
  {
   "type": "Feature",
   "geometry": {
    "type": "Point",
    "coordinates": [
     117.5957,
     -33.62984
    ]
   },
   "properties": {
    "name": "158 WITHERS ROAD COBLININE 6317",
    "locID": "LOC000033642821",
    "tech": "SATELLITE",
    "upgrade": "NULL_NA",
    "gnaf_pid": "GAWA_161996011"
   }
  },
  {
   "type": "Feature",
   "geometry": {
    "type": "Point",
    "coordinates": [
     117.65884822,
     -33.66275959
    ]
   },
   "properties": {
    "name": "340 BUTTERWORTH ROAD COBLININE 6317",
    "locID": "LOC000033642930",
    "tech": "SATELLITE",
    "upgrade": "NULL_NA",
    "gnaf_pid": "GAWA_161996530"
   }
  },
  {
   "type": "Feature",
   "geometry": {
    "type": "Point",
    "coordinates": [
     117.6246658,
     -33.58207156
    ]
   },
   "properties": {
    "name": "342 KELLY ROAD COBLININE 6317",
    "locID": "LOC100078657299",
    "tech": "SATELLITE",
    "upgrade": "NULL_NA",
    "gnaf_pid": "GAWA_720108597"
   }
  }
 ]
}