{
 "type": "FeatureCollection",
 "generated": "2024-07-07T13:29:05.903187",
 "suburb": "CUBBINE",
 "features": [
  {
   "type": "Feature",
   "geometry": {
    "type": "Point",
    "coordinates": [
     117.406957,
     -31.869323
    ]
   },
   "properties": {
    "name": "1381 BADJALING NORTH ROAD CUBBINE 6383",
    "locID": "LOC000014516545",
    "tech": "SATELLITE",
    "upgrade": "NULL_NA",
    "gnaf_pid": "GAWA_162258896",
    "tech_change_status": "Not Planned"
   }
  },
  {
   "type": "Feature",
   "geometry": {
    "type": "Point",
    "coordinates": [
     117.395386,
     -31.846676
    ]
   },
   "properties": {
    "name": "1701 BADJALING NORTH ROAD CUBBINE 6383",
    "locID": "LOC000086336380",
    "tech": "SATELLITE",
    "upgrade": "NULL_NA",
    "gnaf_pid": "GAWA_162258897",
    "tech_change_status": "Not Planned"
   }
  },
  {
   "type": "Feature",
   "geometry": {
    "type": "Point",
    "coordinates": [
     117.24458751,
     -31.85059458
    ]
   },
   "properties": {
    "name": "772 BILLACABELLA-DOODENANNING ROAD CUBBINE 6383",
    "locID": "LOC000021884736",
    "tech": "SATELLITE",
    "upgrade": "NULL_NA",
    "gnaf_pid": "GAWA_162259408",
    "tech_change_status": "Not Planned"
   }
  },
  {
   "type": "Feature",
   "geometry": {
    "type": "Point",
    "coordinates": [
     117.38331888,
     -31.90429975
    ]
   },
   "properties": {
    "name": "409 BLACK ROAD CUBBINE 6383",
    "locID": "LOC000013719596",
    "tech": "SATELLITE",
    "upgrade": "NULL_NA",
    "gnaf_pid": "GAWA_162259547",
    "tech_change_status": "Not Planned"
   }
  },
  {
   "type": "Feature",
   "geometry": {
    "type": "Point",
    "coordinates": [
     117.294309,
     -31.919968
    ]
   },
   "properties": {
    "name": "2676 CUBBINE ROAD CUBBINE 6383",
    "locID": "LOC000072690894",
    "tech": "SATELLITE",
    "upgrade": "NULL_NA",
    "gnaf_pid": "GAWA_162261533",
    "tech_change_status": "Not Planned"
   }
  },
  {
   "type": "Feature",
   "geometry": {
    "type": "Point",
    "coordinates": [
     117.322512,
     -31.87577
    ]
   },
   "properties": {
    "name": "3117 CUBBINE ROAD CUBBINE 6383",
    "locID": "LOC000051882959",
    "tech": "SATELLITE",
    "upgrade": "NULL_NA",
    "gnaf_pid": "GAWA_162261534",
    "tech_change_status": "Not Planned"
   }
  },
  {
   "type": "Feature",
   "geometry": {
    "type": "Point",
    "coordinates": [
     117.353449,
     -31.885784
    ]
   },
   "properties": {
    "name": "3314 CUBBINE ROAD CUBBINE 6383",
    "locID": "LOC000012031524",
    "tech": "SATELLITE",
    "upgrade": "NULL_NA",
    "gnaf_pid": "GAWA_162261535",
    "tech_change_status": "Not Planned"
   }
  },
  {
   "type": "Feature",
   "geometry": {
    "type": "Point",
    "coordinates": [
     117.387682,
     -31.877397
    ]
   },
   "properties": {
    "name": "3608 CUBBINE ROAD CUBBINE 6383",
    "locID": "LOC000032120326",
    "tech": "SATELLITE",
    "upgrade": "NULL_NA",
    "gnaf_pid": "GAWA_162261536",
    "tech_change_status": "Not Planned"
   }
  },
  {
   "type": "Feature",
   "geometry": {
    "type": "Point",
    "coordinates": [
     117.335786,
     -31.848673
    ]
   },
   "properties": {
    "name": "2289 CUNDERDIN-QUAIRADING ROAD CUBBINE 6383",
    "locID": "LOC000026983347",
    "tech": "SATELLITE",
    "upgrade": "NULL_NA",
    "gnaf_pid": "GAWA_162261565",
    "tech_change_status": "Not Planned"
   }
  },
  {
   "type": "Feature",
   "geometry": {
    "type": "Point",
    "coordinates": [
     117.365325,
     -31.907657
    ]
   },
   "properties": {
    "name": "3247 CUNDERDIN-QUAIRADING ROAD CUBBINE 6383",
    "locID": "LOC000052055722",
    "tech": "SATELLITE",
    "upgrade": "NULL_NA",
    "gnaf_pid": "GAWA_162261566",
    "tech_change_status": "Not Planned"
   }
  },
  {
   "type": "Feature",
   "geometry": {
    "type": "Point",
    "coordinates": [
     117.382769,
     -31.862156
    ]
   },
   "properties": {
    "name": "105 KARRAKIN ROAD CUBBINE 6383",
    "locID": "LOC000020372339",
    "tech": "SATELLITE",
    "upgrade": "NULL_NA",
    "gnaf_pid": "GAWA_162264981",
    "tech_change_status": "Not Planned"
   }
  },
  {
   "type": "Feature",
   "geometry": {
    "type": "Point",
    "coordinates": [
     117.243985,
     -31.852595
    ]
   },
   "properties": {
    "name": "303 MAYNARD ROAD CUBBINE 6383",
    "locID": "LOC000030414889",
    "tech": "SATELLITE",
    "upgrade": "NULL_NA",
    "gnaf_pid": "GAWA_162266387",
    "tech_change_status": "Not Planned"
   }
  },
  {
   "type": "Feature",
   "geometry": {
    "type": "Point",
    "coordinates": [
     117.270134,
     -31.86412
    ]
   },
   "properties": {
    "name": "457 MAYNARD ROAD CUBBINE 6383",
    "locID": "LOC000043523476",
    "tech": "SATELLITE",
    "upgrade": "NULL_NA",
    "gnaf_pid": "GAWA_162266388",
    "tech_change_status": "Not Planned"
   }
  },
  {
   "type": "Feature",
   "geometry": {
    "type": "Point",
    "coordinates": [
     117.32546329,
     -31.92644296
    ]
   },
   "properties": {
    "name": "393 WACKETT ROAD CUBBINE 6383",
    "locID": "LOC000035253368",
    "tech": "SATELLITE",
    "upgrade": "NULL_NA",
    "gnaf_pid": "GAWA_162271073",
    "tech_change_status": "Not Planned"
   }
  },
  {
   "type": "Feature",
   "geometry": {
    "type": "Point",
    "coordinates": [
     117.24514624,
     -31.84988427
    ]
   },
   "properties": {
    "name": "LOT 12552 BILLACABELLA-DOODENANNING ROAD CUBBINE 6383",
    "locID": "LOC000021884736",
    "tech": "SATELLITE",
    "upgrade": "NULL_NA",
    "gnaf_pid": "GAWA_720247341",
    "tech_change_status": "Not Planned"
   }
  }
 ]
}