{
 "type": "FeatureCollection",
 "generated": "2024-07-26T08:05:07.634707",
 "suburb": "CUNJARDINE",
 "features": [
  {
   "type": "Feature",
   "geometry": {
    "type": "Point",
    "coordinates": [
     116.8786044,
     -31.43703059
    ]
   },
   "properties": {
    "name": "1303 GOOMALLING-MECKERING ROAD CUNJARDINE 6401",
    "locID": "LOC000142457886",
    "tech": "SATELLITE",
    "upgrade": "NULL_NA",
    "gnaf_pid": "GAWA_161923589",
    "tech_change_status": "Not Planned"
   }
  },
  {
   "type": "Feature",
   "geometry": {
    "type": "Point",
    "coordinates": [
     116.85722431,
     -31.43397645
    ]
   },
   "properties": {
    "name": "1538 GOOMALLING-MECKERING ROAD CUNJARDINE 6401",
    "locID": "LOC000086327657",
    "tech": "SATELLITE",
    "upgrade": "NULL_NA",
    "gnaf_pid": "GAWA_161923590",
    "tech_change_status": "Not Planned"
   }
  },
  {
   "type": "Feature",
   "geometry": {
    "type": "Point",
    "coordinates": [
     116.90072198,
     -31.47138185
    ]
   },
   "properties": {
    "name": "2173 GOOMALLING-MECKERING ROAD CUNJARDINE 6401",
    "locID": "LOC100078056048",
    "tech": "SATELLITE",
    "upgrade": "NULL_NA",
    "gnaf_pid": "GAWA_161923591",
    "tech_change_status": "Not Planned"
   }
  },
  {
   "type": "Feature",
   "geometry": {
    "type": "Point",
    "coordinates": [
     116.83569737,
     -31.48707851
    ]
   },
   "properties": {
    "name": "374 MINNEY ROAD CUNJARDINE 6401",
    "locID": "LOC000026197154",
    "tech": "SATELLITE",
    "upgrade": "NULL_NA",
    "gnaf_pid": "GAWA_161924622",
    "tech_change_status": "Not Planned"
   }
  },
  {
   "type": "Feature",
   "geometry": {
    "type": "Point",
    "coordinates": [
     116.8855461,
     -31.41316457
    ]
   },
   "properties": {
    "name": "144 SADLER ROAD CUNJARDINE 6401",
    "locID": "LOC000090495903",
    "tech": "SATELLITE",
    "upgrade": "NULL_NA",
    "gnaf_pid": "GAWA_161925232",
    "tech_change_status": "Not Planned"
   }
  },
  {
   "type": "Feature",
   "geometry": {
    "type": "Point",
    "coordinates": [
     116.78623852,
     -31.48238983
    ]
   },
   "properties": {
    "name": "2218 NORTHAM-PITHARA ROAD CUNJARDINE 6401",
    "locID": "LOC000002949773",
    "tech": "SATELLITE",
    "upgrade": "NULL_NA",
    "gnaf_pid": "GAWA_161993590",
    "tech_change_status": "Not Planned"
   }
  },
  {
   "type": "Feature",
   "geometry": {
    "type": "Point",
    "coordinates": [
     116.80765104,
     -31.47251237
    ]
   },
   "properties": {
    "name": "2252 NORTHAM-PITHARA ROAD CUNJARDINE 6401",
    "locID": "LOC000006580577",
    "tech": "SATELLITE",
    "upgrade": "NULL_NA",
    "gnaf_pid": "GAWA_161993591",
    "tech_change_status": "Not Planned"
   }
  },
  {
   "type": "Feature",
   "geometry": {
    "type": "Point",
    "coordinates": [
     116.79816537,
     -31.45404807
    ]
   },
   "properties": {
    "name": "2386 NORTHAM-PITHARA ROAD CUNJARDINE 6401",
    "locID": "LOC000009565492",
    "tech": "SATELLITE",
    "upgrade": "NULL_NA",
    "gnaf_pid": "GAWA_161993592",
    "tech_change_status": "Not Planned"
   }
  },
  {
   "type": "Feature",
   "geometry": {
    "type": "Point",
    "coordinates": [
     116.81410858,
     -31.4465751
    ]
   },
   "properties": {
    "name": "184 PATTERSON ROAD CUNJARDINE 6401",
    "locID": "LOC000066364557",
    "tech": "SATELLITE",
    "upgrade": "NULL_NA",
    "gnaf_pid": "GAWA_161993845",
    "tech_change_status": "Not Planned"
   }
  },
  {
   "type": "Feature",
   "geometry": {
    "type": "Point",
    "coordinates": [
     116.84706578,
     -31.44629591
    ]
   },
   "properties": {
    "name": "39 BROOKSBANK ROAD CUNJARDINE 6401",
    "locID": "LOC000023586109",
    "tech": "SATELLITE",
    "upgrade": "NULL_NA",
    "gnaf_pid": "GAWA_161996443",
    "tech_change_status": "Not Planned"
   }
  }
 ]
}