{
 "type": "FeatureCollection",
 "generated": "2024-07-07T14:31:39.099532",
 "suburb": "DURAWAH",
 "features": [
  {
   "type": "Feature",
   "geometry": {
    "type": "Point",
    "coordinates": [
     114.92191653,
     -28.62260107
    ]
   },
   "properties": {
    "name": "1116 DURAWAH NORTHERN GULLY ROAD DURAWAH 6532",
    "locID": "LOC000073031573",
    "tech": "SATELLITE",
    "upgrade": "NULL_NA",
    "gnaf_pid": "GAWA_162000562",
    "tech_change_status": "Not Planned"
   }
  },
  {
   "type": "Feature",
   "geometry": {
    "type": "Point",
    "coordinates": [
     114.9150136,
     -28.59637918
    ]
   },
   "properties": {
    "name": "1534 DURAWAH NORTHERN GULLY ROAD DURAWAH 6532",
    "locID": "LOC000090552533",
    "tech": "SATELLITE",
    "upgrade": "NULL_NA",
    "gnaf_pid": "GAWA_162000563",
    "tech_change_status": "Not Planned"
   }
  },
  {
   "type": "Feature",
   "geometry": {
    "type": "Point",
    "coordinates": [
     114.94908059,
     -28.54188906
    ]
   },
   "properties": {
    "name": "1879 DURAWAH ROAD DURAWAH 6532",
    "locID": "LOC000094148960",
    "tech": "SATELLITE",
    "upgrade": "NULL_NA",
    "gnaf_pid": "GAWA_162000565",
    "tech_change_status": "Not Planned"
   }
  },
  {
   "type": "Feature",
   "geometry": {
    "type": "Point",
    "coordinates": [
     114.885809,
     -28.612692
    ]
   },
   "properties": {
    "name": "84 FORRESTER ROAD DURAWAH 6532",
    "locID": "LOC000105692516",
    "tech": "SATELLITE",
    "upgrade": "NULL_NA",
    "gnaf_pid": "GAWA_162000746",
    "tech_change_status": "Not Planned"
   }
  },
  {
   "type": "Feature",
   "geometry": {
    "type": "Point",
    "coordinates": [
     114.93688681,
     -28.6258031
    ]
   },
   "properties": {
    "name": "150 LORIMER ROAD DURAWAH 6532",
    "locID": "LOC000066843327",
    "tech": "SATELLITE",
    "upgrade": "NULL_NA",
    "gnaf_pid": "GAWA_162001348",
    "tech_change_status": "Not Planned"
   }
  },
  {
   "type": "Feature",
   "geometry": {
    "type": "Point",
    "coordinates": [
     115.000765,
     -28.553911
    ]
   },
   "properties": {
    "name": "726 STATION VALENTINE ROAD DURAWAH 6532",
    "locID": "LOC000058093332",
    "tech": "SATELLITE",
    "upgrade": "NULL_NA",
    "gnaf_pid": "GAWA_162002528",
    "tech_change_status": "Not Planned"
   }
  },
  {
   "type": "Feature",
   "geometry": {
    "type": "Point",
    "coordinates": [
     114.956639,
     -28.559196
    ]
   },
   "properties": {
    "name": "740 STATION ROAD DURAWAH 6532",
    "locID": "LOC000077710804",
    "tech": "SATELLITE",
    "upgrade": "NULL_NA",
    "gnaf_pid": "GAWA_162002530",
    "tech_change_status": "Not Planned"
   }
  },
  {
   "type": "Feature",
   "geometry": {
    "type": "Point",
    "coordinates": [
     114.931765,
     -28.57857
    ]
   },
   "properties": {
    "name": "460 STATION ROAD DURAWAH 6532",
    "locID": "LOC000015426684",
    "tech": "SATELLITE",
    "upgrade": "NULL_NA",
    "gnaf_pid": "GAWA_162490073",
    "tech_change_status": "Not Planned"
   }
  }
 ]
}