{
 "type": "FeatureCollection",
 "generated": "2024-08-18T04:49:19.859903",
 "suburb": "EAST WICKEPIN",
 "features": [
  {
   "type": "Feature",
   "geometry": {
    "type": "Point",
    "coordinates": [
     117.75352335,
     -32.72686323
    ]
   },
   "properties": {
    "name": "3266 EIGHTY SIX GATE ROAD EAST WICKEPIN 6370",
    "locID": "LOC000018558563",
    "tech": "SATELLITE",
    "upgrade": "NULL_NA",
    "gnaf_pid": "GAWA_163239744",
    "tech_change_status": "Not Planned"
   }
  },
  {
   "type": "Feature",
   "geometry": {
    "type": "Point",
    "coordinates": [
     117.68794648,
     -32.70968943
    ]
   },
   "properties": {
    "name": "3748 EIGHTY SIX GATE ROAD EAST WICKEPIN 6370",
    "locID": "LOC000071574380",
    "tech": "SATELLITE",
    "upgrade": "NULL_NA",
    "gnaf_pid": "GAWA_163239746",
    "tech_change_status": "Not Planned"
   }
  },
  {
   "type": "Feature",
   "geometry": {
    "type": "Point",
    "coordinates": [
     117.75736343,
     -32.74751809
    ]
   },
   "properties": {
    "name": "439 HEFFERNAN ROAD EAST WICKEPIN 6370",
    "locID": "LOC000018972525",
    "tech": "SATELLITE",
    "upgrade": "NULL_NA",
    "gnaf_pid": "GAWA_163240912",
    "tech_change_status": "Not Planned"
   }
  },
  {
   "type": "Feature",
   "geometry": {
    "type": "Point",
    "coordinates": [
     117.71393391,
     -32.75348854
    ]
   },
   "properties": {
    "name": "370 HUGHES ROAD EAST WICKEPIN 6370",
    "locID": "LOC000069135796",
    "tech": "SATELLITE",
    "upgrade": "NULL_NA",
    "gnaf_pid": "GAWA_163241131",
    "tech_change_status": "Not Planned"
   }
  },
  {
   "type": "Feature",
   "geometry": {
    "type": "Point",
    "coordinates": [
     117.69664585,
     -32.77471662
    ]
   },
   "properties": {
    "name": "51 HUGHES ROAD EAST WICKEPIN 6370",
    "locID": "LOC000043572308",
    "tech": "SATELLITE",
    "upgrade": "NULL_NA",
    "gnaf_pid": "GAWA_163241132",
    "tech_change_status": "Not Planned"
   }
  },
  {
   "type": "Feature",
   "geometry": {
    "type": "Point",
    "coordinates": [
     117.73338507,
     -32.80571482
    ]
   },
   "properties": {
    "name": "420 SPARKS ROAD EAST WICKEPIN 6370",
    "locID": "LOC000007896050",
    "tech": "SATELLITE",
    "upgrade": "NULL_NA",
    "gnaf_pid": "GAWA_163243860",
    "tech_change_status": "Not Planned"
   }
  },
  {
   "type": "Feature",
   "geometry": {
    "type": "Point",
    "coordinates": [
     117.73338507,
     -32.80571482
    ]
   },
   "properties": {
    "name": "452 SPARKS ROAD EAST WICKEPIN 6370",
    "locID": "LOC000018083228",
    "tech": "SATELLITE",
    "upgrade": "NULL_NA",
    "gnaf_pid": "GAWA_163243861",
    "tech_change_status": "Not Planned"
   }
  },
  {
   "type": "Feature",
   "geometry": {
    "type": "Point",
    "coordinates": [
     117.67077944,
     -32.75245366
    ]
   },
   "properties": {
    "name": "236 TEN MILE ROAD EAST WICKEPIN 6370",
    "locID": "LOC000099367503",
    "tech": "SATELLITE",
    "upgrade": "NULL_NA",
    "gnaf_pid": "GAWA_163244154",
    "tech_change_status": "Not Planned"
   }
  },
  {
   "type": "Feature",
   "geometry": {
    "type": "Point",
    "coordinates": [
     117.67894971,
     -32.77594194
    ]
   },
   "properties": {
    "name": "64 TEN MILE ROAD EAST WICKEPIN 6370",
    "locID": "LOC000005647028",
    "tech": "SATELLITE",
    "upgrade": "NULL_NA",
    "gnaf_pid": "GAWA_163244156",
    "tech_change_status": "Not Planned"
   }
  },
  {
   "type": "Feature",
   "geometry": {
    "type": "Point",
    "coordinates": [
     117.72787393,
     -32.7792468
    ]
   },
   "properties": {
    "name": "8769 WILLIAMS-KONDININ ROAD EAST WICKEPIN 6370",
    "locID": "LOC000006534523",
    "tech": "SATELLITE",
    "upgrade": "NULL_NA",
    "gnaf_pid": "GAWA_163244927",
    "tech_change_status": "Not Planned"
   }
  },
  {
   "type": "Feature",
   "geometry": {
    "type": "Point",
    "coordinates": [
     117.73531743,
     -32.78668813
    ]
   },
   "properties": {
    "name": "8820 WILLIAMS-KONDININ ROAD EAST WICKEPIN 6370",
    "locID": "LOC000022055996",
    "tech": "SATELLITE",
    "upgrade": "NULL_NA",
    "gnaf_pid": "GAWA_163244928",
    "tech_change_status": "Not Planned"
   }
  },
  {
   "type": "Feature",
   "geometry": {
    "type": "Point",
    "coordinates": [
     117.7012588,
     -32.8404295
    ]
   },
   "properties": {
    "name": "1746 WOGOLIN ROAD SOUTH EAST WICKEPIN 6370",
    "locID": "LOC000065815177",
    "tech": "SATELLITE",
    "upgrade": "NULL_NA",
    "gnaf_pid": "GAWA_163244984",
    "tech_change_status": "Not Planned"
   }
  },
  {
   "type": "Feature",
   "geometry": {
    "type": "Point",
    "coordinates": [
     117.74638331,
     -32.7128619
    ]
   },
   "properties": {
    "name": "1945 YEALERING SOUTH EAST ROAD EAST WICKEPIN 6370",
    "locID": "LOC000004785275",
    "tech": "SATELLITE",
    "upgrade": "NULL_NA",
    "gnaf_pid": "GAWA_163245061",
    "tech_change_status": "Not Planned"
   }
  },
  {
   "type": "Feature",
   "geometry": {
    "type": "Point",
    "coordinates": [
     117.74638331,
     -32.7128619
    ]
   },
   "properties": {
    "name": "1985 YEALERING SOUTH EAST ROAD EAST WICKEPIN 6370",
    "locID": "LOC000004758800",
    "tech": "SATELLITE",
    "upgrade": "NULL_NA",
    "gnaf_pid": "GAWA_163245062",
    "tech_change_status": "Not Planned"
   }
  },
  {
   "type": "Feature",
   "geometry": {
    "type": "Point",
    "coordinates": [
     117.71301331,
     -32.78272889
    ]
   },
   "properties": {
    "name": "8963 WILLIAMS-KONDININ ROAD EAST WICKEPIN 6370",
    "locID": "LOC000133400606",
    "tech": "SATELLITE",
    "upgrade": "NULL_NA",
    "gnaf_pid": "GAWA_718256366",
    "tech_change_status": "Not Planned"
   }
  }
 ]
}