{
 "type": "FeatureCollection",
 "generated": "2023-10-25T22:33:04.626243",
 "suburb": "EAST YUNA",
 "features": [
  {
   "type": "Feature",
   "geometry": {
    "type": "Point",
    "coordinates": [
     115.15097686,
     -28.36538547
    ]
   },
   "properties": {
    "name": "1093 BINDOO ROAD EAST YUNA 6532",
    "locID": "LOC000103744521",
    "tech": "SATELLITE",
    "upgrade": "NULL_NA",
    "gnaf_pid": "GAWA_161999649"
   }
  },
  {
   "type": "Feature",
   "geometry": {
    "type": "Point",
    "coordinates": [
     115.178577,
     -28.359267
    ]
   },
   "properties": {
    "name": "970 BINDOO ROAD EAST YUNA 6532",
    "locID": "LOC000096744212",
    "tech": "SATELLITE",
    "upgrade": "NULL_NA",
    "gnaf_pid": "GAWA_161999650"
   }
  },
  {
   "type": "Feature",
   "geometry": {
    "type": "Point",
    "coordinates": [
     115.26141064,
     -28.42245075
    ]
   },
   "properties": {
    "name": "547 CAMPBELLS ROAD EAST YUNA 6532",
    "locID": "LOC000030351897",
    "tech": "SATELLITE",
    "upgrade": "NULL_NA",
    "gnaf_pid": "GAWA_162000135"
   }
  },
  {
   "type": "Feature",
   "geometry": {
    "type": "Point",
    "coordinates": [
     115.13098202,
     -28.38693364
    ]
   },
   "properties": {
    "name": "147 MCGAURAN ROAD EAST YUNA 6532",
    "locID": "LOC000080450039",
    "tech": "SATELLITE",
    "upgrade": "NULL_NA",
    "gnaf_pid": "GAWA_162001447"
   }
  },
  {
   "type": "Feature",
   "geometry": {
    "type": "Point",
    "coordinates": [
     115.13098202,
     -28.38693364
    ]
   },
   "properties": {
    "name": "17 MCGAURAN ROAD EAST YUNA 6532",
    "locID": "LOC000014495972",
    "tech": "SATELLITE",
    "upgrade": "NULL_NA",
    "gnaf_pid": "GAWA_162001448"
   }
  },
  {
   "type": "Feature",
   "geometry": {
    "type": "Point",
    "coordinates": [
     115.053704,
     -28.487443
    ]
   },
   "properties": {
    "name": "2434 NABAWA ROAD EAST EAST YUNA 6532",
    "locID": "LOC000059754772",
    "tech": "SATELLITE",
    "upgrade": "NULL_NA",
    "gnaf_pid": "GAWA_162001779"
   }
  },
  {
   "type": "Feature",
   "geometry": {
    "type": "Point",
    "coordinates": [
     115.05090576,
     -28.45644965
    ]
   },
   "properties": {
    "name": "2441 NABAWA ROAD EAST EAST YUNA 6532",
    "locID": "LOC000050190209",
    "tech": "SATELLITE",
    "upgrade": "NULL_NA",
    "gnaf_pid": "GAWA_162001780"
   }
  },
  {
   "type": "Feature",
   "geometry": {
    "type": "Point",
    "coordinates": [
     115.233942,
     -28.332415
    ]
   },
   "properties": {
    "name": "147 ST JOHN ROAD EAST YUNA 6532",
    "locID": "LOC000105171602",
    "tech": "SATELLITE",
    "upgrade": "NULL_NA",
    "gnaf_pid": "GAWA_162002525"
   }
  },
  {
   "type": "Feature",
   "geometry": {
    "type": "Point",
    "coordinates": [
     115.3064045,
     -28.41427976
    ]
   },
   "properties": {
    "name": "2543 TENINDEWA ROAD NORTH EAST YUNA 6532",
    "locID": "LOC000038902646",
    "tech": "SATELLITE",
    "upgrade": "NULL_NA",
    "gnaf_pid": "GAWA_162002875"
   }
  },
  {
   "type": "Feature",
   "geometry": {
    "type": "Point",
    "coordinates": [
     115.13191747,
     -28.49690814
    ]
   },
   "properties": {
    "name": "437 VALENTINE WILLIAMSON ROAD EAST YUNA 6532",
    "locID": "ChIJrQxp8gTj2isRG355a112MG8",
    "tech": "SATELLITE",
    "upgrade": "UNKNOWN",
    "gnaf_pid": "GAWA_162003029"
   }
  },
  {
   "type": "Feature",
   "geometry": {
    "type": "Point",
    "coordinates": [
     115.16039147,
     -28.31504106
    ]
   },
   "properties": {
    "name": "1080 WANDANA ROAD EAST YUNA 6532",
    "locID": "LOC000044826924",
    "tech": "SATELLITE",
    "upgrade": "NULL_NA",
    "gnaf_pid": "GAWA_162003146"
   }
  },
  {
   "type": "Feature",
   "geometry": {
    "type": "Point",
    "coordinates": [
     115.16039147,
     -28.31504106
    ]
   },
   "properties": {
    "name": "1386 WANDIN ROAD EAST YUNA 6532",
    "locID": "ChIJ028IHrQb2ysRyjzBxrjUJzI",
    "tech": "SATELLITE",
    "upgrade": "UNKNOWN",
    "gnaf_pid": "GAWA_162003157"
   }
  },
  {
   "type": "Feature",
   "geometry": {
    "type": "Point",
    "coordinates": [
     115.18689854,
     -28.33438239
    ]
   },
   "properties": {
    "name": "1977 WANDIN ROAD EAST YUNA 6532",
    "locID": "ChIJ2_aMWOIb2ysRWPHh__FPMgI",
    "tech": "SATELLITE",
    "upgrade": "UNKNOWN",
    "gnaf_pid": "GAWA_162003158"
   }
  },
  {
   "type": "Feature",
   "geometry": {
    "type": "Point",
    "coordinates": [
     115.10749342,
     -28.44339393
    ]
   },
   "properties": {
    "name": "402 WHEELDON HOSKING ROAD EAST YUNA 6532",
    "locID": "LOC000055871225",
    "tech": "SATELLITE",
    "upgrade": "NULL_NA",
    "gnaf_pid": "GAWA_162003257"
   }
  },
  {
   "type": "Feature",
   "geometry": {
    "type": "Point",
    "coordinates": [
     115.062922,
     -28.433066
    ]
   },
   "properties": {
    "name": "437 WHEELDON HOSKING ROAD EAST YUNA 6532",
    "locID": "LOC000073463487",
    "tech": "SATELLITE",
    "upgrade": "NULL_NA",
    "gnaf_pid": "GAWA_162003258"
   }
  },
  {
   "type": "Feature",
   "geometry": {
    "type": "Point",
    "coordinates": [
     115.15472,
     -28.461022
    ]
   },
   "properties": {
    "name": "2304 YUNA-TENINDEWA ROAD EAST YUNA 6532",
    "locID": "LOC000002930081",
    "tech": "SATELLITE",
    "upgrade": "NULL_NA",
    "gnaf_pid": "GAWA_162003463"
   }
  },
  {
   "type": "Feature",
   "geometry": {
    "type": "Point",
    "coordinates": [
     115.1263827,
     -28.4040127
    ]
   },
   "properties": {
    "name": "2356 YUNA-TENINDEWA ROAD EAST YUNA 6532",
    "locID": "ChIJE83dgx0d2ysRzb7FyfrR4Yo",
    "tech": "SATELLITE",
    "upgrade": "UNKNOWN",
    "gnaf_pid": "GAWA_162003464"
   }
  },
  {
   "type": "Feature",
   "geometry": {
    "type": "Point",
    "coordinates": [
     115.08965,
     -28.350173
    ]
   },
   "properties": {
    "name": "178 WANDIN ROAD EAST YUNA 6532",
    "locID": "ChIJkVmjcrQE2ysRJYtRgx7RXcA",
    "tech": "SATELLITE",
    "upgrade": "UNKNOWN",
    "gnaf_pid": "GAWA_162271150"
   }
  },
  {
   "type": "Feature",
   "geometry": {
    "type": "Point",
    "coordinates": [
     115.123419,
     -28.356371
    ]
   },
   "properties": {
    "name": "380 WANDIN ROAD EAST YUNA 6532",
    "locID": "LOC000069282541",
    "tech": "SATELLITE",
    "upgrade": "NULL_NA",
    "gnaf_pid": "GAWA_162333653"
   }
  },
  {
   "type": "Feature",
   "geometry": {
    "type": "Point",
    "coordinates": [
     115.11793108,
     -28.4645733
    ]
   },
   "properties": {
    "name": "101 VALENTINE ROAD EAST YUNA 6532",
    "locID": "LOC000103454873",
    "tech": "SATELLITE",
    "upgrade": "NULL_NA",
    "gnaf_pid": "GAWA_162589913"
   }
  },
  {
   "type": "Feature",
   "geometry": {
    "type": "Point",
    "coordinates": [
     115.16419794,
     -28.46053427
    ]
   },
   "properties": {
    "name": "250 WILLIAMSON ROAD EAST YUNA 6532",
    "locID": "ChIJyRcauWri2isRnegqvV1A058",
    "tech": "SATELLITE",
    "upgrade": "UNKNOWN",
    "gnaf_pid": "GAWA_162647639"
   }
  },
  {
   "type": "Feature",
   "geometry": {
    "type": "Point",
    "coordinates": [
     115.1263827,
     -28.4040127
    ]
   },
   "properties": {
    "name": "LOT 6834 YUNA-TENINDEWA ROAD EAST YUNA 6532",
    "locID": "LOC000190781256",
    "tech": "SATELLITE",
    "upgrade": "NULL_NA",
    "gnaf_pid": "GAWA_163007280"
   }
  },
  {
   "type": "Feature",
   "geometry": {
    "type": "Point",
    "coordinates": [
     115.09499035,
     -28.41914548
    ]
   },
   "properties": {
    "name": "456 WHEELDON HOSKING ROAD EAST YUNA 6532",
    "locID": "LOC000092832505",
    "tech": "SATELLITE",
    "upgrade": "NULL_NA",
    "gnaf_pid": "GAWA_163205269"
   }
  },
  {
   "type": "Feature",
   "geometry": {
    "type": "Point",
    "coordinates": [
     115.08876666,
     -28.46495289
    ]
   },
   "properties": {
    "name": "6837 NABAWA ROAD EAST EAST YUNA 6532",
    "locID": "ChIJ8fpIBVL92isREfs3xfDce7Y",
    "tech": "SATELLITE",
    "upgrade": "UNKNOWN",
    "gnaf_pid": "GAWA_163391118"
   }
  },
  {
   "type": "Feature",
   "geometry": {
    "type": "Point",
    "coordinates": [
     115.18689854,
     -28.33438239
    ]
   },
   "properties": {
    "name": "6186 WANDIN ROAD EAST YUNA 6532",
    "locID": "ChIJ2_aMWOIb2ysRO29QRKfp06Y",
    "tech": "SATELLITE",
    "upgrade": "UNKNOWN",
    "gnaf_pid": "GAWA_163393175"
   }
  },
  {
   "type": "Feature",
   "geometry": {
    "type": "Point",
    "coordinates": [
     115.1263827,
     -28.4040127
    ]
   },
   "properties": {
    "name": "6831 YUNA-TENINDEWA ROAD EAST YUNA 6532",
    "locID": "ChIJE83dgx0d2ysRSY5Ex-SVHlU",
    "tech": "SATELLITE",
    "upgrade": "UNKNOWN",
    "gnaf_pid": "GAWA_163393661"
   }
  },
  {
   "type": "Feature",
   "geometry": {
    "type": "Point",
    "coordinates": [
     115.29147117,
     -28.41210389
    ]
   },
   "properties": {
    "name": "2667 TENINDEWA ROAD NORTH EAST YUNA 6532",
    "locID": "ChIJyXATHgcg2ysRPpvp_3tuwZ0",
    "tech": "SATELLITE",
    "upgrade": "UNKNOWN",
    "gnaf_pid": "GAWA_721206081"
   }
  }
 ]
}