{
 "type": "FeatureCollection",
 "generated": "2024-09-24T19:49:09.924869",
 "suburb": "EAST BALLIDU",
 "features": [
  {
   "type": "Feature",
   "geometry": {
    "type": "Point",
    "coordinates": [
     116.89752,
     -30.572473
    ]
   },
   "properties": {
    "name": "1273 BALLIDU EAST ROAD EAST BALLIDU 6606",
    "locID": "LOC000017924004",
    "tech": "SATELLITE",
    "upgrade": "NULL_NA",
    "gnaf_pid": "GAWA_162241409",
    "tech_change_status": "Not Planned"
   }
  },
  {
   "type": "Feature",
   "geometry": {
    "type": "Point",
    "coordinates": [
     116.930058,
     -30.572351
    ]
   },
   "properties": {
    "name": "1543 BALLIDU EAST ROAD EAST BALLIDU 6606",
    "locID": "LOC000078336618",
    "tech": "SATELLITE",
    "upgrade": "NULL_NA",
    "gnaf_pid": "GAWA_162241410",
    "tech_change_status": "Not Planned"
   }
  },
  {
   "type": "Feature",
   "geometry": {
    "type": "Point",
    "coordinates": [
     116.972586,
     -30.563865
    ]
   },
   "properties": {
    "name": "1943 BALLIDU EAST ROAD EAST BALLIDU 6606",
    "locID": "LOC000053666399",
    "tech": "SATELLITE",
    "upgrade": "NULL_NA",
    "gnaf_pid": "GAWA_162241411",
    "tech_change_status": "Not Planned"
   }
  },
  {
   "type": "Feature",
   "geometry": {
    "type": "Point",
    "coordinates": [
     116.993072,
     -30.576342
    ]
   },
   "properties": {
    "name": "2195 BALLIDU EAST ROAD EAST BALLIDU 6606",
    "locID": "LOC000074765427",
    "tech": "NULL",
    "upgrade": "NULL_NA",
    "gnaf_pid": "GAWA_162241412",
    "tech_change_status": "Not Planned"
   }
  },
  {
   "type": "Feature",
   "geometry": {
    "type": "Point",
    "coordinates": [
     116.806502,
     -30.574745
    ]
   },
   "properties": {
    "name": "357 BALLIDU EAST ROAD EAST BALLIDU 6606",
    "locID": "LOC000038854251",
    "tech": "SATELLITE",
    "upgrade": "NULL_NA",
    "gnaf_pid": "GAWA_162241413",
    "tech_change_status": "Not Planned"
   }
  },
  {
   "type": "Feature",
   "geometry": {
    "type": "Point",
    "coordinates": [
     116.785652,
     -30.606995
    ]
   },
   "properties": {
    "name": "96 BALLIDU SOUTH EAST ROAD EAST BALLIDU 6606",
    "locID": "LOC000029525896",
    "tech": "WIRELESS",
    "upgrade": "NULL_NA",
    "gnaf_pid": "GAWA_162241415",
    "tech_change_status": "Not Planned",
    "program_type": "Fixed Wireless and Satellite Upgrade Program",
    "target_eligibility_quarter": "Dec 2024"
   }
  },
  {
   "type": "Feature",
   "geometry": {
    "type": "Point",
    "coordinates": [
     116.89964056,
     -30.51983969
    ]
   },
   "properties": {
    "name": "610 CRASKE ROAD EAST BALLIDU 6606",
    "locID": "LOC000097805794",
    "tech": "SATELLITE",
    "upgrade": "NULL_NA",
    "gnaf_pid": "GAWA_162243245",
    "tech_change_status": "Not Planned"
   }
  },
  {
   "type": "Feature",
   "geometry": {
    "type": "Point",
    "coordinates": [
     116.93527919,
     -30.62088166
    ]
   },
   "properties": {
    "name": "615 DEGRUSSA ROAD EAST BALLIDU 6606",
    "locID": "LOC000065050298",
    "tech": "SATELLITE",
    "upgrade": "NULL_NA",
    "gnaf_pid": "GAWA_162243504",
    "tech_change_status": "Not Planned"
   }
  },
  {
   "type": "Feature",
   "geometry": {
    "type": "Point",
    "coordinates": [
     116.85120873,
     -30.57146905
    ]
   },
   "properties": {
    "name": "269 HOURIGAN ROAD EAST BALLIDU 6606",
    "locID": "LOC000055549719",
    "tech": "SATELLITE",
    "upgrade": "NULL_NA",
    "gnaf_pid": "GAWA_162245795",
    "tech_change_status": "Not Planned"
   }
  },
  {
   "type": "Feature",
   "geometry": {
    "type": "Point",
    "coordinates": [
     116.951046,
     -30.538472
    ]
   },
   "properties": {
    "name": "575 HUNT ROAD EAST BALLIDU 6606",
    "locID": "LOC000004537416",
    "tech": "SATELLITE",
    "upgrade": "NULL_NA",
    "gnaf_pid": "GAWA_162245870",
    "tech_change_status": "Not Planned"
   }
  },
  {
   "type": "Feature",
   "geometry": {
    "type": "Point",
    "coordinates": [
     116.77751,
     -30.552639
    ]
   },
   "properties": {
    "name": "404 MEADOWS ROAD EAST BALLIDU 6606",
    "locID": "LOC000004594356",
    "tech": "SATELLITE",
    "upgrade": "NULL_NA",
    "gnaf_pid": "GAWA_162247519",
    "tech_change_status": "Not Planned"
   }
  },
  {
   "type": "Feature",
   "geometry": {
    "type": "Point",
    "coordinates": [
     116.75597957,
     -30.54803672
    ]
   },
   "properties": {
    "name": "643 MEADOWS ROAD EAST BALLIDU 6606",
    "locID": "LOC000004598108",
    "tech": "SATELLITE",
    "upgrade": "NULL_NA",
    "gnaf_pid": "GAWA_162247520",
    "tech_change_status": "Not Planned"
   }
  },
  {
   "type": "Feature",
   "geometry": {
    "type": "Point",
    "coordinates": [
     116.87853533,
     -30.52088139
    ]
   },
   "properties": {
    "name": "1462 RIFLE RANGE ROAD EAST BALLIDU 6606",
    "locID": "LOC000071976939",
    "tech": "SATELLITE",
    "upgrade": "NULL_NA",
    "gnaf_pid": "GAWA_162249159",
    "tech_change_status": "Not Planned"
   }
  },
  {
   "type": "Feature",
   "geometry": {
    "type": "Point",
    "coordinates": [
     117.01835211,
     -30.50094244
    ]
   },
   "properties": {
    "name": "2925 RIFLE RANGE ROAD EAST BALLIDU 6606",
    "locID": "LOC000051688816",
    "tech": "SATELLITE",
    "upgrade": "NULL_NA",
    "gnaf_pid": "GAWA_162249160",
    "tech_change_status": "Not Planned"
   }
  },
  {
   "type": "Feature",
   "geometry": {
    "type": "Point",
    "coordinates": [
     117.042689,
     -30.493533
    ]
   },
   "properties": {
    "name": "3099 RIFLE RANGE ROAD EAST BALLIDU 6606",
    "locID": "LOC000066917651",
    "tech": "NULL",
    "upgrade": "NULL_NA",
    "gnaf_pid": "GAWA_162249161",
    "tech_change_status": "Not Planned"
   }
  },
  {
   "type": "Feature",
   "geometry": {
    "type": "Point",
    "coordinates": [
     116.967112,
     -30.615099
    ]
   },
   "properties": {
    "name": "341 SERMON ROAD EAST BALLIDU 6606",
    "locID": "LOC000100981333",
    "tech": "SATELLITE",
    "upgrade": "NULL_NA",
    "gnaf_pid": "GAWA_162249701",
    "tech_change_status": "Not Planned"
   }
  },
  {
   "type": "Feature",
   "geometry": {
    "type": "Point",
    "coordinates": [
     116.81860519,
     -30.6160124
    ]
   },
   "properties": {
    "name": "196 SILVER ROAD EAST BALLIDU 6606",
    "locID": "LOC000103838042",
    "tech": "WIRELESS",
    "upgrade": "NULL_NA",
    "gnaf_pid": "GAWA_162249882",
    "tech_change_status": "Not Planned",
    "program_type": "Fixed Wireless and Satellite Upgrade Program",
    "target_eligibility_quarter": "Dec 2024"
   }
  },
  {
   "type": "Feature",
   "geometry": {
    "type": "Point",
    "coordinates": [
     116.8481271,
     -30.61846458
    ]
   },
   "properties": {
    "name": "418 SILVER ROAD EAST BALLIDU 6606",
    "locID": "LOC000077454141",
    "tech": "SATELLITE",
    "upgrade": "NULL_NA",
    "gnaf_pid": "GAWA_162249883",
    "tech_change_status": "Not Planned"
   }
  },
  {
   "type": "Feature",
   "geometry": {
    "type": "Point",
    "coordinates": [
     116.818233,
     -30.577029
    ]
   },
   "properties": {
    "name": "50 WHYTE ROAD EAST BALLIDU 6606",
    "locID": "LOC000059460728",
    "tech": "SATELLITE",
    "upgrade": "NULL_NA",
    "gnaf_pid": "GAWA_162251513",
    "tech_change_status": "Not Planned"
   }
  },
  {
   "type": "Feature",
   "geometry": {
    "type": "Point",
    "coordinates": [
     116.83434393,
     -30.55032229
    ]
   },
   "properties": {
    "name": "513 WHYTE ROAD EAST BALLIDU 6606",
    "locID": "LOC000036628768",
    "tech": "SATELLITE",
    "upgrade": "NULL_NA",
    "gnaf_pid": "GAWA_162251514",
    "tech_change_status": "Not Planned"
   }
  },
  {
   "type": "Feature",
   "geometry": {
    "type": "Point",
    "coordinates": [
     117.01835211,
     -30.50094244
    ]
   },
   "properties": {
    "name": "2979 RIFLE RANGE ROAD EAST BALLIDU 6606",
    "locID": "LOC000067843693",
    "tech": "SATELLITE",
    "upgrade": "NULL_NA",
    "gnaf_pid": "GAWA_162257244",
    "tech_change_status": "Not Planned"
   }
  },
  {
   "type": "Feature",
   "geometry": {
    "type": "Point",
    "coordinates": [
     117.00747334,
     -30.59821758
    ]
   },
   "properties": {
    "name": "2231 HOSPITAL ROAD EAST BALLIDU 6606",
    "locID": "LOC000043483803",
    "tech": "SATELLITE",
    "upgrade": "NULL_NA",
    "gnaf_pid": "GAWA_162329866",
    "tech_change_status": "Not Planned"
   }
  },
  {
   "type": "Feature",
   "geometry": {
    "type": "Point",
    "coordinates": [
     117.04282828,
     -30.55476713
    ]
   },
   "properties": {
    "name": "2843 HOSPITAL ROAD EAST BALLIDU 6606",
    "locID": "LOC000089266411",
    "tech": "SATELLITE",
    "upgrade": "NULL_NA",
    "gnaf_pid": "GAWA_162335431",
    "tech_change_status": "Not Planned"
   }
  },
  {
   "type": "Feature",
   "geometry": {
    "type": "Point",
    "coordinates": [
     116.83945227,
     -30.53327579
    ]
   },
   "properties": {
    "name": "620 HOURIGAN ROAD EAST BALLIDU 6606",
    "locID": "LOC000116503864",
    "tech": "SATELLITE",
    "upgrade": "NULL_NA",
    "gnaf_pid": "GAWA_163199606",
    "tech_change_status": "Not Planned"
   }
  }
 ]
}