{
 "type": "FeatureCollection",
 "generated": "2023-12-21T19:23:14.317673",
 "suburb": "EAST DAMBORING",
 "features": [
  {
   "type": "Feature",
   "geometry": {
    "type": "Point",
    "coordinates": [
     116.792903,
     -30.478909
    ]
   },
   "properties": {
    "name": "1114 DAMBORING EAST ROAD EAST DAMBORING 6606",
    "locID": "LOC000058193573",
    "tech": "SATELLITE",
    "upgrade": "NULL_NA",
    "gnaf_pid": "GAWA_162328318"
   }
  },
  {
   "type": "Feature",
   "geometry": {
    "type": "Point",
    "coordinates": [
     116.76486548,
     -30.46321366
    ]
   },
   "properties": {
    "name": "679 DAMBORING EAST ROAD EAST DAMBORING 6606",
    "locID": "LOC000027759114",
    "tech": "SATELLITE",
    "upgrade": "NULL_NA",
    "gnaf_pid": "GAWA_162328319"
   }
  },
  {
   "type": "Feature",
   "geometry": {
    "type": "Point",
    "coordinates": [
     116.867537,
     -30.486807
    ]
   },
   "properties": {
    "name": "1179 HOURIGAN ROAD EAST DAMBORING 6606",
    "locID": "LOC000042989300",
    "tech": "SATELLITE",
    "upgrade": "NULL_NA",
    "gnaf_pid": "GAWA_162329867"
   }
  },
  {
   "type": "Feature",
   "geometry": {
    "type": "Point",
    "coordinates": [
     116.758719,
     -30.503257
    ]
   },
   "properties": {
    "name": "1005 MEADOWS ROAD EAST DAMBORING 6606",
    "locID": "EjAxMDA1IE1lYWRvd3MgUmQsIEVhc3QgQmFsbGlkdSBXQSA2NjA2LCBBdXN0cmFsaWEiMRIvChQKEgkPx7lkQkDMKxGX81Fjc1-ShxDtByoUChIJZeY5vEFAzCsR1ph0VOnePz8",
    "tech": "SATELLITE",
    "upgrade": "UNKNOWN",
    "gnaf_pid": "GAWA_162330922"
   }
  },
  {
   "type": "Feature",
   "geometry": {
    "type": "Point",
    "coordinates": [
     116.75932011,
     -30.48437061
    ]
   },
   "properties": {
    "name": "1211 MEADOWS ROAD EAST DAMBORING 6606",
    "locID": "EjAxMjExIE1lYWRvd3MgUmQsIEVhc3QgQmFsbGlkdSBXQSA2NjA2LCBBdXN0cmFsaWEiMRIvChQKEgkPx7lkQkDMKxGX81Fjc1-ShxC7CSoUChIJZeY5vEFAzCsR1ph0VOnePz8",
    "tech": "SATELLITE",
    "upgrade": "UNKNOWN",
    "gnaf_pid": "GAWA_162330923"
   }
  },
  {
   "type": "Feature",
   "geometry": {
    "type": "Point",
    "coordinates": [
     116.826567,
     -30.501958
    ]
   },
   "properties": {
    "name": "1147 RIFLE RANGE ROAD EAST DAMBORING 6606",
    "locID": "EjQxMTQ3IFJpZmxlIFJhbmdlIFJkLCBFYXN0IEJhbGxpZHUgV0EgNjYwNiwgQXVzdHJhbGlhIjESLwoUChIJMewC6L9szCsRUQW2FDj2ABMQ-wgqFAoSCRltZ36jbMwrEVe31_o07gzX",
    "tech": "SATELLITE",
    "upgrade": "UNKNOWN",
    "gnaf_pid": "GAWA_162332210"
   }
  },
  {
   "type": "Feature",
   "geometry": {
    "type": "Point",
    "coordinates": [
     116.783592,
     -30.454733
    ]
   },
   "properties": {
    "name": "1787 SUTCLIFFE ROAD EAST DAMBORING 6606",
    "locID": "LOC000094725837",
    "tech": "SATELLITE",
    "upgrade": "NULL_NA",
    "gnaf_pid": "GAWA_162333239"
   }
  },
  {
   "type": "Feature",
   "geometry": {
    "type": "Point",
    "coordinates": [
     116.78338273,
     -30.46810835
    ]
   },
   "properties": {
    "name": "945 DAMBORING EAST ROAD EAST DAMBORING 6606",
    "locID": "ChIJbbLw4To-zCsRBflU8PqI9XA",
    "tech": "SATELLITE",
    "upgrade": "UNKNOWN",
    "gnaf_pid": "GAWA_720891875"
   }
  }
 ]
}