{
 "type": "FeatureCollection",
 "generated": "2024-07-26T09:19:40.291621",
 "suburb": "EAST YUNA",
 "features": [
  {
   "type": "Feature",
   "geometry": {
    "type": "Point",
    "coordinates": [
     115.15097686,
     -28.36538547
    ]
   },
   "properties": {
    "name": "1093 BINDOO ROAD EAST YUNA 6532",
    "locID": "LOC000103744521",
    "tech": "SATELLITE",
    "upgrade": "NULL_NA",
    "gnaf_pid": "GAWA_161999649",
    "tech_change_status": "Not Planned"
   }
  },
  {
   "type": "Feature",
   "geometry": {
    "type": "Point",
    "coordinates": [
     115.178577,
     -28.359267
    ]
   },
   "properties": {
    "name": "970 BINDOO ROAD EAST YUNA 6532",
    "locID": "LOC000096744212",
    "tech": "SATELLITE",
    "upgrade": "NULL_NA",
    "gnaf_pid": "GAWA_161999650",
    "tech_change_status": "Not Planned"
   }
  },
  {
   "type": "Feature",
   "geometry": {
    "type": "Point",
    "coordinates": [
     115.26141064,
     -28.42245075
    ]
   },
   "properties": {
    "name": "547 CAMPBELLS ROAD EAST YUNA 6532",
    "locID": "LOC000030351897",
    "tech": "SATELLITE",
    "upgrade": "NULL_NA",
    "gnaf_pid": "GAWA_162000135",
    "tech_change_status": "Not Planned"
   }
  },
  {
   "type": "Feature",
   "geometry": {
    "type": "Point",
    "coordinates": [
     115.13098202,
     -28.38693364
    ]
   },
   "properties": {
    "name": "147 MCGAURAN ROAD EAST YUNA 6532",
    "locID": "LOC000080450039",
    "tech": "SATELLITE",
    "upgrade": "NULL_NA",
    "gnaf_pid": "GAWA_162001447",
    "tech_change_status": "Not Planned"
   }
  },
  {
   "type": "Feature",
   "geometry": {
    "type": "Point",
    "coordinates": [
     115.13098202,
     -28.38693364
    ]
   },
   "properties": {
    "name": "17 MCGAURAN ROAD EAST YUNA 6532",
    "locID": "LOC000014495972",
    "tech": "SATELLITE",
    "upgrade": "NULL_NA",
    "gnaf_pid": "GAWA_162001448",
    "tech_change_status": "Not Planned"
   }
  },
  {
   "type": "Feature",
   "geometry": {
    "type": "Point",
    "coordinates": [
     115.053704,
     -28.487443
    ]
   },
   "properties": {
    "name": "2434 NABAWA ROAD EAST EAST YUNA 6532",
    "locID": "LOC000059754772",
    "tech": "SATELLITE",
    "upgrade": "NULL_NA",
    "gnaf_pid": "GAWA_162001779",
    "tech_change_status": "Not Planned"
   }
  },
  {
   "type": "Feature",
   "geometry": {
    "type": "Point",
    "coordinates": [
     115.233942,
     -28.332415
    ]
   },
   "properties": {
    "name": "147 ST JOHN ROAD EAST YUNA 6532",
    "locID": "LOC000105171602",
    "tech": "SATELLITE",
    "upgrade": "NULL_NA",
    "gnaf_pid": "GAWA_162002525",
    "tech_change_status": "Not Planned"
   }
  },
  {
   "type": "Feature",
   "geometry": {
    "type": "Point",
    "coordinates": [
     115.3064045,
     -28.41427976
    ]
   },
   "properties": {
    "name": "2543 TENINDEWA ROAD NORTH EAST YUNA 6532",
    "locID": "LOC000038902646",
    "tech": "SATELLITE",
    "upgrade": "NULL_NA",
    "gnaf_pid": "GAWA_162002875",
    "tech_change_status": "Not Planned"
   }
  },
  {
   "type": "Feature",
   "geometry": {
    "type": "Point",
    "coordinates": [
     115.16039147,
     -28.31504106
    ]
   },
   "properties": {
    "name": "1080 WANDANA ROAD EAST YUNA 6532",
    "locID": "LOC000044826924",
    "tech": "SATELLITE",
    "upgrade": "NULL_NA",
    "gnaf_pid": "GAWA_162003146",
    "tech_change_status": "Not Planned"
   }
  },
  {
   "type": "Feature",
   "geometry": {
    "type": "Point",
    "coordinates": [
     115.10749342,
     -28.44339393
    ]
   },
   "properties": {
    "name": "402 WHEELDON HOSKING ROAD EAST YUNA 6532",
    "locID": "LOC000055871225",
    "tech": "SATELLITE",
    "upgrade": "NULL_NA",
    "gnaf_pid": "GAWA_162003257",
    "tech_change_status": "Not Planned"
   }
  },
  {
   "type": "Feature",
   "geometry": {
    "type": "Point",
    "coordinates": [
     115.062922,
     -28.433066
    ]
   },
   "properties": {
    "name": "437 WHEELDON HOSKING ROAD EAST YUNA 6532",
    "locID": "LOC000073463487",
    "tech": "SATELLITE",
    "upgrade": "NULL_NA",
    "gnaf_pid": "GAWA_162003258",
    "tech_change_status": "Not Planned"
   }
  },
  {
   "type": "Feature",
   "geometry": {
    "type": "Point",
    "coordinates": [
     115.15472,
     -28.461022
    ]
   },
   "properties": {
    "name": "2304 YUNA-TENINDEWA ROAD EAST YUNA 6532",
    "locID": "LOC000002930081",
    "tech": "SATELLITE",
    "upgrade": "NULL_NA",
    "gnaf_pid": "GAWA_162003463",
    "tech_change_status": "Not Planned"
   }
  },
  {
   "type": "Feature",
   "geometry": {
    "type": "Point",
    "coordinates": [
     115.123419,
     -28.356371
    ]
   },
   "properties": {
    "name": "380 WANDIN ROAD EAST YUNA 6532",
    "locID": "LOC000069282541",
    "tech": "SATELLITE",
    "upgrade": "NULL_NA",
    "gnaf_pid": "GAWA_162333653",
    "tech_change_status": "Not Planned"
   }
  },
  {
   "type": "Feature",
   "geometry": {
    "type": "Point",
    "coordinates": [
     115.11793108,
     -28.4645733
    ]
   },
   "properties": {
    "name": "101 VALENTINE ROAD EAST YUNA 6532",
    "locID": "LOC000103454873",
    "tech": "SATELLITE",
    "upgrade": "NULL_NA",
    "gnaf_pid": "GAWA_162589913",
    "tech_change_status": "Not Planned"
   }
  },
  {
   "type": "Feature",
   "geometry": {
    "type": "Point",
    "coordinates": [
     115.1263827,
     -28.4040127
    ]
   },
   "properties": {
    "name": "LOT 6834 YUNA-TENINDEWA ROAD EAST YUNA 6532",
    "locID": "LOC000190781256",
    "tech": "SATELLITE",
    "upgrade": "NULL_NA",
    "gnaf_pid": "GAWA_163007280",
    "tech_change_status": "Not Planned"
   }
  },
  {
   "type": "Feature",
   "geometry": {
    "type": "Point",
    "coordinates": [
     115.09499035,
     -28.41914548
    ]
   },
   "properties": {
    "name": "456 WHEELDON HOSKING ROAD EAST YUNA 6532",
    "locID": "LOC000092832505",
    "tech": "SATELLITE",
    "upgrade": "NULL_NA",
    "gnaf_pid": "GAWA_163205269",
    "tech_change_status": "Not Planned"
   }
  }
 ]
}