{
 "type": "FeatureCollection",
 "generated": "2024-08-18T04:53:33.272188",
 "suburb": "ELACHBUTTING",
 "features": [
  {
   "type": "Feature",
   "geometry": {
    "type": "Point",
    "coordinates": [
     118.7752173,
     -30.78928625
    ]
   },
   "properties": {
    "name": "458 DUNCAN ROAD ELACHBUTTING 6479",
    "locID": "LOC000133311539",
    "tech": "SATELLITE",
    "upgrade": "NULL_NA",
    "gnaf_pid": "GAWA_718296585",
    "tech_change_status": "Not Planned"
   }
  },
  {
   "type": "Feature",
   "geometry": {
    "type": "Point",
    "coordinates": [
     118.58875615,
     -30.75364283
    ]
   },
   "properties": {
    "name": "2844 ECHO VALLEY ROAD ELACHBUTTING 6479",
    "locID": "LOC000133308428",
    "tech": "SATELLITE",
    "upgrade": "NULL_NA",
    "gnaf_pid": "GAWA_718296624",
    "tech_change_status": "Not Planned"
   }
  },
  {
   "type": "Feature",
   "geometry": {
    "type": "Point",
    "coordinates": [
     118.6372469,
     -30.78342744
    ]
   },
   "properties": {
    "name": "719 FARINA ROAD ELACHBUTTING 6479",
    "locID": "LOC000133314520",
    "tech": "SATELLITE",
    "upgrade": "NULL_NA",
    "gnaf_pid": "GAWA_718296771",
    "tech_change_status": "Not Planned"
   }
  },
  {
   "type": "Feature",
   "geometry": {
    "type": "Point",
    "coordinates": [
     118.56701082,
     -30.4741074
    ]
   },
   "properties": {
    "name": "10368 RABBIT PROOF FENCE ROAD ELACHBUTTING 6479",
    "locID": "LOC000133298370",
    "tech": "SATELLITE",
    "upgrade": "NULL_NA",
    "gnaf_pid": "GAWA_718299504",
    "tech_change_status": "Not Planned"
   }
  },
  {
   "type": "Feature",
   "geometry": {
    "type": "Point",
    "coordinates": [
     118.5240612,
     -30.7381552
    ]
   },
   "properties": {
    "name": "7392 RABBIT PROOF FENCE ROAD ELACHBUTTING 6479",
    "locID": "LOC000133314531",
    "tech": "SATELLITE",
    "upgrade": "NULL_NA",
    "gnaf_pid": "GAWA_718299505",
    "tech_change_status": "Not Planned"
   }
  },
  {
   "type": "Feature",
   "geometry": {
    "type": "Point",
    "coordinates": [
     118.52472348,
     -30.67763088
    ]
   },
   "properties": {
    "name": "7996 RABBIT PROOF FENCE ROAD ELACHBUTTING 6479",
    "locID": "LOC000133314565",
    "tech": "SATELLITE",
    "upgrade": "NULL_NA",
    "gnaf_pid": "GAWA_718299506",
    "tech_change_status": "Not Planned"
   }
  },
  {
   "type": "Feature",
   "geometry": {
    "type": "Point",
    "coordinates": [
     118.5282836,
     -30.60033733
    ]
   },
   "properties": {
    "name": "8846 RABBIT PROOF FENCE ROAD ELACHBUTTING 6479",
    "locID": "LOC000133314605",
    "tech": "SATELLITE",
    "upgrade": "NULL_NA",
    "gnaf_pid": "GAWA_718299507",
    "tech_change_status": "Not Planned"
   }
  },
  {
   "type": "Feature",
   "geometry": {
    "type": "Point",
    "coordinates": [
     118.52490674,
     -30.56829064
    ]
   },
   "properties": {
    "name": "9290 RABBIT PROOF FENCE ROAD ELACHBUTTING 6479",
    "locID": "LOC000133317297",
    "tech": "SATELLITE",
    "upgrade": "NULL_NA",
    "gnaf_pid": "GAWA_718299508",
    "tech_change_status": "Not Planned"
   }
  },
  {
   "type": "Feature",
   "geometry": {
    "type": "Point",
    "coordinates": [
     118.59812308,
     -30.55817452
    ]
   },
   "properties": {
    "name": "2157 ELACHBUTTING ROAD ELACHBUTTING 6479",
    "locID": "LOC000133305350",
    "tech": "SATELLITE",
    "upgrade": "NULL_NA",
    "gnaf_pid": "GAWA_718301887",
    "tech_change_status": "Not Planned"
   }
  }
 ]
}