{
 "type": "FeatureCollection",
 "generated": "2024-01-22T16:18:45.848129",
 "suburb": "GREENWOODS VALLEY",
 "features": [
  {
   "type": "Feature",
   "geometry": {
    "type": "Point",
    "coordinates": [
     116.91386788,
     -31.52840802
    ]
   },
   "properties": {
    "name": "912B SOUTHERN BROOK ROAD GREENWOODS VALLEY 6405",
    "locID": "ChIJ1YDOgr9MMyoRW0pAtsxLne8",
    "tech": "SATELLITE",
    "upgrade": "UNKNOWN",
    "gnaf_pid": "GAWA_147761570"
   }
  },
  {
   "type": "Feature",
   "geometry": {
    "type": "Point",
    "coordinates": [
     116.966688,
     -31.505753
    ]
   },
   "properties": {
    "name": "741 ANTONIO ROAD GREENWOODS VALLEY 6405",
    "locID": "LOC000098156141",
    "tech": "SATELLITE",
    "upgrade": "NULL_NA",
    "gnaf_pid": "GAWA_162485003"
   }
  },
  {
   "type": "Feature",
   "geometry": {
    "type": "Point",
    "coordinates": [
     116.975401,
     -31.511948
    ]
   },
   "properties": {
    "name": "764 ANTONIO ROAD GREENWOODS VALLEY 6405",
    "locID": "LOC000042447244",
    "tech": "SATELLITE",
    "upgrade": "NULL_NA",
    "gnaf_pid": "GAWA_162485004"
   }
  },
  {
   "type": "Feature",
   "geometry": {
    "type": "Point",
    "coordinates": [
     116.961902,
     -31.535641
    ]
   },
   "properties": {
    "name": "125 CARTER WILSON ROAD GREENWOODS VALLEY 6405",
    "locID": "LOC000094744418",
    "tech": "SATELLITE",
    "upgrade": "NULL_NA",
    "gnaf_pid": "GAWA_162485676"
   }
  },
  {
   "type": "Feature",
   "geometry": {
    "type": "Point",
    "coordinates": [
     116.92174126,
     -31.53499236
    ]
   },
   "properties": {
    "name": "2805 GOOMALLING-MECKERING ROAD GREENWOODS VALLEY 6405",
    "locID": "LOC000142444456",
    "tech": "SATELLITE",
    "upgrade": "NULL_NA",
    "gnaf_pid": "GAWA_162486802"
   }
  },
  {
   "type": "Feature",
   "geometry": {
    "type": "Point",
    "coordinates": [
     116.941706,
     -31.49223
    ]
   },
   "properties": {
    "name": "323 HITCHCOCK ROAD GREENWOODS VALLEY 6405",
    "locID": "LOC000079827561",
    "tech": "SATELLITE",
    "upgrade": "NULL_NA",
    "gnaf_pid": "GAWA_162487238"
   }
  },
  {
   "type": "Feature",
   "geometry": {
    "type": "Point",
    "coordinates": [
     116.941706,
     -31.49223
    ]
   },
   "properties": {
    "name": "343 HITCHCOCK ROAD GREENWOODS VALLEY 6405",
    "locID": "LOC000073144873",
    "tech": "SATELLITE",
    "upgrade": "NULL_NA",
    "gnaf_pid": "GAWA_162487239"
   }
  },
  {
   "type": "Feature",
   "geometry": {
    "type": "Point",
    "coordinates": [
     116.90505,
     -31.549153
    ]
   },
   "properties": {
    "name": "118 LALLYS ROAD GREENWOODS VALLEY 6405",
    "locID": "LOC000009610316",
    "tech": "SATELLITE",
    "upgrade": "NULL_NA",
    "gnaf_pid": "GAWA_162487740"
   }
  },
  {
   "type": "Feature",
   "geometry": {
    "type": "Point",
    "coordinates": [
     116.888395,
     -31.528775
    ]
   },
   "properties": {
    "name": "2261 SOUTHERN BROOK ROAD GREENWOODS VALLEY 6405",
    "locID": "LOC000030533042",
    "tech": "SATELLITE",
    "upgrade": "NULL_NA",
    "gnaf_pid": "GAWA_162489957"
   }
  },
  {
   "type": "Feature",
   "geometry": {
    "type": "Point",
    "coordinates": [
     116.9429471,
     -31.52581351
    ]
   },
   "properties": {
    "name": "2716 SOUTHERN BROOK ROAD GREENWOODS VALLEY 6405",
    "locID": "LOC000070475242",
    "tech": "SATELLITE",
    "upgrade": "NULL_NA",
    "gnaf_pid": "GAWA_162489958"
   }
  },
  {
   "type": "Feature",
   "geometry": {
    "type": "Point",
    "coordinates": [
     116.99134799,
     -31.48806535
    ]
   },
   "properties": {
    "name": "622 WILDING ROAD GREENWOODS VALLEY 6405",
    "locID": "LOC000080805509",
    "tech": "SATELLITE",
    "upgrade": "NULL_NA",
    "gnaf_pid": "GAWA_162490814"
   }
  },
  {
   "type": "Feature",
   "geometry": {
    "type": "Point",
    "coordinates": [
     116.99862657,
     -31.43874723
    ]
   },
   "properties": {
    "name": "LOT 50 NAMBLING SOUTH ROAD GREENWOODS VALLEY 6405",
    "locID": "Eis1MCBOYW1ibGluZyBTIFJkLCBVY2FydHkgV0EgNjQ2MiwgQXVzdHJhbGlhIjASLgoUChIJDVbcQrKkzCsR8HXLFDj2ABMQMioUChIJqe8HUkmlzCsRen4cuRuC0dY",
    "tech": "SATELLITE",
    "upgrade": "UNKNOWN",
    "gnaf_pid": "GAWA_162578615"
   }
  },
  {
   "type": "Feature",
   "geometry": {
    "type": "Point",
    "coordinates": [
     116.93965662,
     -31.5014611
    ]
   },
   "properties": {
    "name": "22233 HITCHCOCK ROAD GREENWOODS VALLEY 6405",
    "locID": "ChIJocrZCtWyzCsRCHAORBcfDQw",
    "tech": "SATELLITE",
    "upgrade": "UNKNOWN",
    "gnaf_pid": "GAWA_163389584"
   }
  },
  {
   "type": "Feature",
   "geometry": {
    "type": "Point",
    "coordinates": [
     116.90489272,
     -31.55270911
    ]
   },
   "properties": {
    "name": "3004 LALLYS ROAD GREENWOODS VALLEY 6405",
    "locID": "ChIJX929R4hMMyoRfcA5Hig8klo",
    "tech": "SATELLITE",
    "upgrade": "UNKNOWN",
    "gnaf_pid": "GAWA_163390339"
   }
  },
  {
   "type": "Feature",
   "geometry": {
    "type": "Point",
    "coordinates": [
     116.97096008,
     -31.4800126
    ]
   },
   "properties": {
    "name": "537 HITCHCOCK ROAD GREENWOODS VALLEY 6405",
    "locID": "ChIJM_ugjryyzCsRmlXXYgDXnWI",
    "tech": "SATELLITE",
    "upgrade": "UNKNOWN",
    "gnaf_pid": "GAWA_720277367"
   }
  }
 ]
}