{
 "type": "FeatureCollection",
 "generated": "2024-08-18T06:04:53.749621",
 "suburb": "GREENWOODS VALLEY",
 "features": [
  {
   "type": "Feature",
   "geometry": {
    "type": "Point",
    "coordinates": [
     116.966688,
     -31.505753
    ]
   },
   "properties": {
    "name": "741 ANTONIO ROAD GREENWOODS VALLEY 6405",
    "locID": "LOC000098156141",
    "tech": "SATELLITE",
    "upgrade": "NULL_NA",
    "gnaf_pid": "GAWA_162485003",
    "tech_change_status": "Not Planned"
   }
  },
  {
   "type": "Feature",
   "geometry": {
    "type": "Point",
    "coordinates": [
     116.975401,
     -31.511948
    ]
   },
   "properties": {
    "name": "764 ANTONIO ROAD GREENWOODS VALLEY 6405",
    "locID": "LOC000042447244",
    "tech": "SATELLITE",
    "upgrade": "NULL_NA",
    "gnaf_pid": "GAWA_162485004",
    "tech_change_status": "Not Planned"
   }
  },
  {
   "type": "Feature",
   "geometry": {
    "type": "Point",
    "coordinates": [
     116.961902,
     -31.535641
    ]
   },
   "properties": {
    "name": "125 CARTER WILSON ROAD GREENWOODS VALLEY 6405",
    "locID": "LOC000094744418",
    "tech": "SATELLITE",
    "upgrade": "NULL_NA",
    "gnaf_pid": "GAWA_162485676",
    "tech_change_status": "Not Planned"
   }
  },
  {
   "type": "Feature",
   "geometry": {
    "type": "Point",
    "coordinates": [
     116.92174126,
     -31.53499236
    ]
   },
   "properties": {
    "name": "2805 GOOMALLING-MECKERING ROAD GREENWOODS VALLEY 6405",
    "locID": "LOC000142444456",
    "tech": "SATELLITE",
    "upgrade": "NULL_NA",
    "gnaf_pid": "GAWA_162486802",
    "tech_change_status": "Not Planned"
   }
  },
  {
   "type": "Feature",
   "geometry": {
    "type": "Point",
    "coordinates": [
     116.941706,
     -31.49223
    ]
   },
   "properties": {
    "name": "323 HITCHCOCK ROAD GREENWOODS VALLEY 6405",
    "locID": "LOC000079827561",
    "tech": "SATELLITE",
    "upgrade": "NULL_NA",
    "gnaf_pid": "GAWA_162487238",
    "tech_change_status": "Not Planned"
   }
  },
  {
   "type": "Feature",
   "geometry": {
    "type": "Point",
    "coordinates": [
     116.941706,
     -31.49223
    ]
   },
   "properties": {
    "name": "343 HITCHCOCK ROAD GREENWOODS VALLEY 6405",
    "locID": "LOC000073144873",
    "tech": "SATELLITE",
    "upgrade": "NULL_NA",
    "gnaf_pid": "GAWA_162487239",
    "tech_change_status": "Not Planned"
   }
  },
  {
   "type": "Feature",
   "geometry": {
    "type": "Point",
    "coordinates": [
     116.90505,
     -31.549153
    ]
   },
   "properties": {
    "name": "118 LALLYS ROAD GREENWOODS VALLEY 6405",
    "locID": "LOC000009610316",
    "tech": "SATELLITE",
    "upgrade": "NULL_NA",
    "gnaf_pid": "GAWA_162487740",
    "tech_change_status": "Not Planned"
   }
  },
  {
   "type": "Feature",
   "geometry": {
    "type": "Point",
    "coordinates": [
     116.888395,
     -31.528775
    ]
   },
   "properties": {
    "name": "2261 SOUTHERN BROOK ROAD GREENWOODS VALLEY 6405",
    "locID": "LOC000030533042",
    "tech": "SATELLITE",
    "upgrade": "NULL_NA",
    "gnaf_pid": "GAWA_162489957",
    "tech_change_status": "Not Planned"
   }
  },
  {
   "type": "Feature",
   "geometry": {
    "type": "Point",
    "coordinates": [
     116.9429471,
     -31.52581351
    ]
   },
   "properties": {
    "name": "2716 SOUTHERN BROOK ROAD GREENWOODS VALLEY 6405",
    "locID": "LOC000070475242",
    "tech": "SATELLITE",
    "upgrade": "NULL_NA",
    "gnaf_pid": "GAWA_162489958",
    "tech_change_status": "Not Planned"
   }
  },
  {
   "type": "Feature",
   "geometry": {
    "type": "Point",
    "coordinates": [
     116.99134799,
     -31.48806535
    ]
   },
   "properties": {
    "name": "622 WILDING ROAD GREENWOODS VALLEY 6405",
    "locID": "LOC000080805509",
    "tech": "SATELLITE",
    "upgrade": "NULL_NA",
    "gnaf_pid": "GAWA_162490814",
    "tech_change_status": "Not Planned"
   }
  }
 ]
}