{
 "type": "FeatureCollection",
 "generated": "2024-09-06T09:26:47.141300",
 "suburb": "GUNDARING",
 "features": [
  {
   "type": "Feature",
   "geometry": {
    "type": "Point",
    "coordinates": [
     117.51068736,
     -33.31391871
    ]
   },
   "properties": {
    "name": "512 BALLAYING ROAD WEST GUNDARING 6315",
    "locID": "LOC000069685316",
    "tech": "SATELLITE",
    "upgrade": "NULL_NA",
    "gnaf_pid": "GAWA_162254473",
    "tech_change_status": "Not Planned"
   }
  },
  {
   "type": "Feature",
   "geometry": {
    "type": "Point",
    "coordinates": [
     117.50597733,
     -33.3696809
    ]
   },
   "properties": {
    "name": "315 BLACKS ROAD GUNDARING 6315",
    "locID": "LOC000007856484",
    "tech": "SATELLITE",
    "upgrade": "NULL_NA",
    "gnaf_pid": "GAWA_162254671",
    "tech_change_status": "Not Planned"
   }
  },
  {
   "type": "Feature",
   "geometry": {
    "type": "Point",
    "coordinates": [
     117.470841,
     -33.335165
    ]
   },
   "properties": {
    "name": "241 BOSENBERG ROAD GUNDARING 6315",
    "locID": "LOC000086661202",
    "tech": "NULL",
    "upgrade": "NULL_NA",
    "gnaf_pid": "GAWA_162254696",
    "tech_change_status": "Not Planned"
   }
  },
  {
   "type": "Feature",
   "geometry": {
    "type": "Point",
    "coordinates": [
     117.474646,
     -33.311954
    ]
   },
   "properties": {
    "name": "34 GUNDARING ROAD SOUTH GUNDARING 6315",
    "locID": "LOC000047847261",
    "tech": "SATELLITE",
    "upgrade": "NULL_NA",
    "gnaf_pid": "GAWA_162255787",
    "tech_change_status": "Not Planned"
   }
  },
  {
   "type": "Feature",
   "geometry": {
    "type": "Point",
    "coordinates": [
     117.506337,
     -33.302196
    ]
   },
   "properties": {
    "name": "1348 WAGIN-DUMBLEYUNG ROAD GUNDARING 6315",
    "locID": "LOC000103844332",
    "tech": "NULL",
    "upgrade": "NULL_NA",
    "gnaf_pid": "GAWA_162257946",
    "tech_change_status": "Not Planned"
   }
  },
  {
   "type": "Feature",
   "geometry": {
    "type": "Point",
    "coordinates": [
     117.5347782,
     -33.29273158
    ]
   },
   "properties": {
    "name": "1684 WAGIN-DUMBLEYUNG ROAD GUNDARING 6315",
    "locID": "LOC000082992889",
    "tech": "NULL",
    "upgrade": "NULL_NA",
    "gnaf_pid": "GAWA_162257947",
    "tech_change_status": "Not Planned"
   }
  },
  {
   "type": "Feature",
   "geometry": {
    "type": "Point",
    "coordinates": [
     117.53180389,
     -33.33725444
    ]
   },
   "properties": {
    "name": "19 WESTS ROAD GUNDARING 6315",
    "locID": "LOC000090291966",
    "tech": "SATELLITE",
    "upgrade": "NULL_NA",
    "gnaf_pid": "GAWA_162258057",
    "tech_change_status": "Not Planned"
   }
  }
 ]
}