{
 "type": "FeatureCollection",
 "generated": "2024-03-24T05:32:39.065534",
 "suburb": "JALORAN",
 "features": [
  {
   "type": "Feature",
   "geometry": {
    "type": "Point",
    "coordinates": [
     117.36079002,
     -33.12589639
    ]
   },
   "properties": {
    "name": "313 CAMERONS ROAD JALORAN 6315",
    "locID": "LOC000092820957",
    "tech": "SATELLITE",
    "upgrade": "NULL_NA",
    "gnaf_pid": "GAWA_162254898"
   }
  },
  {
   "type": "Feature",
   "geometry": {
    "type": "Point",
    "coordinates": [
     117.393542,
     -33.131787
    ]
   },
   "properties": {
    "name": "464 CAMERONS ROAD JALORAN 6315",
    "locID": "LOC000068272338",
    "tech": "SATELLITE",
    "upgrade": "NULL_NA",
    "gnaf_pid": "GAWA_162254899"
   }
  },
  {
   "type": "Feature",
   "geometry": {
    "type": "Point",
    "coordinates": [
     117.37442305,
     -33.11679226
    ]
   },
   "properties": {
    "name": "568 CAMERONS ROAD JALORAN 6315",
    "locID": "LOC000028713759",
    "tech": "SATELLITE",
    "upgrade": "NULL_NA",
    "gnaf_pid": "GAWA_162254900"
   }
  },
  {
   "type": "Feature",
   "geometry": {
    "type": "Point",
    "coordinates": [
     117.45799982,
     -33.22385728
    ]
   },
   "properties": {
    "name": "719 DONGOLOCKING ROAD JALORAN 6315",
    "locID": "LOC000056572436",
    "tech": "SATELLITE",
    "upgrade": "NULL_NA",
    "gnaf_pid": "GAWA_162255287"
   }
  },
  {
   "type": "Feature",
   "geometry": {
    "type": "Point",
    "coordinates": [
     117.46947905,
     -33.22533839
    ]
   },
   "properties": {
    "name": "847 DONGOLOCKING ROAD JALORAN 6315",
    "locID": "LOC000100835129",
    "tech": "SATELLITE",
    "upgrade": "NULL_NA",
    "gnaf_pid": "GAWA_162255288"
   }
  },
  {
   "type": "Feature",
   "geometry": {
    "type": "Point",
    "coordinates": [
     117.364163,
     -33.182995
    ]
   },
   "properties": {
    "name": "802 EDWARDS ROAD JALORAN 6315",
    "locID": "LOC000055457696",
    "tech": "SATELLITE",
    "upgrade": "NULL_NA",
    "gnaf_pid": "GAWA_162255345"
   }
  },
  {
   "type": "Feature",
   "geometry": {
    "type": "Point",
    "coordinates": [
     117.46122204,
     -33.11149569
    ]
   },
   "properties": {
    "name": "152 HALLS ROAD JALORAN 6315",
    "locID": "LOC000023645925",
    "tech": "SATELLITE",
    "upgrade": "NULL_NA",
    "gnaf_pid": "GAWA_162255800"
   }
  },
  {
   "type": "Feature",
   "geometry": {
    "type": "Point",
    "coordinates": [
     117.46122204,
     -33.11149569
    ]
   },
   "properties": {
    "name": "90 HALLS ROAD JALORAN 6315",
    "locID": "LOC000019575140",
    "tech": "SATELLITE",
    "upgrade": "NULL_NA",
    "gnaf_pid": "GAWA_162255801"
   }
  },
  {
   "type": "Feature",
   "geometry": {
    "type": "Point",
    "coordinates": [
     117.40136806,
     -33.19116495
    ]
   },
   "properties": {
    "name": "1439 JALORAN ROAD JALORAN 6315",
    "locID": "LOC000078180509",
    "tech": "SATELLITE",
    "upgrade": "NULL_NA",
    "gnaf_pid": "GAWA_162256070"
   }
  },
  {
   "type": "Feature",
   "geometry": {
    "type": "Point",
    "coordinates": [
     117.4297481,
     -33.15952628
    ]
   },
   "properties": {
    "name": "1961 JALORAN ROAD JALORAN 6315",
    "locID": "LOC000105264799",
    "tech": "SATELLITE",
    "upgrade": "NULL_NA",
    "gnaf_pid": "GAWA_162256071"
   }
  },
  {
   "type": "Feature",
   "geometry": {
    "type": "Point",
    "coordinates": [
     117.390419,
     -33.233677
    ]
   },
   "properties": {
    "name": "932 JALORAN ROAD JALORAN 6315",
    "locID": "LOC000044801076",
    "tech": "SATELLITE",
    "upgrade": "NULL_NA",
    "gnaf_pid": "GAWA_162256072"
   }
  },
  {
   "type": "Feature",
   "geometry": {
    "type": "Point",
    "coordinates": [
     117.444132,
     -33.113533
    ]
   },
   "properties": {
    "name": "222 MCDOUGALLS ROAD JALORAN 6315",
    "locID": "LOC000081276052",
    "tech": "SATELLITE",
    "upgrade": "NULL_NA",
    "gnaf_pid": "GAWA_162256554"
   }
  },
  {
   "type": "Feature",
   "geometry": {
    "type": "Point",
    "coordinates": [
     117.37045,
     -33.19533
    ]
   },
   "properties": {
    "name": "89 URQUHART ROAD JALORAN 6315",
    "locID": "LOC000061267915",
    "tech": "SATELLITE",
    "upgrade": "NULL_NA",
    "gnaf_pid": "GAWA_162257874"
   }
  },
  {
   "type": "Feature",
   "geometry": {
    "type": "Point",
    "coordinates": [
     117.461282,
     -33.128243
    ]
   },
   "properties": {
    "name": "450 WAGIN-WICKEPIN ROAD JALORAN 6315",
    "locID": "LOC000058053348",
    "tech": "SATELLITE",
    "upgrade": "NULL_NA",
    "gnaf_pid": "GAWA_162257951"
   }
  },
  {
   "type": "Feature",
   "geometry": {
    "type": "Point",
    "coordinates": [
     117.4922484,
     -33.10874164
    ]
   },
   "properties": {
    "name": "995 WAGIN-WICKEPIN ROAD JALORAN 6315",
    "locID": "LOC000031501615",
    "tech": "SATELLITE",
    "upgrade": "NULL_NA",
    "gnaf_pid": "GAWA_162257952"
   }
  },
  {
   "type": "Feature",
   "geometry": {
    "type": "Point",
    "coordinates": [
     117.34100034,
     -33.15891382
    ]
   },
   "properties": {
    "name": "625 PIESSEVILLE-JALORAN ROAD JALORAN 6315",
    "locID": "LOC000034464548",
    "tech": "SATELLITE",
    "upgrade": "NULL_NA",
    "gnaf_pid": "GAWA_162274545"
   }
  },
  {
   "type": "Feature",
   "geometry": {
    "type": "Point",
    "coordinates": [
     117.37458194,
     -33.10903661
    ]
   },
   "properties": {
    "name": "1288 WHINBIN ROCK ROAD JALORAN 6315",
    "locID": "LOC000078566719",
    "tech": "SATELLITE",
    "upgrade": "NULL_NA",
    "gnaf_pid": "GAWA_162280359"
   }
  }
 ]
}