{
 "type": "FeatureCollection",
 "generated": "2024-09-24T22:52:23.203304",
 "suburb": "KARRAKATTA",
 "features": [
  {
   "type": "Feature",
   "geometry": {
    "type": "Point",
    "coordinates": [
     115.79918472,
     -31.96505066
    ]
   },
   "properties": {
    "name": "19 MATAPAU ROAD KARRAKATTA 6010",
    "locID": "LOC000035251949",
    "tech": "FTTP",
    "upgrade": "NULL_NA",
    "gnaf_pid": "GAWA_147815968"
   }
  },
  {
   "type": "Feature",
   "geometry": {
    "type": "Point",
    "coordinates": [
     115.80162729,
     -31.97518689
    ]
   },
   "properties": {
    "name": "LOT 5236 RAILWAY ROAD KARRAKATTA 6010",
    "locID": "LOC000131859104",
    "tech": "FTTP",
    "upgrade": "FTTP_NA",
    "gnaf_pid": "GAWA_161575291",
    "tech_change_status": "Previous Tech Disconnected",
    "program_type": "On-Demand N2P SDU/MDU Simple",
    "target_eligibility_quarter": "NA"
   }
  },
  {
   "type": "Feature",
   "geometry": {
    "type": "Point",
    "coordinates": [
     115.80527487,
     -31.96937586
    ]
   },
   "properties": {
    "name": "LOT 3001 SMYTH ROAD KARRAKATTA 6010",
    "locID": "LOC000151978855",
    "tech": "HFC",
    "upgrade": "NULL_NA",
    "gnaf_pid": "GAWA_162586151"
   }
  },
  {
   "type": "Feature",
   "geometry": {
    "type": "Point",
    "coordinates": [
     115.79187273,
     -31.9585679
    ]
   },
   "properties": {
    "name": "LOT 11397 BROCKWAY ROAD KARRAKATTA 6010",
    "locID": "LOC000067597270",
    "tech": "FTTN",
    "upgrade": "FTTP_SA",
    "gnaf_pid": "GAWA_162770487",
    "tech_change_status": "Eligible to Order",
    "program_type": "On-Demand N2P SDU/MDU Simple",
    "target_eligibility_quarter": "NA"
   }
  },
  {
   "type": "Feature",
   "geometry": {
    "type": "Point",
    "coordinates": [
     115.79722747,
     -31.96786173
    ]
   },
   "properties": {
    "name": "LOT 12793 RAILWAY ROAD KARRAKATTA 6010",
    "locID": "LOC000184254276",
    "tech": "FTTN",
    "upgrade": "NULL_NA",
    "gnaf_pid": "GAWA_718678553",
    "tech_change_status": "Not Planned"
   }
  },
  {
   "type": "Feature",
   "geometry": {
    "type": "Point",
    "coordinates": [
     115.79929331,
     -31.97058378
    ]
   },
   "properties": {
    "name": "500 RAILWAY ROAD KARRAKATTA 6010",
    "locID": "LOC000158979049",
    "tech": "FTTN",
    "upgrade": "FTTP_SA",
    "gnaf_pid": "GAWA_719969172",
    "tech_change_status": "Eligible to Order",
    "program_type": "On-Demand N2P SDU/MDU Simple",
    "target_eligibility_quarter": "NA"
   }
  }
 ]
}