{
 "type": "FeatureCollection",
 "generated": "2024-01-22T18:42:54.161447",
 "suburb": "KARRAKATTA",
 "features": [
  {
   "type": "Feature",
   "geometry": {
    "type": "Point",
    "coordinates": [
     115.79643473,
     -31.96786982
    ]
   },
   "properties": {
    "name": "237 STUBBS TERRACE KARRAKATTA 6010",
    "locID": "LOC000066342227",
    "tech": "FTTB",
    "upgrade": "NULL_NA",
    "gnaf_pid": "GAWA_147267193"
   }
  },
  {
   "type": "Feature",
   "geometry": {
    "type": "Point",
    "coordinates": [
     115.79643473,
     -31.96786982
    ]
   },
   "properties": {
    "name": "271 STUBBS TERRACE KARRAKATTA 6010",
    "locID": "ChIJl4UqkKulMioRg0m5qLHi5AM",
    "tech": "FTTP",
    "upgrade": "UNKNOWN",
    "gnaf_pid": "GAWA_147811772"
   }
  },
  {
   "type": "Feature",
   "geometry": {
    "type": "Point",
    "coordinates": [
     115.79918472,
     -31.96505066
    ]
   },
   "properties": {
    "name": "19 MATAPAU ROAD KARRAKATTA 6010",
    "locID": "LOC000035251949",
    "tech": "FTTP",
    "upgrade": "NULL_NA",
    "gnaf_pid": "GAWA_147815968"
   }
  },
  {
   "type": "Feature",
   "geometry": {
    "type": "Point",
    "coordinates": [
     115.79528684,
     -31.96278287
    ]
   },
   "properties": {
    "name": "3 HOBBS ROAD KARRAKATTA 6010",
    "locID": "ChIJV14Sw6ulMioRMBjsLsWVyos",
    "tech": "FTTB",
    "upgrade": "UNKNOWN",
    "gnaf_pid": "GAWA_147815969"
   }
  },
  {
   "type": "Feature",
   "geometry": {
    "type": "Point",
    "coordinates": [
     115.79918472,
     -31.96505066
    ]
   },
   "properties": {
    "name": "7 MATAPAU ROAD KARRAKATTA 6010",
    "locID": "ChIJ8XRhiaulMioRUUVwXfYBDbE",
    "tech": "FTTP",
    "upgrade": "UNKNOWN",
    "gnaf_pid": "GAWA_147815970"
   }
  },
  {
   "type": "Feature",
   "geometry": {
    "type": "Point",
    "coordinates": [
     115.79528684,
     -31.96278287
    ]
   },
   "properties": {
    "name": "2 HOBBS ROAD KARRAKATTA 6010",
    "locID": "ChIJk7Xt6aulMioRpo5dxbgJ3yY",
    "tech": "FTTB",
    "upgrade": "UNKNOWN",
    "gnaf_pid": "GAWA_147815971"
   }
  },
  {
   "type": "Feature",
   "geometry": {
    "type": "Point",
    "coordinates": [
     115.79643473,
     -31.96786982
    ]
   },
   "properties": {
    "name": "239 STUBBS TERRACE KARRAKATTA 6010",
    "locID": "ChIJD0cV56ylMioRPqoL0plkY6s",
    "tech": "FTTN",
    "upgrade": "UNKNOWN",
    "gnaf_pid": "GAWA_147815972"
   }
  },
  {
   "type": "Feature",
   "geometry": {
    "type": "Point",
    "coordinates": [
     115.79643473,
     -31.96786982
    ]
   },
   "properties": {
    "name": "273 STUBBS TERRACE KARRAKATTA 6010",
    "locID": "ChIJD0cV56ylMioRTquPYia7kS8",
    "tech": "FTTN",
    "upgrade": "UNKNOWN",
    "gnaf_pid": "GAWA_147815974"
   }
  },
  {
   "type": "Feature",
   "geometry": {
    "type": "Point",
    "coordinates": [
     115.79918472,
     -31.96505066
    ]
   },
   "properties": {
    "name": "20 MATAPAU ROAD KARRAKATTA 6010",
    "locID": "ChIJ8XRhiaulMioRebYV7nseL60",
    "tech": "FTTP",
    "upgrade": "UNKNOWN",
    "gnaf_pid": "GAWA_147819725"
   }
  },
  {
   "type": "Feature",
   "geometry": {
    "type": "Point",
    "coordinates": [
     115.79737115,
     -31.96262097
    ]
   },
   "properties": {
    "name": "4 LITTLE GIBRALTAR ROAD KARRAKATTA 6010",
    "locID": "ChIJ1T-ela6lMioRlN1eXfj_Zhw",
    "tech": "FTTB",
    "upgrade": "UNKNOWN",
    "gnaf_pid": "GAWA_147819726"
   }
  },
  {
   "type": "Feature",
   "geometry": {
    "type": "Point",
    "coordinates": [
     115.79737115,
     -31.96262097
    ]
   },
   "properties": {
    "name": "2 LITTLE GIBRALTAR ROAD KARRAKATTA 6010",
    "locID": "ChIJ1T-ela6lMioRW1l_WMerilI",
    "tech": "FTTB",
    "upgrade": "UNKNOWN",
    "gnaf_pid": "GAWA_147819727"
   }
  },
  {
   "type": "Feature",
   "geometry": {
    "type": "Point",
    "coordinates": [
     115.79528684,
     -31.96278287
    ]
   },
   "properties": {
    "name": "1 HOBBS ROAD KARRAKATTA 6010",
    "locID": "ChIJRyAmxKulMioRk0jqldtEOVo",
    "tech": "FTTB",
    "upgrade": "UNKNOWN",
    "gnaf_pid": "GAWA_147819728"
   }
  },
  {
   "type": "Feature",
   "geometry": {
    "type": "Point",
    "coordinates": [
     115.79683003,
     -31.96838018
    ]
   },
   "properties": {
    "name": "153 RAILWAY ROAD KARRAKATTA 6010",
    "locID": "ChIJZU8cxaylMioRk3fUAsLtytk",
    "tech": "FTTN",
    "upgrade": "UNKNOWN",
    "gnaf_pid": "GAWA_148339356"
   }
  },
  {
   "type": "Feature",
   "geometry": {
    "type": "Point",
    "coordinates": [
     115.79683003,
     -31.96838018
    ]
   },
   "properties": {
    "name": "81 RAILWAY ROAD KARRAKATTA 6010",
    "locID": "LOC000016291029",
    "tech": "FTTN",
    "upgrade": "FTTP_SA",
    "gnaf_pid": "GAWA_148339357",
    "tech_change_status": "Eligible To Order",
    "program_type": "On-Demand N2P SDU/MDU Simple",
    "target_eligibility_quarter": "NA"
   }
  },
  {
   "type": "Feature",
   "geometry": {
    "type": "Point",
    "coordinates": [
     115.79643473,
     -31.96786982
    ]
   },
   "properties": {
    "name": "235 STUBBS TERRACE KARRAKATTA 6010",
    "locID": "EjEyMzUgU3R1YmJzIFRlcnJhY2UsIEthcnJha2F0dGEgV0EgNjAxMCwgQXVzdHJhbGlhIjESLwoUChIJFRpImKulMioRV40Ie0cmFXAQ6wEqFAoSCX9a-MyppTIqETkRgM84KLec",
    "tech": "FTTN",
    "upgrade": "UNKNOWN",
    "gnaf_pid": "GAWA_148339374"
   }
  },
  {
   "type": "Feature",
   "geometry": {
    "type": "Point",
    "coordinates": [
     115.80162729,
     -31.97518689
    ]
   },
   "properties": {
    "name": "LOT 5236 RAILWAY ROAD KARRAKATTA 6010",
    "locID": "LOC000131859104",
    "tech": "FTTP",
    "upgrade": "FTTP_NA",
    "gnaf_pid": "GAWA_161575291",
    "tech_change_status": "Previous Tech Disconnected",
    "program_type": "On-Demand N2P SDU/MDU Simple",
    "target_eligibility_quarter": "NA"
   }
  },
  {
   "type": "Feature",
   "geometry": {
    "type": "Point",
    "coordinates": [
     115.80527487,
     -31.96937586
    ]
   },
   "properties": {
    "name": "LOT 3001 SMYTH ROAD KARRAKATTA 6010",
    "locID": "LOC000151978855",
    "tech": "HFC",
    "upgrade": "NULL_NA",
    "gnaf_pid": "GAWA_162586151"
   }
  },
  {
   "type": "Feature",
   "geometry": {
    "type": "Point",
    "coordinates": [
     115.79187273,
     -31.9585679
    ]
   },
   "properties": {
    "name": "LOT 11397 BROCKWAY ROAD KARRAKATTA 6010",
    "locID": "LOC000067597270",
    "tech": "FTTN",
    "upgrade": "FTTP_SA",
    "gnaf_pid": "GAWA_162770487",
    "tech_change_status": "Eligible To Order",
    "program_type": "On-Demand N2P SDU/MDU Simple",
    "target_eligibility_quarter": "NA"
   }
  },
  {
   "type": "Feature",
   "geometry": {
    "type": "Point",
    "coordinates": [
     115.79528684,
     -31.96278287
    ]
   },
   "properties": {
    "name": "245 STUBBS TERRACE KARRAKATTA 6010",
    "locID": "ChIJ43I6Xa6lMioRzkc1gXxV-Rg",
    "tech": "FTTB",
    "upgrade": "UNKNOWN",
    "gnaf_pid": "GAWA_718487121"
   }
  },
  {
   "type": "Feature",
   "geometry": {
    "type": "Point",
    "coordinates": [
     115.79722747,
     -31.96786173
    ]
   },
   "properties": {
    "name": "LOT 12793 RAILWAY ROAD KARRAKATTA 6010",
    "locID": "LOC000184254276",
    "tech": "FTTN",
    "upgrade": "NULL_NA",
    "gnaf_pid": "GAWA_718678553",
    "tech_change_status": "Not Planned"
   }
  },
  {
   "type": "Feature",
   "geometry": {
    "type": "Point",
    "coordinates": [
     115.79738485,
     -31.96800583
    ]
   },
   "properties": {
    "name": "LOT 300 RAILWAY ROAD KARRAKATTA 6010",
    "locID": "Ei0zMDAgUmFpbHdheSBSZCwgS2FycmFrYXR0YSBXQSA2MDEwLCBBdXN0cmFsaWEiMRIvChQKEgmBYLwrraUyKhFi0oHUzKUeRhCsAioUChIJi2UBqgelMioRNGKlSkwMfho",
    "tech": "FTTN",
    "upgrade": "UNKNOWN",
    "gnaf_pid": "GAWA_719201420"
   }
  },
  {
   "type": "Feature",
   "geometry": {
    "type": "Point",
    "coordinates": [
     115.79929331,
     -31.97058378
    ]
   },
   "properties": {
    "name": "500 RAILWAY ROAD KARRAKATTA 6010",
    "locID": "LOC000158979049",
    "tech": "FTTN",
    "upgrade": "FTTP_SA",
    "gnaf_pid": "GAWA_719969172",
    "tech_change_status": "Eligible To Order",
    "program_type": "On-Demand N2P SDU/MDU Simple",
    "target_eligibility_quarter": "NA"
   }
  }
 ]
}