{
 "type": "FeatureCollection",
 "generated": "2024-01-22T19:19:54.032069",
 "suburb": "KINGS PARK",
 "features": [
  {
   "type": "Feature",
   "geometry": {
    "type": "Point",
    "coordinates": [
     115.84472,
     -31.95592
    ]
   },
   "properties": {
    "name": "LOT 557 BELLEVUE TERRACE KINGS PARK 6005",
    "locID": "EixGcmFzZXIgQXZlbnVlLCBLaW5ncyBQYXJrIFdBIDYwMDUsIEF1c3RyYWxpYSIuKiwKFAoSCdlUS6kppTIqEdUO4Lvh3eeGEhQKEgk19Hl636QyKhGwSN81tfAEBQ",
    "tech": "FTTC",
    "upgrade": "UNKNOWN",
    "gnaf_pid": "GAWA_161526062"
   }
  },
  {
   "type": "Feature",
   "geometry": {
    "type": "Point",
    "coordinates": [
     115.84502,
     -31.95448
    ]
   },
   "properties": {
    "name": "LOT 556 CLIFF STREET KINGS PARK 6005",
    "locID": "LOC000092665997",
    "tech": "FTTC",
    "upgrade": "FTTP_NA",
    "gnaf_pid": "GAWA_161534464",
    "tech_change_status": "MDU Complex Eligible To Apply"
   }
  },
  {
   "type": "Feature",
   "geometry": {
    "type": "Point",
    "coordinates": [
     115.84141,
     -31.96375
    ]
   },
   "properties": {
    "name": "LOT 469 FRASER AVENUE KINGS PARK 6005",
    "locID": "EixGcmFzZXIgQXZlbnVlLCBLaW5ncyBQYXJrIFdBIDYwMDUsIEF1c3RyYWxpYSIuKiwKFAoSCdlUS6kppTIqEdUO4Lvh3eeGEhQKEgk19Hl636QyKhGwSN81tfAEBQ",
    "tech": "FTTC",
    "upgrade": "UNKNOWN",
    "gnaf_pid": "GAWA_161544956"
   }
  },
  {
   "type": "Feature",
   "geometry": {
    "type": "Point",
    "coordinates": [
     115.84499852,
     -31.95470663
    ]
   },
   "properties": {
    "name": "LOT 465 MOUNTS BAY ROAD KINGS PARK 6005",
    "locID": "EixGcmFzZXIgQXZlbnVlLCBLaW5ncyBQYXJrIFdBIDYwMDUsIEF1c3RyYWxpYSIuKiwKFAoSCdlUS6kppTIqEdUO4Lvh3eeGEhQKEgk19Hl636QyKhGwSN81tfAEBQ",
    "tech": "FTTC",
    "upgrade": "UNKNOWN",
    "gnaf_pid": "GAWA_161566688"
   }
  },
  {
   "type": "Feature",
   "geometry": {
    "type": "Point",
    "coordinates": [
     115.82172,
     -31.96468
    ]
   },
   "properties": {
    "name": "LOT 856 THOMAS STREET KINGS PARK 6005",
    "locID": "LOC000131901553",
    "tech": "HFC",
    "upgrade": "NULL_NA",
    "gnaf_pid": "GAWA_161585581"
   }
  },
  {
   "type": "Feature",
   "geometry": {
    "type": "Point",
    "coordinates": [
     115.83968117,
     -31.95457536
    ]
   },
   "properties": {
    "name": "21 KINGS PARK ROAD KINGS PARK 6005",
    "locID": "LOC000158100048",
    "tech": "FTTC",
    "upgrade": "FTTP_SA",
    "gnaf_pid": "GAWA_162642222",
    "tech_change_status": "Eligible To Order"
   }
  },
  {
   "type": "Feature",
   "geometry": {
    "type": "Point",
    "coordinates": [
     115.84464817,
     -31.95806155
    ]
   },
   "properties": {
    "name": "LOT 895 FRASER AVENUE KINGS PARK 6005",
    "locID": "EixGcmFzZXIgQXZlbnVlLCBLaW5ncyBQYXJrIFdBIDYwMDUsIEF1c3RyYWxpYSIuKiwKFAoSCdlUS6kppTIqEdUO4Lvh3eeGEhQKEgk19Hl636QyKhGwSN81tfAEBQ",
    "tech": "FTTC",
    "upgrade": "UNKNOWN",
    "gnaf_pid": "GAWA_162785303"
   }
  },
  {
   "type": "Feature",
   "geometry": {
    "type": "Point",
    "coordinates": [
     115.84180489,
     -31.96311403
    ]
   },
   "properties": {
    "name": "LOT 470 MOUNTS BAY ROAD KINGS PARK 6005",
    "locID": "EixGcmFzZXIgQXZlbnVlLCBLaW5ncyBQYXJrIFdBIDYwMDUsIEF1c3RyYWxpYSIuKiwKFAoSCdlUS6kppTIqEdUO4Lvh3eeGEhQKEgk19Hl636QyKhGwSN81tfAEBQ",
    "tech": "FTTC",
    "upgrade": "UNKNOWN",
    "gnaf_pid": "GAWA_162798938"
   }
  },
  {
   "type": "Feature",
   "geometry": {
    "type": "Point",
    "coordinates": [
     115.84547092,
     -31.95981836
    ]
   },
   "properties": {
    "name": "LOT 74 MOUNTS BAY ROAD KINGS PARK 6005",
    "locID": "EixGcmFzZXIgQXZlbnVlLCBLaW5ncyBQYXJrIFdBIDYwMDUsIEF1c3RyYWxpYSIuKiwKFAoSCdlUS6kppTIqEdUO4Lvh3eeGEhQKEgk19Hl636QyKhGwSN81tfAEBQ",
    "tech": "FTTC",
    "upgrade": "UNKNOWN",
    "gnaf_pid": "GAWA_162798939"
   }
  },
  {
   "type": "Feature",
   "geometry": {
    "type": "Point",
    "coordinates": [
     115.84323995,
     -31.95957071
    ]
   },
   "properties": {
    "name": "LOT 786 MOUNTS BAY ROAD KINGS PARK 6005",
    "locID": "EixGcmFzZXIgQXZlbnVlLCBLaW5ncyBQYXJrIFdBIDYwMDUsIEF1c3RyYWxpYSIuKiwKFAoSCdlUS6kppTIqEdUO4Lvh3eeGEhQKEgk19Hl636QyKhGwSN81tfAEBQ",
    "tech": "FTTC",
    "upgrade": "UNKNOWN",
    "gnaf_pid": "GAWA_162798941"
   }
  },
  {
   "type": "Feature",
   "geometry": {
    "type": "Point",
    "coordinates": [
     115.83124361,
     -31.96265266
    ]
   },
   "properties": {
    "name": "2 FRASER AVENUE KINGS PARK 6005",
    "locID": "LOC000157816123",
    "tech": "FTTC",
    "upgrade": "FTTP_NA",
    "gnaf_pid": "GAWA_718755692",
    "tech_change_status": "MDU Complex Eligible To Apply"
   }
  },
  {
   "type": "Feature",
   "geometry": {
    "type": "Point",
    "coordinates": [
     115.83124361,
     -31.96265266
    ]
   },
   "properties": {
    "name": "55 FRASER AVENUE KINGS PARK 6005",
    "locID": "ChIJdSkxnN-kMioRFCJuhbI3lq8",
    "tech": "FTTC",
    "upgrade": "UNKNOWN",
    "gnaf_pid": "GAWA_718755693"
   }
  },
  {
   "type": "Feature",
   "geometry": {
    "type": "Point",
    "coordinates": [
     115.84345234,
     -31.95981712
    ]
   },
   "properties": {
    "name": "60 FRASER AVENUE KINGS PARK 6005",
    "locID": "LOC000151983384",
    "tech": "FTTC",
    "upgrade": "FTTP_SA",
    "gnaf_pid": "GAWA_718755694",
    "tech_change_status": "Eligible To Order"
   }
  },
  {
   "type": "Feature",
   "geometry": {
    "type": "Point",
    "coordinates": [
     115.84345234,
     -31.95981712
    ]
   },
   "properties": {
    "name": "62 FRASER AVENUE KINGS PARK 6005",
    "locID": "ChIJnf7uMtakMioROkNYtExOVy0",
    "tech": "FTTC",
    "upgrade": "UNKNOWN",
    "gnaf_pid": "GAWA_718755695"
   }
  },
  {
   "type": "Feature",
   "geometry": {
    "type": "Point",
    "coordinates": [
     115.84345234,
     -31.95981712
    ]
   },
   "properties": {
    "name": "64 FRASER AVENUE KINGS PARK 6005",
    "locID": "ChIJQZh8M9akMioRoAikH8-ALcI",
    "tech": "FTTC",
    "upgrade": "UNKNOWN",
    "gnaf_pid": "GAWA_718755696"
   }
  },
  {
   "type": "Feature",
   "geometry": {
    "type": "Point",
    "coordinates": [
     115.84345234,
     -31.95981712
    ]
   },
   "properties": {
    "name": "66 FRASER AVENUE KINGS PARK 6005",
    "locID": "ChIJnf7uMtakMioRSvBue6F04KM",
    "tech": "FTTC",
    "upgrade": "UNKNOWN",
    "gnaf_pid": "GAWA_718755697"
   }
  },
  {
   "type": "Feature",
   "geometry": {
    "type": "Point",
    "coordinates": [
     115.84345234,
     -31.95981712
    ]
   },
   "properties": {
    "name": "68 FRASER AVENUE KINGS PARK 6005",
    "locID": "ChIJhT4Qy9ekMioRZCwwQvPFJYY",
    "tech": "FTTC",
    "upgrade": "UNKNOWN",
    "gnaf_pid": "GAWA_718755698"
   }
  },
  {
   "type": "Feature",
   "geometry": {
    "type": "Point",
    "coordinates": [
     115.83124361,
     -31.96265266
    ]
   },
   "properties": {
    "name": "1 KATTIDJ CLOSE KINGS PARK 6005",
    "locID": "LOC000188364062",
    "tech": "FTTC",
    "upgrade": "FTTP_NA",
    "gnaf_pid": "GAWA_718756656",
    "tech_change_status": "MDU Complex Eligible To Apply"
   }
  },
  {
   "type": "Feature",
   "geometry": {
    "type": "Point",
    "coordinates": [
     115.83124361,
     -31.96265266
    ]
   },
   "properties": {
    "name": "2 KATTIDJ CLOSE KINGS PARK 6005",
    "locID": "ChIJMfy8ZK6lMioRQ3JcxZcdBYw",
    "tech": "FTTC",
    "upgrade": "UNKNOWN",
    "gnaf_pid": "GAWA_718756657"
   }
  },
  {
   "type": "Feature",
   "geometry": {
    "type": "Point",
    "coordinates": [
     115.83124361,
     -31.96265266
    ]
   },
   "properties": {
    "name": "4 KATTIDJ CLOSE KINGS PARK 6005",
    "locID": "LOC000151978608",
    "tech": "FTTC",
    "upgrade": "NULL_NA",
    "gnaf_pid": "GAWA_718756658"
   }
  },
  {
   "type": "Feature",
   "geometry": {
    "type": "Point",
    "coordinates": [
     115.83124361,
     -31.96265266
    ]
   },
   "properties": {
    "name": "10 KULUNGA GROVE KINGS PARK 6005",
    "locID": "ChIJdSkxnN-kMioR_5cRG2WhV6A",
    "tech": "FTTC",
    "upgrade": "UNKNOWN",
    "gnaf_pid": "GAWA_718756884"
   }
  },
  {
   "type": "Feature",
   "geometry": {
    "type": "Point",
    "coordinates": [
     115.83124361,
     -31.96265266
    ]
   },
   "properties": {
    "name": "20 LOVEKIN DRIVE KINGS PARK 6005",
    "locID": "ChIJdSkxnN-kMioRs7s9UKsY4Xs",
    "tech": "FTTC",
    "upgrade": "UNKNOWN",
    "gnaf_pid": "GAWA_718757186"
   }
  },
  {
   "type": "Feature",
   "geometry": {
    "type": "Point",
    "coordinates": [
     115.83124361,
     -31.96265266
    ]
   },
   "properties": {
    "name": "50 MAY DRIVE KINGS PARK 6005",
    "locID": "LOC000151978581",
    "tech": "HFC",
    "upgrade": "NULL_NA",
    "gnaf_pid": "GAWA_718757420"
   }
  },
  {
   "type": "Feature",
   "geometry": {
    "type": "Point",
    "coordinates": [
     115.83124361,
     -31.96265266
    ]
   },
   "properties": {
    "name": "54 MAY DRIVE KINGS PARK 6005",
    "locID": "ChIJdSkxnN-kMioRrHEmWzr5grU",
    "tech": "FTTC",
    "upgrade": "UNKNOWN",
    "gnaf_pid": "GAWA_718757421"
   }
  },
  {
   "type": "Feature",
   "geometry": {
    "type": "Point",
    "coordinates": [
     115.83124361,
     -31.96265266
    ]
   },
   "properties": {
    "name": "70 PARK AVENUE KINGS PARK 6005",
    "locID": "LOC000151978631",
    "tech": "HFC",
    "upgrade": "NULL_NA",
    "gnaf_pid": "GAWA_718758136"
   }
  },
  {
   "type": "Feature",
   "geometry": {
    "type": "Point",
    "coordinates": [
     115.83124361,
     -31.96265266
    ]
   },
   "properties": {
    "name": "5 SAW AVENUE KINGS PARK 6005",
    "locID": "ChIJdSkxnN-kMioRRuL87BifapM",
    "tech": "FTTC",
    "upgrade": "UNKNOWN",
    "gnaf_pid": "GAWA_718758876"
   }
  }
 ]
}