{
 "type": "FeatureCollection",
 "generated": "2024-08-18T07:42:42.279638",
 "suburb": "KINGS PARK",
 "features": [
  {
   "type": "Feature",
   "geometry": {
    "type": "Point",
    "coordinates": [
     115.84502,
     -31.95448
    ]
   },
   "properties": {
    "name": "LOT 556 CLIFF STREET KINGS PARK 6005",
    "locID": "LOC000092665997",
    "tech": "FTTC",
    "upgrade": "FTTP_NA",
    "gnaf_pid": "GAWA_161534464",
    "tech_change_status": "MDU Complex Eligible To Apply"
   }
  },
  {
   "type": "Feature",
   "geometry": {
    "type": "Point",
    "coordinates": [
     115.82172,
     -31.96468
    ]
   },
   "properties": {
    "name": "LOT 856 THOMAS STREET KINGS PARK 6005",
    "locID": "LOC000131901553",
    "tech": "HFC",
    "upgrade": "NULL_NA",
    "gnaf_pid": "GAWA_161585581"
   }
  },
  {
   "type": "Feature",
   "geometry": {
    "type": "Point",
    "coordinates": [
     115.83968117,
     -31.95457536
    ]
   },
   "properties": {
    "name": "21 KINGS PARK ROAD KINGS PARK 6005",
    "locID": "LOC000158100048",
    "tech": "FTTC",
    "upgrade": "FTTP_SA",
    "gnaf_pid": "GAWA_162642222",
    "tech_change_status": "Eligible to Order"
   }
  },
  {
   "type": "Feature",
   "geometry": {
    "type": "Point",
    "coordinates": [
     115.83124361,
     -31.96265266
    ]
   },
   "properties": {
    "name": "2 FRASER AVENUE KINGS PARK 6005",
    "locID": "LOC000157816123",
    "tech": "FTTC",
    "upgrade": "FTTP_NA",
    "gnaf_pid": "GAWA_718755692",
    "tech_change_status": "MDU Complex Eligible To Apply"
   }
  },
  {
   "type": "Feature",
   "geometry": {
    "type": "Point",
    "coordinates": [
     115.84345234,
     -31.95981712
    ]
   },
   "properties": {
    "name": "60 FRASER AVENUE KINGS PARK 6005",
    "locID": "LOC000151983384",
    "tech": "FTTC",
    "upgrade": "FTTP_SA",
    "gnaf_pid": "GAWA_718755694",
    "tech_change_status": "Eligible to Order"
   }
  },
  {
   "type": "Feature",
   "geometry": {
    "type": "Point",
    "coordinates": [
     115.83124361,
     -31.96265266
    ]
   },
   "properties": {
    "name": "1 KATTIDJ CLOSE KINGS PARK 6005",
    "locID": "LOC000188364062",
    "tech": "FTTC",
    "upgrade": "FTTP_NA",
    "gnaf_pid": "GAWA_718756656",
    "tech_change_status": "MDU Complex Eligible To Apply"
   }
  },
  {
   "type": "Feature",
   "geometry": {
    "type": "Point",
    "coordinates": [
     115.83124361,
     -31.96265266
    ]
   },
   "properties": {
    "name": "4 KATTIDJ CLOSE KINGS PARK 6005",
    "locID": "LOC000151978608",
    "tech": "FTTC",
    "upgrade": "NULL_NA",
    "gnaf_pid": "GAWA_718756658"
   }
  },
  {
   "type": "Feature",
   "geometry": {
    "type": "Point",
    "coordinates": [
     115.83124361,
     -31.96265266
    ]
   },
   "properties": {
    "name": "50 MAY DRIVE KINGS PARK 6005",
    "locID": "LOC000151978581",
    "tech": "HFC",
    "upgrade": "NULL_NA",
    "gnaf_pid": "GAWA_718757420"
   }
  },
  {
   "type": "Feature",
   "geometry": {
    "type": "Point",
    "coordinates": [
     115.83124361,
     -31.96265266
    ]
   },
   "properties": {
    "name": "70 PARK AVENUE KINGS PARK 6005",
    "locID": "LOC000151978631",
    "tech": "HFC",
    "upgrade": "NULL_NA",
    "gnaf_pid": "GAWA_718758136"
   }
  }
 ]
}