{
 "type": "FeatureCollection",
 "generated": "2024-08-18T07:44:01.763494",
 "suburb": "KIRK ROCK",
 "features": [
  {
   "type": "Feature",
   "geometry": {
    "type": "Point",
    "coordinates": [
     117.72413482,
     -32.64441941
    ]
   },
   "properties": {
    "name": "84 KIRK ROCK ROAD KIRK ROCK 6372",
    "locID": "LOC000103574603",
    "tech": "SATELLITE",
    "upgrade": "NULL_NA",
    "gnaf_pid": "GAWA_149097567",
    "tech_change_status": "Not Planned"
   }
  },
  {
   "type": "Feature",
   "geometry": {
    "type": "Point",
    "coordinates": [
     117.78513426,
     -32.60191012
    ]
   },
   "properties": {
    "name": "644 YEALERING-KULIN ROAD KIRK ROCK 6372",
    "locID": "LOC000034553817",
    "tech": "SATELLITE",
    "upgrade": "NULL_NA",
    "gnaf_pid": "GAWA_161932548",
    "tech_change_status": "Not Planned"
   }
  },
  {
   "type": "Feature",
   "geometry": {
    "type": "Point",
    "coordinates": [
     117.84076045,
     -32.62418024
    ]
   },
   "properties": {
    "name": "3216 RABBIT PROOF FENCE ROAD KIRK ROCK 6372",
    "locID": "LOC000012795791",
    "tech": "SATELLITE",
    "upgrade": "NULL_NA",
    "gnaf_pid": "GAWA_163053080",
    "tech_change_status": "Not Planned"
   }
  },
  {
   "type": "Feature",
   "geometry": {
    "type": "Point",
    "coordinates": [
     117.77740837,
     -32.70397375
    ]
   },
   "properties": {
    "name": "417 EIGHTY FOUR GATE ROAD KIRK ROCK 6372",
    "locID": "LOC000060007580",
    "tech": "SATELLITE",
    "upgrade": "NULL_NA",
    "gnaf_pid": "GAWA_163239741",
    "tech_change_status": "Not Planned"
   }
  },
  {
   "type": "Feature",
   "geometry": {
    "type": "Point",
    "coordinates": [
     117.83772402,
     -32.70418183
    ]
   },
   "properties": {
    "name": "899 EIGHTY FOUR GATE ROAD KIRK ROCK 6372",
    "locID": "LOC000089215187",
    "tech": "SATELLITE",
    "upgrade": "NULL_NA",
    "gnaf_pid": "GAWA_163239742",
    "tech_change_status": "Not Planned"
   }
  },
  {
   "type": "Feature",
   "geometry": {
    "type": "Point",
    "coordinates": [
     117.78665034,
     -32.66563711
    ]
   },
   "properties": {
    "name": "508 ELSON ROAD KIRK ROCK 6372",
    "locID": "LOC000043078409",
    "tech": "SATELLITE",
    "upgrade": "NULL_NA",
    "gnaf_pid": "GAWA_163239775",
    "tech_change_status": "Not Planned"
   }
  },
  {
   "type": "Feature",
   "geometry": {
    "type": "Point",
    "coordinates": [
     117.83299462,
     -32.65332711
    ]
   },
   "properties": {
    "name": "942 ELSON ROAD KIRK ROCK 6372",
    "locID": "LOC000039155078",
    "tech": "SATELLITE",
    "upgrade": "NULL_NA",
    "gnaf_pid": "GAWA_163239777",
    "tech_change_status": "Not Planned"
   }
  },
  {
   "type": "Feature",
   "geometry": {
    "type": "Point",
    "coordinates": [
     117.74337,
     -32.6412905
    ]
   },
   "properties": {
    "name": "1632 KIRK ROCK ROAD KIRK ROCK 6372",
    "locID": "LOC000032348501",
    "tech": "SATELLITE",
    "upgrade": "NULL_NA",
    "gnaf_pid": "GAWA_163241525",
    "tech_change_status": "Not Planned"
   }
  },
  {
   "type": "Feature",
   "geometry": {
    "type": "Point",
    "coordinates": [
     117.73869648,
     -32.62835074
    ]
   },
   "properties": {
    "name": "1683 KIRK ROCK ROAD KIRK ROCK 6372",
    "locID": "LOC000103574603",
    "tech": "SATELLITE",
    "upgrade": "NULL_NA",
    "gnaf_pid": "GAWA_163241527",
    "tech_change_status": "Not Planned"
   }
  },
  {
   "type": "Feature",
   "geometry": {
    "type": "Point",
    "coordinates": [
     117.76309196,
     -32.61842688
    ]
   },
   "properties": {
    "name": "1912 KIRK ROCK ROAD KIRK ROCK 6372",
    "locID": "LOC000013598501",
    "tech": "SATELLITE",
    "upgrade": "NULL_NA",
    "gnaf_pid": "GAWA_163241528",
    "tech_change_status": "Not Planned"
   }
  },
  {
   "type": "Feature",
   "geometry": {
    "type": "Point",
    "coordinates": [
     117.81462647,
     -32.7031576
    ]
   },
   "properties": {
    "name": "910 SPRIGG ROAD KIRK ROCK 6372",
    "locID": "LOC000045214361",
    "tech": "SATELLITE",
    "upgrade": "NULL_NA",
    "gnaf_pid": "GAWA_163243914",
    "tech_change_status": "Not Planned"
   }
  },
  {
   "type": "Feature",
   "geometry": {
    "type": "Point",
    "coordinates": [
     117.70957393,
     -32.69305812
    ]
   },
   "properties": {
    "name": "319 RICH ROAD KIRK ROCK 6372",
    "locID": "LOC000022889711",
    "tech": "SATELLITE",
    "upgrade": "NULL_NA",
    "gnaf_pid": "GAWA_163247400",
    "tech_change_status": "Not Planned"
   }
  }
 ]
}