{
 "type": "FeatureCollection",
 "generated": "2024-01-22T19:22:29.602101",
 "suburb": "KIRK ROCK",
 "features": [
  {
   "type": "Feature",
   "geometry": {
    "type": "Point",
    "coordinates": [
     117.72413482,
     -32.64441941
    ]
   },
   "properties": {
    "name": "84 KIRK ROCK ROAD KIRK ROCK 6372",
    "locID": "LOC000103574603",
    "tech": "SATELLITE",
    "upgrade": "NULL_NA",
    "gnaf_pid": "GAWA_149097567"
   }
  },
  {
   "type": "Feature",
   "geometry": {
    "type": "Point",
    "coordinates": [
     117.72413482,
     -32.64441941
    ]
   },
   "properties": {
    "name": "13267 KIRK ROCK ROAD KIRK ROCK 6372",
    "locID": "ChIJ5-8foMInNCoRx66LgsvsDvw",
    "tech": "SATELLITE",
    "upgrade": "UNKNOWN",
    "gnaf_pid": "GAWA_149097568"
   }
  },
  {
   "type": "Feature",
   "geometry": {
    "type": "Point",
    "coordinates": [
     117.80122308,
     -32.70703918
    ]
   },
   "properties": {
    "name": "7315 EIGHTY FOUR GATE ROAD KIRK ROCK 6372",
    "locID": "ChIJmxU40r2DNioRSE2ESIJi_dk",
    "tech": "SATELLITE",
    "upgrade": "UNKNOWN",
    "gnaf_pid": "GAWA_149097569"
   }
  },
  {
   "type": "Feature",
   "geometry": {
    "type": "Point",
    "coordinates": [
     117.78513426,
     -32.60191012
    ]
   },
   "properties": {
    "name": "644 YEALERING-KULIN ROAD KIRK ROCK 6372",
    "locID": "LOC000034553817",
    "tech": "SATELLITE",
    "upgrade": "NULL_NA",
    "gnaf_pid": "GAWA_161932548"
   }
  },
  {
   "type": "Feature",
   "geometry": {
    "type": "Point",
    "coordinates": [
     117.84076045,
     -32.62418024
    ]
   },
   "properties": {
    "name": "3216 RABBIT PROOF FENCE ROAD KIRK ROCK 6372",
    "locID": "LOC000012795791",
    "tech": "SATELLITE",
    "upgrade": "NULL_NA",
    "gnaf_pid": "GAWA_163053080"
   }
  },
  {
   "type": "Feature",
   "geometry": {
    "type": "Point",
    "coordinates": [
     117.77740837,
     -32.70397375
    ]
   },
   "properties": {
    "name": "417 EIGHTY FOUR GATE ROAD KIRK ROCK 6372",
    "locID": "LOC000060007580",
    "tech": "SATELLITE",
    "upgrade": "NULL_NA",
    "gnaf_pid": "GAWA_163239741"
   }
  },
  {
   "type": "Feature",
   "geometry": {
    "type": "Point",
    "coordinates": [
     117.83772402,
     -32.70418183
    ]
   },
   "properties": {
    "name": "899 EIGHTY FOUR GATE ROAD KIRK ROCK 6372",
    "locID": "LOC000089215187",
    "tech": "SATELLITE",
    "upgrade": "NULL_NA",
    "gnaf_pid": "GAWA_163239742"
   }
  },
  {
   "type": "Feature",
   "geometry": {
    "type": "Point",
    "coordinates": [
     117.78665034,
     -32.66563711
    ]
   },
   "properties": {
    "name": "508 ELSON ROAD KIRK ROCK 6372",
    "locID": "LOC000043078409",
    "tech": "SATELLITE",
    "upgrade": "NULL_NA",
    "gnaf_pid": "GAWA_163239775"
   }
  },
  {
   "type": "Feature",
   "geometry": {
    "type": "Point",
    "coordinates": [
     117.74339355,
     -32.65546579
    ]
   },
   "properties": {
    "name": "60 ELSON ROAD KIRK ROCK 6372",
    "locID": "ChIJJ6WJAAQoNCoRs0oTFcUi0ck",
    "tech": "SATELLITE",
    "upgrade": "UNKNOWN",
    "gnaf_pid": "GAWA_163239776"
   }
  },
  {
   "type": "Feature",
   "geometry": {
    "type": "Point",
    "coordinates": [
     117.83299462,
     -32.65332711
    ]
   },
   "properties": {
    "name": "942 ELSON ROAD KIRK ROCK 6372",
    "locID": "LOC000039155078",
    "tech": "SATELLITE",
    "upgrade": "NULL_NA",
    "gnaf_pid": "GAWA_163239777"
   }
  },
  {
   "type": "Feature",
   "geometry": {
    "type": "Point",
    "coordinates": [
     117.74337,
     -32.6412905
    ]
   },
   "properties": {
    "name": "1632 KIRK ROCK ROAD KIRK ROCK 6372",
    "locID": "LOC000032348501",
    "tech": "SATELLITE",
    "upgrade": "NULL_NA",
    "gnaf_pid": "GAWA_163241525"
   }
  },
  {
   "type": "Feature",
   "geometry": {
    "type": "Point",
    "coordinates": [
     117.74518059,
     -32.63043942
    ]
   },
   "properties": {
    "name": "1682 KIRK ROCK ROAD KIRK ROCK 6372",
    "locID": "ChIJQ2bm7HAoNCoRf-8QhAfJ08I",
    "tech": "SATELLITE",
    "upgrade": "UNKNOWN",
    "gnaf_pid": "GAWA_163241526"
   }
  },
  {
   "type": "Feature",
   "geometry": {
    "type": "Point",
    "coordinates": [
     117.73869648,
     -32.62835074
    ]
   },
   "properties": {
    "name": "1683 KIRK ROCK ROAD KIRK ROCK 6372",
    "locID": "LOC000103574603",
    "tech": "SATELLITE",
    "upgrade": "NULL_NA",
    "gnaf_pid": "GAWA_163241527"
   }
  },
  {
   "type": "Feature",
   "geometry": {
    "type": "Point",
    "coordinates": [
     117.76309196,
     -32.61842688
    ]
   },
   "properties": {
    "name": "1912 KIRK ROCK ROAD KIRK ROCK 6372",
    "locID": "LOC000013598501",
    "tech": "SATELLITE",
    "upgrade": "NULL_NA",
    "gnaf_pid": "GAWA_163241528"
   }
  },
  {
   "type": "Feature",
   "geometry": {
    "type": "Point",
    "coordinates": [
     117.81462647,
     -32.7031576
    ]
   },
   "properties": {
    "name": "910 SPRIGG ROAD KIRK ROCK 6372",
    "locID": "LOC000045214361",
    "tech": "SATELLITE",
    "upgrade": "NULL_NA",
    "gnaf_pid": "GAWA_163243914"
   }
  },
  {
   "type": "Feature",
   "geometry": {
    "type": "Point",
    "coordinates": [
     117.68126098,
     -32.67416234
    ]
   },
   "properties": {
    "name": "215 TURNER ROAD KIRK ROCK 6372",
    "locID": "ChIJzaVhC30nNCoRe3JGmPetjmU",
    "tech": "SATELLITE",
    "upgrade": "UNKNOWN",
    "gnaf_pid": "GAWA_163244459"
   }
  },
  {
   "type": "Feature",
   "geometry": {
    "type": "Point",
    "coordinates": [
     117.70065944,
     -32.61995214
    ]
   },
   "properties": {
    "name": "648 YEALERING SOUTH EAST ROAD KIRK ROCK 6372",
    "locID": "ChIJSwIqa1AmNCoRMnu9bKhe6bY",
    "tech": "SATELLITE",
    "upgrade": "UNKNOWN",
    "gnaf_pid": "GAWA_163245063"
   }
  },
  {
   "type": "Feature",
   "geometry": {
    "type": "Point",
    "coordinates": [
     117.70957393,
     -32.69305812
    ]
   },
   "properties": {
    "name": "319 RICH ROAD KIRK ROCK 6372",
    "locID": "LOC000022889711",
    "tech": "SATELLITE",
    "upgrade": "NULL_NA",
    "gnaf_pid": "GAWA_163247400"
   }
  },
  {
   "type": "Feature",
   "geometry": {
    "type": "Point",
    "coordinates": [
     117.76510113,
     -32.65307022
    ]
   },
   "properties": {
    "name": "21841 RABBIT PROOF FENCE ROAD KIRK ROCK 6372",
    "locID": "ChIJQyxm4CAoNCoRmUEksxT31hc",
    "tech": "SATELLITE",
    "upgrade": "UNKNOWN",
    "gnaf_pid": "GAWA_163391914"
   }
  }
 ]
}