{
 "type": "FeatureCollection",
 "generated": "2023-11-12T14:36:37.803270",
 "suburb": "KOOLANOOKA",
 "features": [
  {
   "type": "Feature",
   "geometry": {
    "type": "Point",
    "coordinates": [
     116.13167384,
     -29.25945413
    ]
   },
   "properties": {
    "name": "168 BAXTER ROAD KOOLANOOKA 6623",
    "locID": "LOC000059316935",
    "tech": "SATELLITE",
    "upgrade": "NULL_NA",
    "gnaf_pid": "GAWA_162241596"
   }
  },
  {
   "type": "Feature",
   "geometry": {
    "type": "Point",
    "coordinates": [
     116.108029,
     -29.215981
    ]
   },
   "properties": {
    "name": "1031 JONES LAKE ROAD KOOLANOOKA 6623",
    "locID": "LOC000007899981",
    "tech": "SATELLITE",
    "upgrade": "NULL_NA",
    "gnaf_pid": "GAWA_162246208"
   }
  },
  {
   "type": "Feature",
   "geometry": {
    "type": "Point",
    "coordinates": [
     116.11445,
     -29.235075
    ]
   },
   "properties": {
    "name": "1048 JONES LAKE ROAD KOOLANOOKA 6623",
    "locID": "LOC000055159750",
    "tech": "SATELLITE",
    "upgrade": "NULL_NA",
    "gnaf_pid": "GAWA_162246209"
   }
  },
  {
   "type": "Feature",
   "geometry": {
    "type": "Point",
    "coordinates": [
     116.072326,
     -29.252777
    ]
   },
   "properties": {
    "name": "628 JONES LAKE ROAD KOOLANOOKA 6623",
    "locID": "LOC000037948116",
    "tech": "SATELLITE",
    "upgrade": "NULL_NA",
    "gnaf_pid": "GAWA_162246210"
   }
  },
  {
   "type": "Feature",
   "geometry": {
    "type": "Point",
    "coordinates": [
     116.17221,
     -29.221937
    ]
   },
   "properties": {
    "name": "174 JUDGE ROAD KOOLANOOKA 6623",
    "locID": "LOC000005639627",
    "tech": "SATELLITE",
    "upgrade": "NULL_NA",
    "gnaf_pid": "GAWA_162246238"
   }
  },
  {
   "type": "Feature",
   "geometry": {
    "type": "Point",
    "coordinates": [
     116.063116,
     -29.314782
    ]
   },
   "properties": {
    "name": "506 KOOLANOOKA SOUTH ROAD KOOLANOOKA 6623",
    "locID": "LOC000092606127",
    "tech": "SATELLITE",
    "upgrade": "NULL_NA",
    "gnaf_pid": "GAWA_162246545"
   }
  },
  {
   "type": "Feature",
   "geometry": {
    "type": "Point",
    "coordinates": [
     116.085611,
     -29.313878
    ]
   },
   "properties": {
    "name": "515 KOOLANOOKA SOUTH ROAD KOOLANOOKA 6623",
    "locID": "LOC000012878067",
    "tech": "SATELLITE",
    "upgrade": "NULL_NA",
    "gnaf_pid": "GAWA_162246546"
   }
  },
  {
   "type": "Feature",
   "geometry": {
    "type": "Point",
    "coordinates": [
     116.20213,
     -29.217707
    ]
   },
   "properties": {
    "name": "148 KOOLANOOKA SPRING ROAD KOOLANOOKA 6623",
    "locID": "LOC000084114683",
    "tech": "SATELLITE",
    "upgrade": "NULL_NA",
    "gnaf_pid": "GAWA_162246547"
   }
  },
  {
   "type": "Feature",
   "geometry": {
    "type": "Point",
    "coordinates": [
     116.260421,
     -29.211976
    ]
   },
   "properties": {
    "name": "772 KOOLANOOKA SPRING ROAD KOOLANOOKA 6623",
    "locID": "LOC000104218824",
    "tech": "SATELLITE",
    "upgrade": "NULL_NA",
    "gnaf_pid": "GAWA_162246548"
   }
  },
  {
   "type": "Feature",
   "geometry": {
    "type": "Point",
    "coordinates": [
     116.15999341,
     -29.12809929
    ]
   },
   "properties": {
    "name": "438 KRUMMEL ROAD KOOLANOOKA 6623",
    "locID": "ChIJKQu5BsCRzysRdi5LGPjXhGo",
    "tech": "SATELLITE",
    "upgrade": "UNKNOWN",
    "gnaf_pid": "GAWA_162246615"
   }
  },
  {
   "type": "Feature",
   "geometry": {
    "type": "Point",
    "coordinates": [
     116.23177807,
     -29.26821339
    ]
   },
   "properties": {
    "name": "451 LOCHADA ROAD KOOLANOOKA 6623",
    "locID": "LOC000089832341",
    "tech": "SATELLITE",
    "upgrade": "NULL_NA",
    "gnaf_pid": "GAWA_162247001"
   }
  },
  {
   "type": "Feature",
   "geometry": {
    "type": "Point",
    "coordinates": [
     116.020258,
     -29.314758
    ]
   },
   "properties": {
    "name": "683 MORAWA SOUTH ROAD KOOLANOOKA 6623",
    "locID": "LOC000070814792",
    "tech": "SATELLITE",
    "upgrade": "NULL_NA",
    "gnaf_pid": "GAWA_162247838"
   }
  },
  {
   "type": "Feature",
   "geometry": {
    "type": "Point",
    "coordinates": [
     116.048208,
     -29.2701
    ]
   },
   "properties": {
    "name": "10494 MULLEWA-WUBIN ROAD KOOLANOOKA 6623",
    "locID": "LOC000105283938",
    "tech": "SATELLITE",
    "upgrade": "NULL_NA",
    "gnaf_pid": "GAWA_162247971"
   }
  },
  {
   "type": "Feature",
   "geometry": {
    "type": "Point",
    "coordinates": [
     116.060819,
     -29.278137
    ]
   },
   "properties": {
    "name": "10640 MULLEWA-WUBIN ROAD KOOLANOOKA 6623",
    "locID": "LOC000095787974",
    "tech": "SATELLITE",
    "upgrade": "NULL_NA",
    "gnaf_pid": "GAWA_162247972"
   }
  },
  {
   "type": "Feature",
   "geometry": {
    "type": "Point",
    "coordinates": [
     116.10108871,
     -29.27654247
    ]
   },
   "properties": {
    "name": "10929 MULLEWA-WUBIN ROAD KOOLANOOKA 6623",
    "locID": "LOC000033825023",
    "tech": "SATELLITE",
    "upgrade": "NULL_NA",
    "gnaf_pid": "GAWA_162247973"
   }
  },
  {
   "type": "Feature",
   "geometry": {
    "type": "Point",
    "coordinates": [
     116.171703,
     -29.192576
    ]
   },
   "properties": {
    "name": "1263 MUNCKTON ROAD KOOLANOOKA 6623",
    "locID": "LOC000006174551",
    "tech": "SATELLITE",
    "upgrade": "NULL_NA",
    "gnaf_pid": "GAWA_162247984"
   }
  },
  {
   "type": "Feature",
   "geometry": {
    "type": "Point",
    "coordinates": [
     116.15036938,
     -29.27711332
    ]
   },
   "properties": {
    "name": "622 NORTON ROAD KOOLANOOKA 6623",
    "locID": "LOC000010624563",
    "tech": "SATELLITE",
    "upgrade": "NULL_NA",
    "gnaf_pid": "GAWA_162248271"
   }
  },
  {
   "type": "Feature",
   "geometry": {
    "type": "Point",
    "coordinates": [
     116.0099024,
     -29.29657602
    ]
   },
   "properties": {
    "name": "650 MORAWA SOUTH ROAD KOOLANOOKA 6623",
    "locID": "ChIJRTkhEZHqzysRWdVa3frjYW0",
    "tech": "SATELLITE",
    "upgrade": "UNKNOWN",
    "gnaf_pid": "GAWA_163206566"
   }
  }
 ]
}