{
 "type": "FeatureCollection",
 "generated": "2024-08-18T08:06:12.809783",
 "suburb": "KURRENKUTTEN",
 "features": [
  {
   "type": "Feature",
   "geometry": {
    "type": "Point",
    "coordinates": [
     118.07123436,
     -32.34979057
    ]
   },
   "properties": {
    "name": "1724 BENDERING ROAD KURRENKUTTEN 6375",
    "locID": "LOC000011530603",
    "tech": "SATELLITE",
    "upgrade": "NULL_NA",
    "gnaf_pid": "GAWA_161922443",
    "tech_change_status": "Not Planned"
   }
  },
  {
   "type": "Feature",
   "geometry": {
    "type": "Point",
    "coordinates": [
     118.08132517,
     -32.33162164
    ]
   },
   "properties": {
    "name": "1795 BENDERING ROAD KURRENKUTTEN 6375",
    "locID": "LOC000035641649",
    "tech": "SATELLITE",
    "upgrade": "NULL_NA",
    "gnaf_pid": "GAWA_161922444",
    "tech_change_status": "Not Planned"
   }
  },
  {
   "type": "Feature",
   "geometry": {
    "type": "Point",
    "coordinates": [
     118.10982751,
     -32.35544395
    ]
   },
   "properties": {
    "name": "2174 BENDERING ROAD KURRENKUTTEN 6375",
    "locID": "LOC000095806413",
    "tech": "SATELLITE",
    "upgrade": "NULL_NA",
    "gnaf_pid": "GAWA_161922445",
    "tech_change_status": "Not Planned"
   }
  },
  {
   "type": "Feature",
   "geometry": {
    "type": "Point",
    "coordinates": [
     118.051281,
     -32.254554
    ]
   },
   "properties": {
    "name": "4615 BRUCE ROCK-CORRIGIN ROAD KURRENKUTTEN 6375",
    "locID": "LOC000028741762",
    "tech": "SATELLITE",
    "upgrade": "NULL_NA",
    "gnaf_pid": "GAWA_161922624",
    "tech_change_status": "Not Planned"
   }
  },
  {
   "type": "Feature",
   "geometry": {
    "type": "Point",
    "coordinates": [
     118.09788871,
     -32.24424578
    ]
   },
   "properties": {
    "name": "240 CORRIGIN-NAREMBEEN ROAD KURRENKUTTEN 6375",
    "locID": "LOC000069303741",
    "tech": "SATELLITE",
    "upgrade": "NULL_NA",
    "gnaf_pid": "GAWA_161923042",
    "tech_change_status": "Not Planned"
   }
  },
  {
   "type": "Feature",
   "geometry": {
    "type": "Point",
    "coordinates": [
     118.11727928,
     -32.24590205
    ]
   },
   "properties": {
    "name": "432 CORRIGIN-NAREMBEEN ROAD KURRENKUTTEN 6375",
    "locID": "LOC000038628084",
    "tech": "SATELLITE",
    "upgrade": "NULL_NA",
    "gnaf_pid": "GAWA_161923043",
    "tech_change_status": "Not Planned"
   }
  },
  {
   "type": "Feature",
   "geometry": {
    "type": "Point",
    "coordinates": [
     118.12816159,
     -32.24022534
    ]
   },
   "properties": {
    "name": "447 CORRIGIN-NAREMBEEN ROAD KURRENKUTTEN 6375",
    "locID": "LOC000065693965",
    "tech": "SATELLITE",
    "upgrade": "NULL_NA",
    "gnaf_pid": "GAWA_161923044",
    "tech_change_status": "Not Planned"
   }
  },
  {
   "type": "Feature",
   "geometry": {
    "type": "Point",
    "coordinates": [
     118.08127924,
     -32.23335166
    ]
   },
   "properties": {
    "name": "5 CORRIGIN-NAREMBEEN ROAD KURRENKUTTEN 6375",
    "locID": "LOC000142453262",
    "tech": "SATELLITE",
    "upgrade": "NULL_NA",
    "gnaf_pid": "GAWA_161923045",
    "tech_change_status": "Not Planned"
   }
  },
  {
   "type": "Feature",
   "geometry": {
    "type": "Point",
    "coordinates": [
     118.18874578,
     -32.26520357
    ]
   },
   "properties": {
    "name": "144 GEORGE ROAD KURRENKUTTEN 6375",
    "locID": "LOC000055591582",
    "tech": "SATELLITE",
    "upgrade": "NULL_NA",
    "gnaf_pid": "GAWA_161923522",
    "tech_change_status": "Not Planned"
   }
  },
  {
   "type": "Feature",
   "geometry": {
    "type": "Point",
    "coordinates": [
     118.14285487,
     -32.29049018
    ]
   },
   "properties": {
    "name": "599 MARTIN ROAD KURRENKUTTEN 6375",
    "locID": "LOC000054961913",
    "tech": "SATELLITE",
    "upgrade": "NULL_NA",
    "gnaf_pid": "GAWA_161924432",
    "tech_change_status": "Not Planned"
   }
  },
  {
   "type": "Feature",
   "geometry": {
    "type": "Point",
    "coordinates": [
     118.06812566,
     -32.30545025
    ]
   },
   "properties": {
    "name": "1799 NAMBADILLING ROAD KURRENKUTTEN 6375",
    "locID": "LOC000078923719",
    "tech": "SATELLITE",
    "upgrade": "NULL_NA",
    "gnaf_pid": "GAWA_161924730",
    "tech_change_status": "Not Planned"
   }
  },
  {
   "type": "Feature",
   "geometry": {
    "type": "Point",
    "coordinates": [
     118.11084771,
     -32.32131138
    ]
   },
   "properties": {
    "name": "2108 NAMBADILLING ROAD KURRENKUTTEN 6375",
    "locID": "LOC000020297008",
    "tech": "SATELLITE",
    "upgrade": "NULL_NA",
    "gnaf_pid": "GAWA_161924731",
    "tech_change_status": "Not Planned"
   }
  },
  {
   "type": "Feature",
   "geometry": {
    "type": "Point",
    "coordinates": [
     118.16075942,
     -32.30730995
    ]
   },
   "properties": {
    "name": "2635 NAMBADILLING ROAD KURRENKUTTEN 6375",
    "locID": "LOC000063775649",
    "tech": "SATELLITE",
    "upgrade": "NULL_NA",
    "gnaf_pid": "GAWA_161924732",
    "tech_change_status": "Not Planned"
   }
  },
  {
   "type": "Feature",
   "geometry": {
    "type": "Point",
    "coordinates": [
     118.17832348,
     -32.3289901
    ]
   },
   "properties": {
    "name": "2844 NAMBADILLING ROAD KURRENKUTTEN 6375",
    "locID": "LOC000073450889",
    "tech": "SATELLITE",
    "upgrade": "NULL_NA",
    "gnaf_pid": "GAWA_161924733",
    "tech_change_status": "Not Planned"
   }
  },
  {
   "type": "Feature",
   "geometry": {
    "type": "Point",
    "coordinates": [
     118.18740231,
     -32.34639181
    ]
   },
   "properties": {
    "name": "265 PRUDEN ROAD KURRENKUTTEN 6375",
    "locID": "LOC000074634231",
    "tech": "SATELLITE",
    "upgrade": "NULL_NA",
    "gnaf_pid": "GAWA_161925031",
    "tech_change_status": "Not Planned"
   }
  },
  {
   "type": "Feature",
   "geometry": {
    "type": "Point",
    "coordinates": [
     118.15523,
     -32.33971
    ]
   },
   "properties": {
    "name": "2441 BENDERING ROAD KURRENKUTTEN 6375",
    "locID": "LOC000080810857",
    "tech": "SATELLITE",
    "upgrade": "NULL_NA",
    "gnaf_pid": "GAWA_161989400",
    "tech_change_status": "Not Planned"
   }
  },
  {
   "type": "Feature",
   "geometry": {
    "type": "Point",
    "coordinates": [
     118.18874578,
     -32.26520357
    ]
   },
   "properties": {
    "name": "1128 CORRIGIN-NAREMBEEN ROAD KURRENKUTTEN 6375",
    "locID": "LOC000050210612",
    "tech": "SATELLITE",
    "upgrade": "NULL_NA",
    "gnaf_pid": "GAWA_161990445",
    "tech_change_status": "Not Planned"
   }
  },
  {
   "type": "Feature",
   "geometry": {
    "type": "Point",
    "coordinates": [
     118.13111797,
     -32.36024068
    ]
   },
   "properties": {
    "name": "2256 BENDERING ROAD KURRENKUTTEN 6375",
    "locID": "LOC000024469835",
    "tech": "SATELLITE",
    "upgrade": "NULL_NA",
    "gnaf_pid": "GAWA_161996331",
    "tech_change_status": "Not Planned"
   }
  },
  {
   "type": "Feature",
   "geometry": {
    "type": "Point",
    "coordinates": [
     118.0071182,
     -32.30242275
    ]
   },
   "properties": {
    "name": "196 PARSONS ROAD KURRENKUTTEN 6375",
    "locID": "LOC000033804624",
    "tech": "SATELLITE",
    "upgrade": "NULL_NA",
    "gnaf_pid": "GAWA_162644223",
    "tech_change_status": "Not Planned"
   }
  },
  {
   "type": "Feature",
   "geometry": {
    "type": "Point",
    "coordinates": [
     118.05972163,
     -32.2011815
    ]
   },
   "properties": {
    "name": "15466 BRANSON ROAD KURRENKUTTEN 6375",
    "locID": "LOC000147112930",
    "tech": "SATELLITE",
    "upgrade": "NULL_NA",
    "gnaf_pid": "GAWA_721202440",
    "tech_change_status": "Not Planned"
   }
  },
  {
   "type": "Feature",
   "geometry": {
    "type": "Point",
    "coordinates": [
     118.02966228,
     -32.2875909
    ]
   },
   "properties": {
    "name": "172 LARKES ROAD KURRENKUTTEN 6375",
    "locID": "LOC000142450633",
    "tech": "SATELLITE",
    "upgrade": "NULL_NA",
    "gnaf_pid": "GAWA_721407451",
    "tech_change_status": "Not Planned"
   }
  }
 ]
}