{
 "type": "FeatureCollection",
 "generated": "2024-09-06T12:30:44.969575",
 "suburb": "LAKE ARGYLE",
 "features": [
  {
   "type": "Feature",
   "geometry": {
    "type": "Point",
    "coordinates": [
     128.84359769,
     -16.03251585
    ]
   },
   "properties": {
    "name": "8 LAKE ARGYLE ROAD LAKE ARGYLE 6743",
    "locID": "LOC000142569231",
    "tech": "NULL",
    "upgrade": "NULL_NA",
    "gnaf_pid": "GAWA_147845548",
    "tech_change_status": "Not Planned"
   }
  },
  {
   "type": "Feature",
   "geometry": {
    "type": "Point",
    "coordinates": [
     128.84359769,
     -16.03251585
    ]
   },
   "properties": {
    "name": "1 LAKE ARGYLE ROAD LAKE ARGYLE 6743",
    "locID": "LOC000079878130",
    "tech": "SATELLITE",
    "upgrade": "NULL_NA",
    "gnaf_pid": "GAWA_147845550",
    "tech_change_status": "Not Planned"
   }
  },
  {
   "type": "Feature",
   "geometry": {
    "type": "Point",
    "coordinates": [
     128.56578278,
     -16.57498474
    ]
   },
   "properties": {
    "name": "LOT 929 LISSADELL ROAD LAKE ARGYLE 6743",
    "locID": "LOC000133612367",
    "tech": "NULL",
    "upgrade": "NULL_NA",
    "gnaf_pid": "GAWA_161560121",
    "tech_change_status": "Not Planned"
   }
  },
  {
   "type": "Feature",
   "geometry": {
    "type": "Point",
    "coordinates": [
     128.73916982,
     -16.113832
    ]
   },
   "properties": {
    "name": "LOT 880 LAKE ARGYLE ROAD LAKE ARGYLE 6743",
    "locID": "LOC000142348170",
    "tech": "NULL",
    "upgrade": "NULL_NA",
    "gnaf_pid": "GAWA_162793683",
    "tech_change_status": "Not Planned"
   }
  },
  {
   "type": "Feature",
   "geometry": {
    "type": "Point",
    "coordinates": [
     128.30886488,
     -16.59873919
    ]
   },
   "properties": {
    "name": "LOT 39 GAWOOLENG STREET LAKE ARGYLE 6743",
    "locID": "LOC000133603910",
    "tech": "NULL",
    "upgrade": "NULL_NA",
    "gnaf_pid": "GAWA_718339530",
    "tech_change_status": "Not Planned"
   }
  },
  {
   "type": "Feature",
   "geometry": {
    "type": "Point",
    "coordinates": [
     128.30886488,
     -16.59873919
    ]
   },
   "properties": {
    "name": "LOT 41 GAWOOLENG STREET LAKE ARGYLE 6743",
    "locID": "LOC000133603923",
    "tech": "NULL",
    "upgrade": "NULL_NA",
    "gnaf_pid": "GAWA_718339531",
    "tech_change_status": "Not Planned"
   }
  },
  {
   "type": "Feature",
   "geometry": {
    "type": "Point",
    "coordinates": [
     128.30886488,
     -16.59873919
    ]
   },
   "properties": {
    "name": "LOT 701 GLEN HILL ROAD LAKE ARGYLE 6743",
    "locID": "LOC000133603934",
    "tech": "SATELLITE",
    "upgrade": "NULL_NA",
    "gnaf_pid": "GAWA_718339663",
    "tech_change_status": "Not Planned"
   }
  },
  {
   "type": "Feature",
   "geometry": {
    "type": "Point",
    "coordinates": [
     128.30886488,
     -16.59873919
    ]
   },
   "properties": {
    "name": "LOT 19 JUNGORANUNG COURT LAKE ARGYLE 6743",
    "locID": "LOC000180598414",
    "tech": "SATELLITE",
    "upgrade": "NULL_NA",
    "gnaf_pid": "GAWA_718340470",
    "tech_change_status": "Not Planned"
   }
  },
  {
   "type": "Feature",
   "geometry": {
    "type": "Point",
    "coordinates": [
     128.90178469,
     -16.04166279
    ]
   },
   "properties": {
    "name": "LOT 996 LAKE ARGYLE ROAD LAKE ARGYLE 6743",
    "locID": "LOC000142904352",
    "tech": "SATELLITE",
    "upgrade": "NULL_NA",
    "gnaf_pid": "GAWA_718340748",
    "tech_change_status": "Not Planned"
   }
  },
  {
   "type": "Feature",
   "geometry": {
    "type": "Point",
    "coordinates": [
     128.30886488,
     -16.59873919
    ]
   },
   "properties": {
    "name": "LOT 10 MCCARDIE ROAD LAKE ARGYLE 6743",
    "locID": "LOC000185107616",
    "tech": "SATELLITE",
    "upgrade": "NULL_NA",
    "gnaf_pid": "GAWA_718341286",
    "tech_change_status": "Not Planned"
   }
  },
  {
   "type": "Feature",
   "geometry": {
    "type": "Point",
    "coordinates": [
     128.30886488,
     -16.59873919
    ]
   },
   "properties": {
    "name": "LOT 11 MCCARDIE ROAD LAKE ARGYLE 6743",
    "locID": "LOC000185107616",
    "tech": "SATELLITE",
    "upgrade": "NULL_NA",
    "gnaf_pid": "GAWA_718341287",
    "tech_change_status": "Not Planned"
   }
  },
  {
   "type": "Feature",
   "geometry": {
    "type": "Point",
    "coordinates": [
     128.30886488,
     -16.59873919
    ]
   },
   "properties": {
    "name": "LOT 1 MCCARDIE ROAD LAKE ARGYLE 6743",
    "locID": "LOC000185107616",
    "tech": "SATELLITE",
    "upgrade": "NULL_NA",
    "gnaf_pid": "GAWA_718341288",
    "tech_change_status": "Not Planned"
   }
  },
  {
   "type": "Feature",
   "geometry": {
    "type": "Point",
    "coordinates": [
     128.30886488,
     -16.59873919
    ]
   },
   "properties": {
    "name": "LOT 28 MCCARDIE ROAD LAKE ARGYLE 6743",
    "locID": "LOC000185107616",
    "tech": "SATELLITE",
    "upgrade": "NULL_NA",
    "gnaf_pid": "GAWA_718341290",
    "tech_change_status": "Not Planned"
   }
  },
  {
   "type": "Feature",
   "geometry": {
    "type": "Point",
    "coordinates": [
     128.30886488,
     -16.59873919
    ]
   },
   "properties": {
    "name": "LOT 2 MCCARDIE ROAD LAKE ARGYLE 6743",
    "locID": "LOC000185107616",
    "tech": "SATELLITE",
    "upgrade": "NULL_NA",
    "gnaf_pid": "GAWA_718341291",
    "tech_change_status": "Not Planned"
   }
  },
  {
   "type": "Feature",
   "geometry": {
    "type": "Point",
    "coordinates": [
     128.30886488,
     -16.59873919
    ]
   },
   "properties": {
    "name": "LOT 31 MCCARDIE ROAD LAKE ARGYLE 6743",
    "locID": "LOC000185107616",
    "tech": "SATELLITE",
    "upgrade": "NULL_NA",
    "gnaf_pid": "GAWA_718341292",
    "tech_change_status": "Not Planned"
   }
  },
  {
   "type": "Feature",
   "geometry": {
    "type": "Point",
    "coordinates": [
     128.30886488,
     -16.59873919
    ]
   },
   "properties": {
    "name": "LOT 3 MCCARDIE ROAD LAKE ARGYLE 6743",
    "locID": "LOC000185107616",
    "tech": "SATELLITE",
    "upgrade": "NULL_NA",
    "gnaf_pid": "GAWA_718341293",
    "tech_change_status": "Not Planned"
   }
  },
  {
   "type": "Feature",
   "geometry": {
    "type": "Point",
    "coordinates": [
     128.30886488,
     -16.59873919
    ]
   },
   "properties": {
    "name": "LOT 4 MCCARDIE ROAD LAKE ARGYLE 6743",
    "locID": "LOC000185107616",
    "tech": "SATELLITE",
    "upgrade": "NULL_NA",
    "gnaf_pid": "GAWA_718341294",
    "tech_change_status": "Not Planned"
   }
  },
  {
   "type": "Feature",
   "geometry": {
    "type": "Point",
    "coordinates": [
     128.30886488,
     -16.59873919
    ]
   },
   "properties": {
    "name": "LOT 5 MCCARDIE ROAD LAKE ARGYLE 6743",
    "locID": "LOC000185107616",
    "tech": "SATELLITE",
    "upgrade": "NULL_NA",
    "gnaf_pid": "GAWA_718341295",
    "tech_change_status": "Not Planned"
   }
  },
  {
   "type": "Feature",
   "geometry": {
    "type": "Point",
    "coordinates": [
     128.30886488,
     -16.59873919
    ]
   },
   "properties": {
    "name": "LOT 6 MCCARDIE ROAD LAKE ARGYLE 6743",
    "locID": "LOC100079748773",
    "tech": "SATELLITE",
    "upgrade": "NULL_NA",
    "gnaf_pid": "GAWA_718341296",
    "tech_change_status": "Not Planned"
   }
  },
  {
   "type": "Feature",
   "geometry": {
    "type": "Point",
    "coordinates": [
     128.30886488,
     -16.59873919
    ]
   },
   "properties": {
    "name": "LOT 7 MCCARDIE ROAD LAKE ARGYLE 6743",
    "locID": "LOC100079748773",
    "tech": "SATELLITE",
    "upgrade": "NULL_NA",
    "gnaf_pid": "GAWA_718341297",
    "tech_change_status": "Not Planned"
   }
  },
  {
   "type": "Feature",
   "geometry": {
    "type": "Point",
    "coordinates": [
     128.30886488,
     -16.59873919
    ]
   },
   "properties": {
    "name": "LOT 8 MCCARDIE ROAD LAKE ARGYLE 6743",
    "locID": "LOC000185107616",
    "tech": "SATELLITE",
    "upgrade": "NULL_NA",
    "gnaf_pid": "GAWA_718341298",
    "tech_change_status": "Not Planned"
   }
  },
  {
   "type": "Feature",
   "geometry": {
    "type": "Point",
    "coordinates": [
     128.30886488,
     -16.59873919
    ]
   },
   "properties": {
    "name": "LOT 9 MCCARDIE ROAD LAKE ARGYLE 6743",
    "locID": "LOC100056756453",
    "tech": "SATELLITE",
    "upgrade": "NULL_NA",
    "gnaf_pid": "GAWA_718341299",
    "tech_change_status": "Not Planned"
   }
  },
  {
   "type": "Feature",
   "geometry": {
    "type": "Point",
    "coordinates": [
     128.86828635,
     -15.9430271
    ]
   },
   "properties": {
    "name": "LOT 994 VICTORIA HIGHWAY LAKE ARGYLE 6743",
    "locID": "LOC000133638282",
    "tech": "SATELLITE",
    "upgrade": "NULL_NA",
    "gnaf_pid": "GAWA_718343331",
    "tech_change_status": "Not Planned"
   }
  },
  {
   "type": "Feature",
   "geometry": {
    "type": "Point",
    "coordinates": [
     128.97126946,
     -15.914231
    ]
   },
   "properties": {
    "name": "LOT 995 VICTORIA HIGHWAY LAKE ARGYLE 6743",
    "locID": "LOC000188449501",
    "tech": "SATELLITE",
    "upgrade": "NULL_NA",
    "gnaf_pid": "GAWA_718343332",
    "tech_change_status": "Not Planned"
   }
  },
  {
   "type": "Feature",
   "geometry": {
    "type": "Point",
    "coordinates": [
     128.30886488,
     -16.59873919
    ]
   },
   "properties": {
    "name": "LOT 12 WARAMIE STREET LAKE ARGYLE 6743",
    "locID": "LOC000133574995",
    "tech": "SATELLITE",
    "upgrade": "NULL_NA",
    "gnaf_pid": "GAWA_718343442",
    "tech_change_status": "Not Planned"
   }
  },
  {
   "type": "Feature",
   "geometry": {
    "type": "Point",
    "coordinates": [
     128.30886488,
     -16.59873919
    ]
   },
   "properties": {
    "name": "LOT 13 WARAMIE STREET LAKE ARGYLE 6743",
    "locID": "LOC000133575002",
    "tech": "NULL",
    "upgrade": "NULL_NA",
    "gnaf_pid": "GAWA_718343443",
    "tech_change_status": "Not Planned"
   }
  },
  {
   "type": "Feature",
   "geometry": {
    "type": "Point",
    "coordinates": [
     128.30886488,
     -16.59873919
    ]
   },
   "properties": {
    "name": "LOT 14 WARAMIE STREET LAKE ARGYLE 6743",
    "locID": "LOC000133575018",
    "tech": "NULL",
    "upgrade": "NULL_NA",
    "gnaf_pid": "GAWA_718343444",
    "tech_change_status": "Not Planned"
   }
  },
  {
   "type": "Feature",
   "geometry": {
    "type": "Point",
    "coordinates": [
     128.30886488,
     -16.59873919
    ]
   },
   "properties": {
    "name": "LOT 15 WARAMIE STREET LAKE ARGYLE 6743",
    "locID": "LOC000133575025",
    "tech": "SATELLITE",
    "upgrade": "NULL_NA",
    "gnaf_pid": "GAWA_718343445",
    "tech_change_status": "Not Planned"
   }
  },
  {
   "type": "Feature",
   "geometry": {
    "type": "Point",
    "coordinates": [
     128.30886488,
     -16.59873919
    ]
   },
   "properties": {
    "name": "LOT 36 WARAMIE STREET LAKE ARGYLE 6743",
    "locID": "LOC000133575039",
    "tech": "NULL",
    "upgrade": "NULL_NA",
    "gnaf_pid": "GAWA_718343446",
    "tech_change_status": "Not Planned"
   }
  },
  {
   "type": "Feature",
   "geometry": {
    "type": "Point",
    "coordinates": [
     128.84359769,
     -16.03251585
    ]
   },
   "properties": {
    "name": "LOT 511 LAKE ARGYLE ROAD LAKE ARGYLE 6743",
    "locID": "LOC000169472688",
    "tech": "SATELLITE",
    "upgrade": "NULL_NA",
    "gnaf_pid": "GAWA_718960099",
    "tech_change_status": "Not Planned"
   }
  },
  {
   "type": "Feature",
   "geometry": {
    "type": "Point",
    "coordinates": [
     128.74092027,
     -16.11223831
    ]
   },
   "properties": {
    "name": "3431 LAKE ARGYLE ROAD LAKE ARGYLE 6743",
    "locID": "LOC000189684104",
    "tech": "SATELLITE",
    "upgrade": "NULL_NA",
    "gnaf_pid": "GAWA_719042111",
    "tech_change_status": "Not Planned"
   }
  }
 ]
}