{
 "type": "FeatureCollection",
 "generated": "2023-10-19T05:18:48.211099",
 "suburb": "LAKE COOGEE",
 "features": [
  {
   "type": "Feature",
   "geometry": {
    "type": "Point",
    "coordinates": [
     115.7785285,
     -32.12369603
    ]
   },
   "properties": {
    "name": "5 CEPA COURT LAKE COOGEE 6166",
    "locID": "LOC000040148346",
    "tech": "FTTN",
    "upgrade": "NULL_NA",
    "gnaf_pid": "GAWA_720408838"
   }
  },
  {
   "type": "Feature",
   "geometry": {
    "type": "Point",
    "coordinates": [
     115.7884677,
     -32.13457064
    ]
   },
   "properties": {
    "name": "UNIT 11, 90 WEST CHURCHILL AVENUE LAKE COOGEE 6166",
    "locID": "LOC000166508276",
    "tech": "FTTN",
    "upgrade": "NULL_NA",
    "gnaf_pid": "GAWA_720408841"
   }
  },
  {
   "type": "Feature",
   "geometry": {
    "type": "Point",
    "coordinates": [
     115.78298204,
     -32.12502764
    ]
   },
   "properties": {
    "name": "23 MUSULIN RISE LAKE COOGEE 6166",
    "locID": "LOC000013751681",
    "tech": "FTTN",
    "upgrade": "NULL_NA",
    "gnaf_pid": "GAWA_720408844"
   }
  },
  {
   "type": "Feature",
   "geometry": {
    "type": "Point",
    "coordinates": [
     115.78527915,
     -32.13545886
    ]
   },
   "properties": {
    "name": "37 VELALUKA DRIVE LAKE COOGEE 6166",
    "locID": "LOC000149825713",
    "tech": "FTTN",
    "upgrade": "NULL_NA",
    "gnaf_pid": "GAWA_720408847"
   }
  },
  {
   "type": "Feature",
   "geometry": {
    "type": "Point",
    "coordinates": [
     115.78180418,
     -32.13457574
    ]
   },
   "properties": {
    "name": "30 GICHA CLOSE LAKE COOGEE 6166",
    "locID": "LOC000149832051",
    "tech": "FTTN",
    "upgrade": "NULL_NA",
    "gnaf_pid": "GAWA_720408848"
   }
  },
  {
   "type": "Feature",
   "geometry": {
    "type": "Point",
    "coordinates": [
     115.78743721,
     -32.13175123
    ]
   },
   "properties": {
    "name": "12 RAKITNO CLOSE LAKE COOGEE 6166",
    "locID": "LOC000177862730",
    "tech": "FTTN",
    "upgrade": "NULL_NA",
    "gnaf_pid": "GAWA_720408849"
   }
  },
  {
   "type": "Feature",
   "geometry": {
    "type": "Point",
    "coordinates": [
     115.78123475,
     -32.12225281
    ]
   },
   "properties": {
    "name": "24 HAMELIN DRIVE LAKE COOGEE 6166",
    "locID": "LOC000060025690",
    "tech": "FTTN",
    "upgrade": "NULL_NA",
    "gnaf_pid": "GAWA_720408852"
   }
  },
  {
   "type": "Feature",
   "geometry": {
    "type": "Point",
    "coordinates": [
     115.78721832,
     -32.11723342
    ]
   },
   "properties": {
    "name": "9 SHERIDAN COURT LAKE COOGEE 6166",
    "locID": "ChIJCfG1f5OYMioR1bqrwjCpSjk",
    "tech": "FTTN",
    "upgrade": "UNKNOWN",
    "gnaf_pid": "GAWA_720408853"
   }
  },
  {
   "type": "Feature",
   "geometry": {
    "type": "Point",
    "coordinates": [
     115.78270612,
     -32.13831254
    ]
   },
   "properties": {
    "name": "3A GRIZEN WAY LAKE COOGEE 6166",
    "locID": "LOC000149824369",
    "tech": "FTTN",
    "upgrade": "NULL_NA",
    "gnaf_pid": "GAWA_720408854"
   }
  },
  {
   "type": "Feature",
   "geometry": {
    "type": "Point",
    "coordinates": [
     115.7817335,
     -32.12122793
    ]
   },
   "properties": {
    "name": "11 HAMELIN DRIVE LAKE COOGEE 6166",
    "locID": "LOC000046381636",
    "tech": "FTTN",
    "upgrade": "NULL_NA",
    "gnaf_pid": "GAWA_720408860"
   }
  },
  {
   "type": "Feature",
   "geometry": {
    "type": "Point",
    "coordinates": [
     115.78550271,
     -32.11969625
    ]
   },
   "properties": {
    "name": "13 BLONDELL DRIVE LAKE COOGEE 6166",
    "locID": "LOC000012408753",
    "tech": "FTTN",
    "upgrade": "FTTP_NA",
    "gnaf_pid": "GAWA_720408866"
   }
  },
  {
   "type": "Feature",
   "geometry": {
    "type": "Point",
    "coordinates": [
     115.78502352,
     -32.12347955
    ]
   },
   "properties": {
    "name": "16 MARLOWE PLACE LAKE COOGEE 6166",
    "locID": "LOC000086480690",
    "tech": "FTTN",
    "upgrade": "NULL_NA",
    "gnaf_pid": "GAWA_720408868"
   }
  },
  {
   "type": "Feature",
   "geometry": {
    "type": "Point",
    "coordinates": [
     115.78500859,
     -32.13258721
    ]
   },
   "properties": {
    "name": "19 COOGEE ROAD LAKE COOGEE 6166",
    "locID": "LOC000056746856",
    "tech": "FTTN",
    "upgrade": "NULL_NA",
    "gnaf_pid": "GAWA_720408875"
   }
  },
  {
   "type": "Feature",
   "geometry": {
    "type": "Point",
    "coordinates": [
     115.78589755,
     -32.13428759
    ]
   },
   "properties": {
    "name": "UNIT 1, 68 WEST CHURCHILL AVENUE LAKE COOGEE 6166",
    "locID": "LOC000149822504",
    "tech": "FTTN",
    "upgrade": "NULL_NA",
    "gnaf_pid": "GAWA_720408877"
   }
  },
  {
   "type": "Feature",
   "geometry": {
    "type": "Point",
    "coordinates": [
     115.78609958,
     -32.11725962
    ]
   },
   "properties": {
    "name": "5 DRYDEN STREET LAKE COOGEE 6166",
    "locID": "LOC000045783011",
    "tech": "FTTN",
    "upgrade": "FTTP_NA",
    "gnaf_pid": "GAWA_720408878"
   }
  },
  {
   "type": "Feature",
   "geometry": {
    "type": "Point",
    "coordinates": [
     115.77815481,
     -32.13133279
    ]
   },
   "properties": {
    "name": "34 FAWCETT ROAD LAKE COOGEE 6166",
    "locID": "LOC000090326750",
    "tech": "FTTN",
    "upgrade": "NULL_NA",
    "gnaf_pid": "GAWA_720408879"
   }
  },
  {
   "type": "Feature",
   "geometry": {
    "type": "Point",
    "coordinates": [
     115.78582882,
     -32.11857349
    ]
   },
   "properties": {
    "name": "3 HUGH PLACE LAKE COOGEE 6166",
    "locID": "LOC000002948952",
    "tech": "FTTN",
    "upgrade": "FTTP_NA",
    "gnaf_pid": "GAWA_720408880"
   }
  },
  {
   "type": "Feature",
   "geometry": {
    "type": "Point",
    "coordinates": [
     115.78138418,
     -32.12888396
    ]
   },
   "properties": {
    "name": "30 PRESTON DRIVE LAKE COOGEE 6166",
    "locID": "LOC000166499504",
    "tech": "FTTN",
    "upgrade": "NULL_NA",
    "gnaf_pid": "GAWA_720408888"
   }
  },
  {
   "type": "Feature",
   "geometry": {
    "type": "Point",
    "coordinates": [
     115.78534821,
     -32.13289848
    ]
   },
   "properties": {
    "name": "UNIT 3, 28 RIVERINA PARADE LAKE COOGEE 6166",
    "locID": "LOC000026995174",
    "tech": "FTTN",
    "upgrade": "NULL_NA",
    "gnaf_pid": "GAWA_720408889"
   }
  },
  {
   "type": "Feature",
   "geometry": {
    "type": "Point",
    "coordinates": [
     115.78673599,
     -32.1336397
    ]
   },
   "properties": {
    "name": "UNIT 4, 639 ROCKINGHAM ROAD LAKE COOGEE 6166",
    "locID": "LOC000077485633",
    "tech": "FTTN",
    "upgrade": "NULL_NA",
    "gnaf_pid": "GAWA_720408890"
   }
  },
  {
   "type": "Feature",
   "geometry": {
    "type": "Point",
    "coordinates": [
     115.78491513,
     -32.120861
    ]
   },
   "properties": {
    "name": "47 TURFAN WAY LAKE COOGEE 6166",
    "locID": "LOC000038669945",
    "tech": "FTTN",
    "upgrade": "FTTP_NA",
    "gnaf_pid": "GAWA_720408891"
   }
  },
  {
   "type": "Feature",
   "geometry": {
    "type": "Point",
    "coordinates": [
     115.78918227,
     -32.11741322
    ]
   },
   "properties": {
    "name": "56 MARVELL AVENUE LAKE COOGEE 6166",
    "locID": "LOC000004799593",
    "tech": "FTTN",
    "upgrade": "FTTP_NA",
    "gnaf_pid": "GAWA_720408893"
   }
  },
  {
   "type": "Feature",
   "geometry": {
    "type": "Point",
    "coordinates": [
     115.78340816,
     -32.13221729
    ]
   },
   "properties": {
    "name": "48 RIVERINA PARADE LAKE COOGEE 6166",
    "locID": "LOC000054576593",
    "tech": "FTTN",
    "upgrade": "NULL_NA",
    "gnaf_pid": "GAWA_720408894"
   }
  },
  {
   "type": "Feature",
   "geometry": {
    "type": "Point",
    "coordinates": [
     115.783708,
     -32.13313115
    ]
   },
   "properties": {
    "name": "1 CARBINE WAY LAKE COOGEE 6166",
    "locID": "LOC000059397348",
    "tech": "FTTN",
    "upgrade": "NULL_NA",
    "gnaf_pid": "GAWA_720408896"
   }
  },
  {
   "type": "Feature",
   "geometry": {
    "type": "Point",
    "coordinates": [
     115.77988289,
     -32.12713544
    ]
   },
   "properties": {
    "name": "UNIT 1, 19 APIUM MEWS LAKE COOGEE 6166",
    "locID": "LOC000132989994",
    "tech": "FTTN",
    "upgrade": "NULL_NA",
    "gnaf_pid": "GAWA_720408897"
   }
  },
  {
   "type": "Feature",
   "geometry": {
    "type": "Point",
    "coordinates": [
     115.7895325,
     -32.12140837
    ]
   },
   "properties": {
    "name": "6 SHELLEY WAY LAKE COOGEE 6166",
    "locID": "LOC000011475312",
    "tech": "FTTN",
    "upgrade": "FTTP_NA",
    "gnaf_pid": "GAWA_720408902"
   }
  },
  {
   "type": "Feature",
   "geometry": {
    "type": "Point",
    "coordinates": [
     115.78955098,
     -32.11761254
    ]
   },
   "properties": {
    "name": "19 KIPLING STREET LAKE COOGEE 6166",
    "locID": "LOC000009477937",
    "tech": "FTTN",
    "upgrade": "FTTP_NA",
    "gnaf_pid": "GAWA_720408906"
   }
  },
  {
   "type": "Feature",
   "geometry": {
    "type": "Point",
    "coordinates": [
     115.7766696,
     -32.12226946
    ]
   },
   "properties": {
    "name": "384 HAMILTON ROAD LAKE COOGEE 6166",
    "locID": "LOC000054461756",
    "tech": "FTTN",
    "upgrade": "NULL_NA",
    "gnaf_pid": "GAWA_720408908"
   }
  },
  {
   "type": "Feature",
   "geometry": {
    "type": "Point",
    "coordinates": [
     115.78918142,
     -32.1176113
    ]
   },
   "properties": {
    "name": "58 MARVELL AVENUE LAKE COOGEE 6166",
    "locID": "LOC000008726178",
    "tech": "FTTN",
    "upgrade": "FTTP_NA",
    "gnaf_pid": "GAWA_720408911"
   }
  },
  {
   "type": "Feature",
   "geometry": {
    "type": "Point",
    "coordinates": [
     115.77837809,
     -32.13028718
    ]
   },
   "properties": {
    "name": "10 INGRILLI COURT LAKE COOGEE 6166",
    "locID": "LOC000077705270",
    "tech": "FTTN",
    "upgrade": "NULL_NA",
    "gnaf_pid": "GAWA_720408915"
   }
  },
  {
   "type": "Feature",
   "geometry": {
    "type": "Point",
    "coordinates": [
     115.78490083,
     -32.12777708
    ]
   },
   "properties": {
    "name": "16B BACICH MEWS LAKE COOGEE 6166",
    "locID": "LOC000132975310",
    "tech": "FTTN",
    "upgrade": "NULL_NA",
    "gnaf_pid": "GAWA_720408920"
   }
  },
  {
   "type": "Feature",
   "geometry": {
    "type": "Point",
    "coordinates": [
     115.78778909,
     -32.12203316
    ]
   },
   "properties": {
    "name": "101 MARVELL AVENUE LAKE COOGEE 6166",
    "locID": "LOC000013633905",
    "tech": "FTTN",
    "upgrade": "NULL_NA",
    "gnaf_pid": "GAWA_720408923"
   }
  },
  {
   "type": "Feature",
   "geometry": {
    "type": "Point",
    "coordinates": [
     115.78969603,
     -32.12151596
    ]
   },
   "properties": {
    "name": "8 SHELLEY WAY LAKE COOGEE 6166",
    "locID": "LOC000021220792",
    "tech": "FTTN",
    "upgrade": "FTTP_NA",
    "gnaf_pid": "GAWA_720408925"
   }
  },
  {
   "type": "Feature",
   "geometry": {
    "type": "Point",
    "coordinates": [
     115.78259592,
     -32.12617113
    ]
   },
   "properties": {
    "name": "22 MUSULIN RISE LAKE COOGEE 6166",
    "locID": "LOC000039956386",
    "tech": "FTTN",
    "upgrade": "NULL_NA",
    "gnaf_pid": "GAWA_720408926"
   }
  },
  {
   "type": "Feature",
   "geometry": {
    "type": "Point",
    "coordinates": [
     115.78164968,
     -32.13468056
    ]
   },
   "properties": {
    "name": "UNIT 1, 32 GICHA CLOSE LAKE COOGEE 6166",
    "locID": "LOC000149832521",
    "tech": "FTTN",
    "upgrade": "NULL_NA",
    "gnaf_pid": "GAWA_720408928"
   }
  },
  {
   "type": "Feature",
   "geometry": {
    "type": "Point",
    "coordinates": [
     115.78313227,
     -32.12337902
    ]
   },
   "properties": {
    "name": "11 ANKA GARDENS LAKE COOGEE 6166",
    "locID": "LOC000054017960",
    "tech": "FTTN",
    "upgrade": "NULL_NA",
    "gnaf_pid": "GAWA_720408933"
   }
  },
  {
   "type": "Feature",
   "geometry": {
    "type": "Point",
    "coordinates": [
     115.78770109,
     -32.13233385
    ]
   },
   "properties": {
    "name": "14 MAGNET CLOSE LAKE COOGEE 6166",
    "locID": "LOC000017018506",
    "tech": "FTTN",
    "upgrade": "NULL_NA",
    "gnaf_pid": "GAWA_720408934"
   }
  },
  {
   "type": "Feature",
   "geometry": {
    "type": "Point",
    "coordinates": [
     115.79051604,
     -32.12016177
    ]
   },
   "properties": {
    "name": "14 MILTON PLACE LAKE COOGEE 6166",
    "locID": "LOC000052175614",
    "tech": "FTTN",
    "upgrade": "FTTP_NA",
    "gnaf_pid": "GAWA_720408935"
   }
  },
  {
   "type": "Feature",
   "geometry": {
    "type": "Point",
    "coordinates": [
     115.77965103,
     -32.12750158
    ]
   },
   "properties": {
    "name": "UNIT 2, 18 APIUM MEWS LAKE COOGEE 6166",
    "locID": "LOC000132986397",
    "tech": "FTTN",
    "upgrade": "NULL_NA",
    "gnaf_pid": "GAWA_720408936"
   }
  },
  {
   "type": "Feature",
   "geometry": {
    "type": "Point",
    "coordinates": [
     115.78134716,
     -32.12842785
    ]
   },
   "properties": {
    "name": "138 MAYOR ROAD LAKE COOGEE 6166",
    "locID": "LOC000007869788",
    "tech": "FTTN",
    "upgrade": "NULL_NA",
    "gnaf_pid": "GAWA_720408937"
   }
  },
  {
   "type": "Feature",
   "geometry": {
    "type": "Point",
    "coordinates": [
     115.78859253,
     -32.11850177
    ]
   },
   "properties": {
    "name": "65A MARVELL AVENUE LAKE COOGEE 6166",
    "locID": "LOC000017894704",
    "tech": "FTTN",
    "upgrade": "FTTP_NA",
    "gnaf_pid": "GAWA_720408938"
   }
  },
  {
   "type": "Feature",
   "geometry": {
    "type": "Point",
    "coordinates": [
     115.79287742,
     -32.11846697
    ]
   },
   "properties": {
    "name": "32 BROWNING WAY LAKE COOGEE 6166",
    "locID": "LOC000010419023",
    "tech": "FTTN",
    "upgrade": "FTTP_NA",
    "gnaf_pid": "GAWA_720408941"
   }
  },
  {
   "type": "Feature",
   "geometry": {
    "type": "Point",
    "coordinates": [
     115.79038834,
     -32.11770074
    ]
   },
   "properties": {
    "name": "20 KIPLING STREET LAKE COOGEE 6166",
    "locID": "LOC000037449016",
    "tech": "FTTN",
    "upgrade": "FTTP_NA",
    "gnaf_pid": "GAWA_720408944"
   }
  },
  {
   "type": "Feature",
   "geometry": {
    "type": "Point",
    "coordinates": [
     115.78439313,
     -32.13183787
    ]
   },
   "properties": {
    "name": "3 RADONICH WAY LAKE COOGEE 6166",
    "locID": "LOC000065972711",
    "tech": "FTTN",
    "upgrade": "NULL_NA",
    "gnaf_pid": "GAWA_720408945"
   }
  },
  {
   "type": "Feature",
   "geometry": {
    "type": "Point",
    "coordinates": [
     115.77781142,
     -32.1208284
    ]
   },
   "properties": {
    "name": "17 GUMINA PLACE LAKE COOGEE 6166",
    "locID": "LOC000018699018",
    "tech": "FTTN",
    "upgrade": "NULL_NA",
    "gnaf_pid": "GAWA_720408947"
   }
  },
  {
   "type": "Feature",
   "geometry": {
    "type": "Point",
    "coordinates": [
     115.78516228,
     -32.12087372
    ]
   },
   "properties": {
    "name": "49 TURFAN WAY LAKE COOGEE 6166",
    "locID": "LOC000082404054",
    "tech": "FTTN",
    "upgrade": "FTTP_NA",
    "gnaf_pid": "GAWA_720408948"
   }
  },
  {
   "type": "Feature",
   "geometry": {
    "type": "Point",
    "coordinates": [
     115.78972942,
     -32.12043641
    ]
   },
   "properties": {
    "name": "5 ORWELL COURT LAKE COOGEE 6166",
    "locID": "LOC000081244029",
    "tech": "FTTN",
    "upgrade": "FTTP_NA",
    "gnaf_pid": "GAWA_720408949"
   }
  },
  {
   "type": "Feature",
   "geometry": {
    "type": "Point",
    "coordinates": [
     115.78740674,
     -32.13139777
    ]
   },
   "properties": {
    "name": "11 RAKITNO CLOSE LAKE COOGEE 6166",
    "locID": "LOC000166499809",
    "tech": "FTTN",
    "upgrade": "NULL_NA",
    "gnaf_pid": "GAWA_720408950"
   }
  },
  {
   "type": "Feature",
   "geometry": {
    "type": "Point",
    "coordinates": [
     115.77604338,
     -32.12761638
    ]
   },
   "properties": {
    "name": "432 HAMILTON ROAD LAKE COOGEE 6166",
    "locID": "LOC000107539038",
    "tech": "FTTN",
    "upgrade": "NULL_NA",
    "gnaf_pid": "GAWA_720408951"
   }
  },
  {
   "type": "Feature",
   "geometry": {
    "type": "Point",
    "coordinates": [
     115.78645331,
     -32.11895818
    ]
   },
   "properties": {
    "name": "21 DRYDEN STREET LAKE COOGEE 6166",
    "locID": "LOC000038903661",
    "tech": "FTTN",
    "upgrade": "FTTP_NA",
    "gnaf_pid": "GAWA_720408953"
   }
  },
  {
   "type": "Feature",
   "geometry": {
    "type": "Point",
    "coordinates": [
     115.78340361,
     -32.11761183
    ]
   },
   "properties": {
    "name": "28 TURFAN WAY LAKE COOGEE 6166",
    "locID": "LOC000030611114",
    "tech": "FTTN",
    "upgrade": "FTTP_NA",
    "gnaf_pid": "GAWA_720408955"
   }
  },
  {
   "type": "Feature",
   "geometry": {
    "type": "Point",
    "coordinates": [
     115.78013131,
     -32.12775103
    ]
   },
   "properties": {
    "name": "119 MAYOR ROAD LAKE COOGEE 6166",
    "locID": "LOC000166497541",
    "tech": "FTTN",
    "upgrade": "NULL_NA",
    "gnaf_pid": "GAWA_720408958"
   }
  },
  {
   "type": "Feature",
   "geometry": {
    "type": "Point",
    "coordinates": [
     115.78340093,
     -32.13572797
    ]
   },
   "properties": {
    "name": "19 SYNDICATE LINK LAKE COOGEE 6166",
    "locID": "LOC000110922807",
    "tech": "FTTN",
    "upgrade": "NULL_NA",
    "gnaf_pid": "GAWA_720408962"
   }
  },
  {
   "type": "Feature",
   "geometry": {
    "type": "Point",
    "coordinates": [
     115.78613179,
     -32.13673663
    ]
   },
   "properties": {
    "name": "21 TEMPLETONIA RISE LAKE COOGEE 6166",
    "locID": "LOC000149825797",
    "tech": "FTTN",
    "upgrade": "NULL_NA",
    "gnaf_pid": "GAWA_720408963"
   }
  },
  {
   "type": "Feature",
   "geometry": {
    "type": "Point",
    "coordinates": [
     115.7852203,
     -32.12048419
    ]
   },
   "properties": {
    "name": "8A PATERSON COURT LAKE COOGEE 6166",
    "locID": "LOC000056893545",
    "tech": "FTTN",
    "upgrade": "FTTP_NA",
    "gnaf_pid": "GAWA_720408964"
   }
  },
  {
   "type": "Feature",
   "geometry": {
    "type": "Point",
    "coordinates": [
     115.78273224,
     -32.13649482
    ]
   },
   "properties": {
    "name": "7 GIARDINO PLACE LAKE COOGEE 6166",
    "locID": "LOC000113620329",
    "tech": "FTTN",
    "upgrade": "NULL_NA",
    "gnaf_pid": "GAWA_720408965"
   }
  },
  {
   "type": "Feature",
   "geometry": {
    "type": "Point",
    "coordinates": [
     115.78152195,
     -32.1288843
    ]
   },
   "properties": {
    "name": "28 PRESTON DRIVE LAKE COOGEE 6166",
    "locID": "LOC000182528719",
    "tech": "FTTN",
    "upgrade": "NULL_NA",
    "gnaf_pid": "GAWA_720408967"
   }
  },
  {
   "type": "Feature",
   "geometry": {
    "type": "Point",
    "coordinates": [
     115.79163782,
     -32.11805997
    ]
   },
   "properties": {
    "name": "22 BERSON COURT LAKE COOGEE 6166",
    "locID": "LOC000055930266",
    "tech": "FTTN",
    "upgrade": "NULL_NA",
    "gnaf_pid": "GAWA_720408979"
   }
  },
  {
   "type": "Feature",
   "geometry": {
    "type": "Point",
    "coordinates": [
     115.78742464,
     -32.13197595
    ]
   },
   "properties": {
    "name": "11 MAGNET CLOSE LAKE COOGEE 6166",
    "locID": "LOC000102314594",
    "tech": "FTTN",
    "upgrade": "NULL_NA",
    "gnaf_pid": "GAWA_720408980"
   }
  },
  {
   "type": "Feature",
   "geometry": {
    "type": "Point",
    "coordinates": [
     115.78574413,
     -32.1322483
    ]
   },
   "properties": {
    "name": "UNIT 1, 16 RIVERINA PARADE LAKE COOGEE 6166",
    "locID": "LOC000088710997",
    "tech": "FTTN",
    "upgrade": "NULL_NA",
    "gnaf_pid": "GAWA_720408981"
   }
  },
  {
   "type": "Feature",
   "geometry": {
    "type": "Point",
    "coordinates": [
     115.78402312,
     -32.13730276
    ]
   },
   "properties": {
    "name": "5 ALBION AVENUE LAKE COOGEE 6166",
    "locID": "LOC000132994109",
    "tech": "FTTN",
    "upgrade": "NULL_NA",
    "gnaf_pid": "GAWA_720408985"
   }
  },
  {
   "type": "Feature",
   "geometry": {
    "type": "Point",
    "coordinates": [
     115.77625973,
     -32.12337282
    ]
   },
   "properties": {
    "name": "UNIT 3, 38 KOTISINA GARDENS LAKE COOGEE 6166",
    "locID": "LOC000058337229",
    "tech": "FTTN",
    "upgrade": "NULL_NA",
    "gnaf_pid": "GAWA_720408989"
   }
  },
  {
   "type": "Feature",
   "geometry": {
    "type": "Point",
    "coordinates": [
     115.78708878,
     -32.13139786
    ]
   },
   "properties": {
    "name": "5 RAKITNO CLOSE LAKE COOGEE 6166",
    "locID": "LOC000166500325",
    "tech": "FTTN",
    "upgrade": "NULL_NA",
    "gnaf_pid": "GAWA_720408998"
   }
  },
  {
   "type": "Feature",
   "geometry": {
    "type": "Point",
    "coordinates": [
     115.78507817,
     -32.1225058
    ]
   },
   "properties": {
    "name": "6 MARLOWE PLACE LAKE COOGEE 6166",
    "locID": "LOC000107611050",
    "tech": "FTTN",
    "upgrade": "NULL_NA",
    "gnaf_pid": "GAWA_720409004"
   }
  },
  {
   "type": "Feature",
   "geometry": {
    "type": "Point",
    "coordinates": [
     115.78590158,
     -32.13044843
    ]
   },
   "properties": {
    "name": "4 CARINE PARADE LAKE COOGEE 6166",
    "locID": "LOC000149838583",
    "tech": "FTTN",
    "upgrade": "NULL_NA",
    "gnaf_pid": "GAWA_720409006"
   }
  },
  {
   "type": "Feature",
   "geometry": {
    "type": "Point",
    "coordinates": [
     115.78493136,
     -32.13671344
    ]
   },
   "properties": {
    "name": "61 COOGEE ROAD LAKE COOGEE 6166",
    "locID": "LOC000112174904",
    "tech": "FTTN",
    "upgrade": "NULL_NA",
    "gnaf_pid": "GAWA_720409008"
   }
  },
  {
   "type": "Feature",
   "geometry": {
    "type": "Point",
    "coordinates": [
     115.78233837,
     -32.12388033
    ]
   },
   "properties": {
    "name": "UNIT 1, 9 MINGA PLACE LAKE COOGEE 6166",
    "locID": "LOC000092530935",
    "tech": "FTTN",
    "upgrade": "NULL_NA",
    "gnaf_pid": "GAWA_720409009"
   }
  },
  {
   "type": "Feature",
   "geometry": {
    "type": "Point",
    "coordinates": [
     115.7917921,
     -32.11994724
    ]
   },
   "properties": {
    "name": "4 LAMB PLACE LAKE COOGEE 6166",
    "locID": "LOC000017992482",
    "tech": "FTTN",
    "upgrade": "FTTP_NA",
    "gnaf_pid": "GAWA_720409011"
   }
  },
  {
   "type": "Feature",
   "geometry": {
    "type": "Point",
    "coordinates": [
     115.78753414,
     -32.13175117
    ]
   },
   "properties": {
    "name": "14 RAKITNO CLOSE LAKE COOGEE 6166",
    "locID": "LOC000166499911",
    "tech": "FTTN",
    "upgrade": "NULL_NA",
    "gnaf_pid": "GAWA_720409017"
   }
  },
  {
   "type": "Feature",
   "geometry": {
    "type": "Point",
    "coordinates": [
     115.78327292,
     -32.13836569
    ]
   },
   "properties": {
    "name": "4 GRIZEN WAY LAKE COOGEE 6166",
    "locID": "LOC000132990382",
    "tech": "FTTN",
    "upgrade": "NULL_NA",
    "gnaf_pid": "GAWA_720409025"
   }
  },
  {
   "type": "Feature",
   "geometry": {
    "type": "Point",
    "coordinates": [
     115.78232341,
     -32.13723717
    ]
   },
   "properties": {
    "name": "36 SPLASH TERRACE LAKE COOGEE 6166",
    "locID": "LOC000149835789",
    "tech": "FTTN",
    "upgrade": "NULL_NA",
    "gnaf_pid": "GAWA_720409026"
   }
  },
  {
   "type": "Feature",
   "geometry": {
    "type": "Point",
    "coordinates": [
     115.78083203,
     -32.12214438
    ]
   },
   "properties": {
    "name": "9 YALGORUP LANE LAKE COOGEE 6166",
    "locID": "LOC000086487029",
    "tech": "FTTN",
    "upgrade": "NULL_NA",
    "gnaf_pid": "GAWA_720409029"
   }
  },
  {
   "type": "Feature",
   "geometry": {
    "type": "Point",
    "coordinates": [
     115.77677909,
     -32.12569049
    ]
   },
   "properties": {
    "name": "1 ATWELL CLOSE LAKE COOGEE 6166",
    "locID": "LOC000073670989",
    "tech": "FTTN",
    "upgrade": "NULL_NA",
    "gnaf_pid": "GAWA_720409034"
   }
  },
  {
   "type": "Feature",
   "geometry": {
    "type": "Point",
    "coordinates": [
     115.78206211,
     -32.12389052
    ]
   },
   "properties": {
    "name": "11 MINGA PLACE LAKE COOGEE 6166",
    "locID": "LOC000132967631",
    "tech": "FTTN",
    "upgrade": "NULL_NA",
    "gnaf_pid": "GAWA_720409036"
   }
  },
  {
   "type": "Feature",
   "geometry": {
    "type": "Point",
    "coordinates": [
     115.78396884,
     -32.11941728
    ]
   },
   "properties": {
    "name": "31 TURFAN WAY LAKE COOGEE 6166",
    "locID": "LOC000063643059",
    "tech": "FTTN",
    "upgrade": "FTTP_NA",
    "gnaf_pid": "GAWA_720409039"
   }
  },
  {
   "type": "Feature",
   "geometry": {
    "type": "Point",
    "coordinates": [
     115.78720838,
     -32.12261208
    ]
   },
   "properties": {
    "name": "65 SHELLEY WAY LAKE COOGEE 6166",
    "locID": "LOC000020290290",
    "tech": "FTTN",
    "upgrade": "NULL_NA",
    "gnaf_pid": "GAWA_720409042"
   }
  },
  {
   "type": "Feature",
   "geometry": {
    "type": "Point",
    "coordinates": [
     115.78406441,
     -32.13376372
    ]
   },
   "properties": {
    "name": "51 WEST CHURCHILL AVENUE LAKE COOGEE 6166",
    "locID": "LOC000035026134",
    "tech": "FTTN",
    "upgrade": "NULL_NA",
    "gnaf_pid": "GAWA_720409043"
   }
  },
  {
   "type": "Feature",
   "geometry": {
    "type": "Point",
    "coordinates": [
     115.78419814,
     -32.13423212
    ]
   },
   "properties": {
    "name": "52 WEST CHURCHILL AVENUE LAKE COOGEE 6166",
    "locID": "LOC000110968185",
    "tech": "FTTN",
    "upgrade": "NULL_NA",
    "gnaf_pid": "GAWA_720409044"
   }
  },
  {
   "type": "Feature",
   "geometry": {
    "type": "Point",
    "coordinates": [
     115.77988854,
     -32.12778397
    ]
   },
   "properties": {
    "name": "UNIT 4, 18 APIUM MEWS LAKE COOGEE 6166",
    "locID": "LOC000132989956",
    "tech": "FTTN",
    "upgrade": "NULL_NA",
    "gnaf_pid": "GAWA_720409045"
   }
  },
  {
   "type": "Feature",
   "geometry": {
    "type": "Point",
    "coordinates": [
     115.78715676,
     -32.12660846
    ]
   },
   "properties": {
    "name": "13 BECKETT CLOSE LAKE COOGEE 6166",
    "locID": "LOC000097964374",
    "tech": "FTTN",
    "upgrade": "NULL_NA",
    "gnaf_pid": "GAWA_720409046"
   }
  },
  {
   "type": "Feature",
   "geometry": {
    "type": "Point",
    "coordinates": [
     115.78734165,
     -32.12300775
    ]
   },
   "properties": {
    "name": "61 SHELLEY WAY LAKE COOGEE 6166",
    "locID": "LOC000036553803",
    "tech": "FTTN",
    "upgrade": "NULL_NA",
    "gnaf_pid": "GAWA_720409048"
   }
  },
  {
   "type": "Feature",
   "geometry": {
    "type": "Point",
    "coordinates": [
     115.78793045,
     -32.13234707
    ]
   },
   "properties": {
    "name": "18 MAGNET CLOSE LAKE COOGEE 6166",
    "locID": "LOC000089602254",
    "tech": "FTTN",
    "upgrade": "NULL_NA",
    "gnaf_pid": "GAWA_720409050"
   }
  },
  {
   "type": "Feature",
   "geometry": {
    "type": "Point",
    "coordinates": [
     115.78257967,
     -32.12428413
    ]
   },
   "properties": {
    "name": "15B OKRA COURT LAKE COOGEE 6166",
    "locID": "LOC000059568268",
    "tech": "FTTN",
    "upgrade": "NULL_NA",
    "gnaf_pid": "GAWA_720409057"
   }
  },
  {
   "type": "Feature",
   "geometry": {
    "type": "Point",
    "coordinates": [
     115.78418618,
     -32.12972095
    ]
   },
   "properties": {
    "name": "22 ERIE LANE LAKE COOGEE 6166",
    "locID": "ChIJiRaJiuiYMioRW8F_wggL_aA",
    "tech": "FTTN",
    "upgrade": "UNKNOWN",
    "gnaf_pid": "GAWA_720409058"
   }
  },
  {
   "type": "Feature",
   "geometry": {
    "type": "Point",
    "coordinates": [
     115.78549191,
     -32.13148894
    ]
   },
   "properties": {
    "name": "8 RIVERINA PARADE LAKE COOGEE 6166",
    "locID": "LOC000101087621",
    "tech": "FTTN",
    "upgrade": "NULL_NA",
    "gnaf_pid": "GAWA_720409060"
   }
  },
  {
   "type": "Feature",
   "geometry": {
    "type": "Point",
    "coordinates": [
     115.77976156,
     -32.12778397
    ]
   },
   "properties": {
    "name": "UNIT 3, 18 APIUM MEWS LAKE COOGEE 6166",
    "locID": "LOC000132986402",
    "tech": "FTTN",
    "upgrade": "NULL_NA",
    "gnaf_pid": "GAWA_720409062"
   }
  },
  {
   "type": "Feature",
   "geometry": {
    "type": "Point",
    "coordinates": [
     115.78508604,
     -32.13165154
    ]
   },
   "properties": {
    "name": "9 COOGEE ROAD LAKE COOGEE 6166",
    "locID": "LOC000007060113",
    "tech": "FTTN",
    "upgrade": "NULL_NA",
    "gnaf_pid": "GAWA_720409063"
   }
  },
  {
   "type": "Feature",
   "geometry": {
    "type": "Point",
    "coordinates": [
     115.78534065,
     -32.12961784
    ]
   },
   "properties": {
    "name": "15 CARINE PARADE LAKE COOGEE 6166",
    "locID": "LOC000149983153",
    "tech": "FTTP",
    "upgrade": "NULL_NA",
    "gnaf_pid": "GAWA_720409067"
   }
  },
  {
   "type": "Feature",
   "geometry": {
    "type": "Point",
    "coordinates": [
     115.78631761,
     -32.13433484
    ]
   },
   "properties": {
    "name": "UNIT 5, 70 WEST CHURCHILL AVENUE LAKE COOGEE 6166",
    "locID": "LOC000185212789",
    "tech": "FTTN",
    "upgrade": "NULL_NA",
    "gnaf_pid": "GAWA_720409068"
   }
  },
  {
   "type": "Feature",
   "geometry": {
    "type": "Point",
    "coordinates": [
     115.79205091,
     -32.11691419
    ]
   },
   "properties": {
    "name": "83 BARRINGTON STREET LAKE COOGEE 6166",
    "locID": "LOC000071326040",
    "tech": "FTTN",
    "upgrade": "FTTP_NA",
    "gnaf_pid": "GAWA_720409069"
   }
  },
  {
   "type": "Feature",
   "geometry": {
    "type": "Point",
    "coordinates": [
     115.79162016,
     -32.11701993
    ]
   },
   "properties": {
    "name": "79A BARRINGTON STREET LAKE COOGEE 6166",
    "locID": "LOC000017011560",
    "tech": "FTTN",
    "upgrade": "FTTP_NA",
    "gnaf_pid": "GAWA_720409070"
   }
  },
  {
   "type": "Feature",
   "geometry": {
    "type": "Point",
    "coordinates": [
     115.78379044,
     -32.12000338
    ]
   },
   "properties": {
    "name": "52F TURFAN WAY LAKE COOGEE 6166",
    "locID": "ChIJc-hxLJWYMioR01BTe6gGU54",
    "tech": "FTTN",
    "upgrade": "UNKNOWN",
    "gnaf_pid": "GAWA_720409071"
   }
  },
  {
   "type": "Feature",
   "geometry": {
    "type": "Point",
    "coordinates": [
     115.78542466,
     -32.12707746
    ]
   },
   "properties": {
    "name": "4 BACICH MEWS LAKE COOGEE 6166",
    "locID": "LOC000089720188",
    "tech": "FTTN",
    "upgrade": "NULL_NA",
    "gnaf_pid": "GAWA_720409073"
   }
  },
  {
   "type": "Feature",
   "geometry": {
    "type": "Point",
    "coordinates": [
     115.78083211,
     -32.12203616
    ]
   },
   "properties": {
    "name": "11 YALGORUP LANE LAKE COOGEE 6166",
    "locID": "LOC000040186124",
    "tech": "FTTN",
    "upgrade": "NULL_NA",
    "gnaf_pid": "GAWA_720409076"
   }
  },
  {
   "type": "Feature",
   "geometry": {
    "type": "Point",
    "coordinates": [
     115.77700952,
     -32.12479011
    ]
   },
   "properties": {
    "name": "9 KOTISINA GARDENS LAKE COOGEE 6166",
    "locID": "LOC000090282516",
    "tech": "FTTN",
    "upgrade": "NULL_NA",
    "gnaf_pid": "GAWA_720409077"
   }
  },
  {
   "type": "Feature",
   "geometry": {
    "type": "Point",
    "coordinates": [
     115.7861228,
     -32.12953746
    ]
   },
   "properties": {
    "name": "UNIT 1, 591 ROCKINGHAM ROAD LAKE COOGEE 6166",
    "locID": "LOC000176493019",
    "tech": "FTTP",
    "upgrade": "NULL_NA",
    "gnaf_pid": "GAWA_720409078"
   }
  },
  {
   "type": "Feature",
   "geometry": {
    "type": "Point",
    "coordinates": [
     115.78017141,
     -32.1208535
    ]
   },
   "properties": {
    "name": "3 SANDFORD AVENUE LAKE COOGEE 6166",
    "locID": "LOC000051734359",
    "tech": "FTTN",
    "upgrade": "NULL_NA",
    "gnaf_pid": "GAWA_720409079"
   }
  },
  {
   "type": "Feature",
   "geometry": {
    "type": "Point",
    "coordinates": [
     115.78428577,
     -32.12252782
    ]
   },
   "properties": {
    "name": "514 ROCKINGHAM ROAD LAKE COOGEE 6166",
    "locID": "LOC000063531598",
    "tech": "FTTN",
    "upgrade": "NULL_NA",
    "gnaf_pid": "GAWA_720409080"
   }
  },
  {
   "type": "Feature",
   "geometry": {
    "type": "Point",
    "coordinates": [
     115.78249325,
     -32.13504002
    ]
   },
   "properties": {
    "name": "17 GICHA CLOSE LAKE COOGEE 6166",
    "locID": "LOC000149833102",
    "tech": "FTTN",
    "upgrade": "NULL_NA",
    "gnaf_pid": "GAWA_720409081"
   }
  },
  {
   "type": "Feature",
   "geometry": {
    "type": "Point",
    "coordinates": [
     115.78478424,
     -32.12385736
    ]
   },
   "properties": {
    "name": "530 ROCKINGHAM ROAD LAKE COOGEE 6166",
    "locID": "LOC000099113209",
    "tech": "FTTN",
    "upgrade": "NULL_NA",
    "gnaf_pid": "GAWA_720409088"
   }
  },
  {
   "type": "Feature",
   "geometry": {
    "type": "Point",
    "coordinates": [
     115.78233837,
     -32.12388033
    ]
   },
   "properties": {
    "name": "UNIT 2, 9 MINGA PLACE LAKE COOGEE 6166",
    "locID": "LOC000092772787",
    "tech": "FTTN",
    "upgrade": "NULL_NA",
    "gnaf_pid": "GAWA_720409089"
   }
  },
  {
   "type": "Feature",
   "geometry": {
    "type": "Point",
    "coordinates": [
     115.78341144,
     -32.11823508
    ]
   },
   "properties": {
    "name": "34 TURFAN WAY LAKE COOGEE 6166",
    "locID": "LOC000083177038",
    "tech": "FTTN",
    "upgrade": "FTTP_NA",
    "gnaf_pid": "GAWA_720409090"
   }
  },
  {
   "type": "Feature",
   "geometry": {
    "type": "Point",
    "coordinates": [
     115.78600365,
     -32.13118162
    ]
   },
   "properties": {
    "name": "3 RIVERINA PARADE LAKE COOGEE 6166",
    "locID": "LOC000132986544",
    "tech": "FTTN",
    "upgrade": "NULL_NA",
    "gnaf_pid": "GAWA_720409091"
   }
  },
  {
   "type": "Feature",
   "geometry": {
    "type": "Point",
    "coordinates": [
     115.78762953,
     -32.11993523
    ]
   },
   "properties": {
    "name": "4 TWAIN CLOSE LAKE COOGEE 6166",
    "locID": "LOC000036279922",
    "tech": "FTTN",
    "upgrade": "FTTP_NA",
    "gnaf_pid": "GAWA_720409093"
   }
  },
  {
   "type": "Feature",
   "geometry": {
    "type": "Point",
    "coordinates": [
     115.78578345,
     -32.13585587
    ]
   },
   "properties": {
    "name": "38 VELALUKA DRIVE LAKE COOGEE 6166",
    "locID": "LOC000182380587",
    "tech": "FTTN",
    "upgrade": "NULL_NA",
    "gnaf_pid": "GAWA_720409095"
   }
  },
  {
   "type": "Feature",
   "geometry": {
    "type": "Point",
    "coordinates": [
     115.78359961,
     -32.12320261
    ]
   },
   "properties": {
    "name": "16 ANKA GARDENS LAKE COOGEE 6166",
    "locID": "LOC000042928658",
    "tech": "FTTN",
    "upgrade": "NULL_NA",
    "gnaf_pid": "GAWA_720409097"
   }
  },
  {
   "type": "Feature",
   "geometry": {
    "type": "Point",
    "coordinates": [
     115.78585664,
     -32.12650801
    ]
   },
   "properties": {
    "name": "562 ROCKINGHAM ROAD LAKE COOGEE 6166",
    "locID": "LOC000062526556",
    "tech": "FTTN",
    "upgrade": "NULL_NA",
    "gnaf_pid": "GAWA_720409098"
   }
  },
  {
   "type": "Feature",
   "geometry": {
    "type": "Point",
    "coordinates": [
     115.7819781,
     -32.12838108
    ]
   },
   "properties": {
    "name": "9 WADING PLACE LAKE COOGEE 6166",
    "locID": "LOC000166507120",
    "tech": "FTTN",
    "upgrade": "NULL_NA",
    "gnaf_pid": "GAWA_720409099"
   }
  },
  {
   "type": "Feature",
   "geometry": {
    "type": "Point",
    "coordinates": [
     115.78264671,
     -32.13424637
    ]
   },
   "properties": {
    "name": "36 WEST CHURCHILL AVENUE LAKE COOGEE 6166",
    "locID": "LOC000072517092",
    "tech": "FTTN",
    "upgrade": "NULL_NA",
    "gnaf_pid": "GAWA_720409102"
   }
  },
  {
   "type": "Feature",
   "geometry": {
    "type": "Point",
    "coordinates": [
     115.78527154,
     -32.12645517
    ]
   },
   "properties": {
    "name": "1A BACICH MEWS LAKE COOGEE 6166",
    "locID": "LOC000050323440",
    "tech": "FTTN",
    "upgrade": "NULL_NA",
    "gnaf_pid": "GAWA_720409106"
   }
  },
  {
   "type": "Feature",
   "geometry": {
    "type": "Point",
    "coordinates": [
     115.78714511,
     -32.13175124
    ]
   },
   "properties": {
    "name": "6 RAKITNO CLOSE LAKE COOGEE 6166",
    "locID": "LOC000177587877",
    "tech": "FTTN",
    "upgrade": "NULL_NA",
    "gnaf_pid": "GAWA_720409109"
   }
  },
  {
   "type": "Feature",
   "geometry": {
    "type": "Point",
    "coordinates": [
     115.78392762,
     -32.12069261
    ]
   },
   "properties": {
    "name": "60 TURFAN WAY LAKE COOGEE 6166",
    "locID": "LOC000082152575",
    "tech": "FTTN",
    "upgrade": "FTTP_NA",
    "gnaf_pid": "GAWA_720409112"
   }
  },
  {
   "type": "Feature",
   "geometry": {
    "type": "Point",
    "coordinates": [
     115.78697849,
     -32.13622612
    ]
   },
   "properties": {
    "name": "9 KAPULA WAY LAKE COOGEE 6166",
    "locID": "LOC000149825628",
    "tech": "FTTN",
    "upgrade": "NULL_NA",
    "gnaf_pid": "GAWA_720409121"
   }
  },
  {
   "type": "Feature",
   "geometry": {
    "type": "Point",
    "coordinates": [
     115.79163782,
     -32.11805997
    ]
   },
   "properties": {
    "name": "UNIT 3, 22 BERSON COURT LAKE COOGEE 6166",
    "locID": "LOC000055930266",
    "tech": "FTTN",
    "upgrade": "NULL_NA",
    "gnaf_pid": "GAWA_720409123"
   }
  },
  {
   "type": "Feature",
   "geometry": {
    "type": "Point",
    "coordinates": [
     115.78692399,
     -32.13030173
    ]
   },
   "properties": {
    "name": "6 KEEPER VISTA LAKE COOGEE 6166",
    "locID": "LOC000184526800",
    "tech": "FTTP",
    "upgrade": "NULL_NA",
    "gnaf_pid": "GAWA_720409128"
   }
  },
  {
   "type": "Feature",
   "geometry": {
    "type": "Point",
    "coordinates": [
     115.77853733,
     -32.13030103
    ]
   },
   "properties": {
    "name": "8 INGRILLI COURT LAKE COOGEE 6166",
    "locID": "LOC000016257921",
    "tech": "FTTN",
    "upgrade": "NULL_NA",
    "gnaf_pid": "GAWA_720409130"
   }
  },
  {
   "type": "Feature",
   "geometry": {
    "type": "Point",
    "coordinates": [
     115.78802717,
     -32.11951663
    ]
   },
   "properties": {
    "name": "9 TWAIN CLOSE LAKE COOGEE 6166",
    "locID": "LOC000002156720",
    "tech": "FTTN",
    "upgrade": "FTTP_NA",
    "gnaf_pid": "GAWA_720409131"
   }
  },
  {
   "type": "Feature",
   "geometry": {
    "type": "Point",
    "coordinates": [
     115.79023783,
     -32.1168938
    ]
   },
   "properties": {
    "name": "67 BARRINGTON STREET LAKE COOGEE 6166",
    "locID": "LOC000045261916",
    "tech": "FTTN",
    "upgrade": "FTTP_NA",
    "gnaf_pid": "GAWA_720409134"
   }
  },
  {
   "type": "Feature",
   "geometry": {
    "type": "Point",
    "coordinates": [
     115.78507896,
     -32.13148927
    ]
   },
   "properties": {
    "name": "7 COOGEE ROAD LAKE COOGEE 6166",
    "locID": "LOC100056726811",
    "tech": "FTTN",
    "upgrade": "NULL_NA",
    "gnaf_pid": "GAWA_720409135"
   }
  },
  {
   "type": "Feature",
   "geometry": {
    "type": "Point",
    "coordinates": [
     115.78833769,
     -32.13413415
    ]
   },
   "properties": {
    "name": "UNIT 7, 90 WEST CHURCHILL AVENUE LAKE COOGEE 6166",
    "locID": "LOC000166508474",
    "tech": "FTTN",
    "upgrade": "NULL_NA",
    "gnaf_pid": "GAWA_720409140"
   }
  },
  {
   "type": "Feature",
   "geometry": {
    "type": "Point",
    "coordinates": [
     115.78075482,
     -32.12977641
    ]
   },
   "properties": {
    "name": "42 PRESTON DRIVE LAKE COOGEE 6166",
    "locID": "LOC000110927886",
    "tech": "FTTN",
    "upgrade": "NULL_NA",
    "gnaf_pid": "GAWA_720409142"
   }
  },
  {
   "type": "Feature",
   "geometry": {
    "type": "Point",
    "coordinates": [
     115.78325251,
     -32.12010176
    ]
   },
   "properties": {
    "name": "484 ROCKINGHAM ROAD LAKE COOGEE 6166",
    "locID": "LOC000022835587",
    "tech": "FTTN",
    "upgrade": "FTTP_NA",
    "gnaf_pid": "GAWA_720409148"
   }
  },
  {
   "type": "Feature",
   "geometry": {
    "type": "Point",
    "coordinates": [
     115.78809572,
     -32.13422591
    ]
   },
   "properties": {
    "name": "UNIT 2, 90 WEST CHURCHILL AVENUE LAKE COOGEE 6166",
    "locID": "LOC000166508314",
    "tech": "FTTN",
    "upgrade": "NULL_NA",
    "gnaf_pid": "GAWA_720409158"
   }
  },
  {
   "type": "Feature",
   "geometry": {
    "type": "Point",
    "coordinates": [
     115.78622195,
     -32.12643743
    ]
   },
   "properties": {
    "name": "16 BECKETT CLOSE LAKE COOGEE 6166",
    "locID": "LOC000064495484",
    "tech": "FTTN",
    "upgrade": "NULL_NA",
    "gnaf_pid": "GAWA_720409160"
   }
  },
  {
   "type": "Feature",
   "geometry": {
    "type": "Point",
    "coordinates": [
     115.78529411,
     -32.12890044
    ]
   },
   "properties": {
    "name": "583 ROCKINGHAM ROAD LAKE COOGEE 6166",
    "locID": "LOC000034677124",
    "tech": "FTTN",
    "upgrade": "NULL_NA",
    "gnaf_pid": "GAWA_720409161"
   }
  },
  {
   "type": "Feature",
   "geometry": {
    "type": "Point",
    "coordinates": [
     115.78049211,
     -32.1361235
    ]
   },
   "properties": {
    "name": "44 ALBION AVENUE LAKE COOGEE 6166",
    "locID": "LOC000132994010",
    "tech": "FTTN",
    "upgrade": "NULL_NA",
    "gnaf_pid": "GAWA_720409163"
   }
  },
  {
   "type": "Feature",
   "geometry": {
    "type": "Point",
    "coordinates": [
     115.77626715,
     -32.12537041
    ]
   },
   "properties": {
    "name": "4 ARECA CLOSE LAKE COOGEE 6166",
    "locID": "LOC000069170878",
    "tech": "FTTN",
    "upgrade": "NULL_NA",
    "gnaf_pid": "GAWA_720409164"
   }
  },
  {
   "type": "Feature",
   "geometry": {
    "type": "Point",
    "coordinates": [
     115.78631761,
     -32.13433484
    ]
   },
   "properties": {
    "name": "UNIT 6, 70 WEST CHURCHILL AVENUE LAKE COOGEE 6166",
    "locID": "LOC000177087122",
    "tech": "FTTN",
    "upgrade": "NULL_NA",
    "gnaf_pid": "GAWA_720409165"
   }
  },
  {
   "type": "Feature",
   "geometry": {
    "type": "Point",
    "coordinates": [
     115.78332381,
     -32.12502536
    ]
   },
   "properties": {
    "name": "9B GARBIN PLACE LAKE COOGEE 6166",
    "locID": "LOC000071662575",
    "tech": "FTTN",
    "upgrade": "NULL_NA",
    "gnaf_pid": "GAWA_720409167"
   }
  },
  {
   "type": "Feature",
   "geometry": {
    "type": "Point",
    "coordinates": [
     115.78657263,
     -32.13649382
    ]
   },
   "properties": {
    "name": "1 PROLOG LINK LAKE COOGEE 6166",
    "locID": "LOC000149825491",
    "tech": "FTTN",
    "upgrade": "NULL_NA",
    "gnaf_pid": "GAWA_720409170"
   }
  },
  {
   "type": "Feature",
   "geometry": {
    "type": "Point",
    "coordinates": [
     115.783189,
     -32.12438867
    ]
   },
   "properties": {
    "name": "9 OKRA COURT LAKE COOGEE 6166",
    "locID": "LOC000058373249",
    "tech": "FTTN",
    "upgrade": "NULL_NA",
    "gnaf_pid": "GAWA_720409171"
   }
  },
  {
   "type": "Feature",
   "geometry": {
    "type": "Point",
    "coordinates": [
     115.7891831,
     -32.1172219
    ]
   },
   "properties": {
    "name": "54 MARVELL AVENUE LAKE COOGEE 6166",
    "locID": "LOC000037410280",
    "tech": "FTTN",
    "upgrade": "FTTP_NA",
    "gnaf_pid": "GAWA_720409173"
   }
  },
  {
   "type": "Feature",
   "geometry": {
    "type": "Point",
    "coordinates": [
     115.78161788,
     -32.12294362
    ]
   },
   "properties": {
    "name": "36 HAMELIN DRIVE LAKE COOGEE 6166",
    "locID": "LOC000054456361",
    "tech": "FTTN",
    "upgrade": "NULL_NA",
    "gnaf_pid": "GAWA_720409174"
   }
  },
  {
   "type": "Feature",
   "geometry": {
    "type": "Point",
    "coordinates": [
     115.78285554,
     -32.13855228
    ]
   },
   "properties": {
    "name": "14 KORCULA COURT LAKE COOGEE 6166",
    "locID": "LOC000132971261",
    "tech": "FTTN",
    "upgrade": "NULL_NA",
    "gnaf_pid": "GAWA_720409175"
   }
  },
  {
   "type": "Feature",
   "geometry": {
    "type": "Point",
    "coordinates": [
     115.78495715,
     -32.13771098
    ]
   },
   "properties": {
    "name": "73 COOGEE ROAD LAKE COOGEE 6166",
    "locID": "LOC000012874200",
    "tech": "FTTN",
    "upgrade": "NULL_NA",
    "gnaf_pid": "GAWA_720409180"
   }
  },
  {
   "type": "Feature",
   "geometry": {
    "type": "Point",
    "coordinates": [
     115.7826455,
     -32.13854541
    ]
   },
   "properties": {
    "name": "16 KORCULA COURT LAKE COOGEE 6166",
    "locID": "LOC000132971371",
    "tech": "FTTN",
    "upgrade": "NULL_NA",
    "gnaf_pid": "GAWA_720409181"
   }
  },
  {
   "type": "Feature",
   "geometry": {
    "type": "Point",
    "coordinates": [
     115.78476995,
     -32.11819731
    ]
   },
   "properties": {
    "name": "31 BLONDELL DRIVE LAKE COOGEE 6166",
    "locID": "LOC000077593034",
    "tech": "FTTN",
    "upgrade": "FTTP_NA",
    "gnaf_pid": "GAWA_720409182"
   }
  },
  {
   "type": "Feature",
   "geometry": {
    "type": "Point",
    "coordinates": [
     115.78861393,
     -32.11764945
    ]
   },
   "properties": {
    "name": "57 MARVELL AVENUE LAKE COOGEE 6166",
    "locID": "LOC000071904422",
    "tech": "FTTN",
    "upgrade": "FTTP_NA",
    "gnaf_pid": "GAWA_720409187"
   }
  },
  {
   "type": "Feature",
   "geometry": {
    "type": "Point",
    "coordinates": [
     115.78382898,
     -32.12426805
    ]
   },
   "properties": {
    "name": "5 OKRA COURT LAKE COOGEE 6166",
    "locID": "LOC000022890201",
    "tech": "FTTN",
    "upgrade": "NULL_NA",
    "gnaf_pid": "GAWA_720409188"
   }
  },
  {
   "type": "Feature",
   "geometry": {
    "type": "Point",
    "coordinates": [
     115.78026841,
     -32.12128685
    ]
   },
   "properties": {
    "name": "4 SANDFORD AVENUE LAKE COOGEE 6166",
    "locID": "LOC000046469486",
    "tech": "FTTN",
    "upgrade": "NULL_NA",
    "gnaf_pid": "GAWA_720409189"
   }
  },
  {
   "type": "Feature",
   "geometry": {
    "type": "Point",
    "coordinates": [
     115.78522653,
     -32.12217002
    ]
   },
   "properties": {
    "name": "122 MARVELL AVENUE LAKE COOGEE 6166",
    "locID": "LOC000056914299",
    "tech": "FTTN",
    "upgrade": "NULL_NA",
    "gnaf_pid": "GAWA_720409191"
   }
  },
  {
   "type": "Feature",
   "geometry": {
    "type": "Point",
    "coordinates": [
     115.78464584,
     -32.12510517
    ]
   },
   "properties": {
    "name": "541B ROCKINGHAM ROAD LAKE COOGEE 6166",
    "locID": "LOC000166501329",
    "tech": "FTTN",
    "upgrade": "NULL_NA",
    "gnaf_pid": "GAWA_720409192"
   }
  },
  {
   "type": "Feature",
   "geometry": {
    "type": "Point",
    "coordinates": [
     115.78556464,
     -32.1172231
    ]
   },
   "properties": {
    "name": "6 TURFAN WAY LAKE COOGEE 6166",
    "locID": "LOC000088516286",
    "tech": "FTTN",
    "upgrade": "FTTP_NA",
    "gnaf_pid": "GAWA_720409194"
   }
  },
  {
   "type": "Feature",
   "geometry": {
    "type": "Point",
    "coordinates": [
     115.78034741,
     -32.12667013
    ]
   },
   "properties": {
    "name": "UNIT 6, 19 APIUM MEWS LAKE COOGEE 6166",
    "locID": "LOC000132990041",
    "tech": "FTTN",
    "upgrade": "NULL_NA",
    "gnaf_pid": "GAWA_720409195"
   }
  },
  {
   "type": "Feature",
   "geometry": {
    "type": "Point",
    "coordinates": [
     115.77594431,
     -32.1261623
    ]
   },
   "properties": {
    "name": "48 MAYOR ROAD LAKE COOGEE 6166",
    "locID": "LOC000102466078",
    "tech": "FTTN",
    "upgrade": "NULL_NA",
    "gnaf_pid": "GAWA_720409197"
   }
  },
  {
   "type": "Feature",
   "geometry": {
    "type": "Point",
    "coordinates": [
     115.78955051,
     -32.1178041
    ]
   },
   "properties": {
    "name": "17 KIPLING STREET LAKE COOGEE 6166",
    "locID": "LOC000024453039",
    "tech": "FTTN",
    "upgrade": "FTTP_NA",
    "gnaf_pid": "GAWA_720409198"
   }
  },
  {
   "type": "Feature",
   "geometry": {
    "type": "Point",
    "coordinates": [
     115.78941315,
     -32.12248235
    ]
   },
   "properties": {
    "name": "30 SHELLEY WAY LAKE COOGEE 6166",
    "locID": "LOC000059710144",
    "tech": "FTTN",
    "upgrade": "NULL_NA",
    "gnaf_pid": "GAWA_720409200"
   }
  },
  {
   "type": "Feature",
   "geometry": {
    "type": "Point",
    "coordinates": [
     115.78510397,
     -32.11904609
    ]
   },
   "properties": {
    "name": "21 BLONDELL DRIVE LAKE COOGEE 6166",
    "locID": "LOC000095982151",
    "tech": "FTTN",
    "upgrade": "FTTP_NA",
    "gnaf_pid": "GAWA_720409201"
   }
  },
  {
   "type": "Feature",
   "geometry": {
    "type": "Point",
    "coordinates": [
     115.78927073,
     -32.12222148
    ]
   },
   "properties": {
    "name": "26 FORSTER PLACE LAKE COOGEE 6166",
    "locID": "LOC000086540495",
    "tech": "FTTN",
    "upgrade": "NULL_NA",
    "gnaf_pid": "GAWA_720409204"
   }
  },
  {
   "type": "Feature",
   "geometry": {
    "type": "Point",
    "coordinates": [
     115.77940278,
     -32.12265028
    ]
   },
   "properties": {
    "name": "10 PALLARUP BRACE LAKE COOGEE 6166",
    "locID": "LOC000086413818",
    "tech": "FTTN",
    "upgrade": "NULL_NA",
    "gnaf_pid": "GAWA_720409205"
   }
  },
  {
   "type": "Feature",
   "geometry": {
    "type": "Point",
    "coordinates": [
     115.77709217,
     -32.12405432
    ]
   },
   "properties": {
    "name": "8 GIUFFRE PLACE LAKE COOGEE 6166",
    "locID": "LOC000076887518",
    "tech": "FTTN",
    "upgrade": "NULL_NA",
    "gnaf_pid": "GAWA_720409207"
   }
  },
  {
   "type": "Feature",
   "geometry": {
    "type": "Point",
    "coordinates": [
     115.78173105,
     -32.12092634
    ]
   },
   "properties": {
    "name": "7 HAMELIN DRIVE LAKE COOGEE 6166",
    "locID": "LOC000050153222",
    "tech": "FTTN",
    "upgrade": "NULL_NA",
    "gnaf_pid": "GAWA_720409211"
   }
  },
  {
   "type": "Feature",
   "geometry": {
    "type": "Point",
    "coordinates": [
     115.78300405,
     -32.12520475
    ]
   },
   "properties": {
    "name": "21B MUSULIN RISE LAKE COOGEE 6166",
    "locID": "LOC000032004766",
    "tech": "FTTN",
    "upgrade": "NULL_NA",
    "gnaf_pid": "GAWA_720409212"
   }
  },
  {
   "type": "Feature",
   "geometry": {
    "type": "Point",
    "coordinates": [
     115.78311913,
     -32.12839071
    ]
   },
   "properties": {
    "name": "12 DUSKY COURT LAKE COOGEE 6166",
    "locID": "LOC000182285524",
    "tech": "FTTP",
    "upgrade": "NULL_NA",
    "gnaf_pid": "GAWA_720409215"
   }
  },
  {
   "type": "Feature",
   "geometry": {
    "type": "Point",
    "coordinates": [
     115.78443421,
     -32.13858139
    ]
   },
   "properties": {
    "name": "2 KORCULA COURT LAKE COOGEE 6166",
    "locID": "LOC000132979146",
    "tech": "FTTN",
    "upgrade": "NULL_NA",
    "gnaf_pid": "GAWA_720409216"
   }
  },
  {
   "type": "Feature",
   "geometry": {
    "type": "Point",
    "coordinates": [
     115.78504196,
     -32.12973408
    ]
   },
   "properties": {
    "name": "14 MONGER ROAD LAKE COOGEE 6166",
    "locID": "LOC000149839709",
    "tech": "FTTN",
    "upgrade": "NULL_NA",
    "gnaf_pid": "GAWA_720409223"
   }
  },
  {
   "type": "Feature",
   "geometry": {
    "type": "Point",
    "coordinates": [
     115.78727465,
     -32.12939611
    ]
   },
   "properties": {
    "name": "584B ROCKINGHAM ROAD LAKE COOGEE 6166",
    "locID": "LOC000099259497",
    "tech": "FTTN",
    "upgrade": "NULL_NA",
    "gnaf_pid": "GAWA_720409224"
   }
  },
  {
   "type": "Feature",
   "geometry": {
    "type": "Point",
    "coordinates": [
     115.78303529,
     -32.11738561
    ]
   },
   "properties": {
    "name": "456A ROCKINGHAM ROAD LAKE COOGEE 6166",
    "locID": "LOC000084083794",
    "tech": "FTTN",
    "upgrade": "FTTP_NA",
    "gnaf_pid": "GAWA_720409230"
   }
  },
  {
   "type": "Feature",
   "geometry": {
    "type": "Point",
    "coordinates": [
     115.77702154,
     -32.12145968
    ]
   },
   "properties": {
    "name": "376 HAMILTON ROAD LAKE COOGEE 6166",
    "locID": "LOC000036668724",
    "tech": "FTTN",
    "upgrade": "NULL_NA",
    "gnaf_pid": "GAWA_720409233"
   }
  },
  {
   "type": "Feature",
   "geometry": {
    "type": "Point",
    "coordinates": [
     115.78532827,
     -32.11763281
    ]
   },
   "properties": {
    "name": "22 BLONDELL DRIVE LAKE COOGEE 6166",
    "locID": "LOC000017116887",
    "tech": "FTTN",
    "upgrade": "FTTP_NA",
    "gnaf_pid": "GAWA_720409234"
   }
  },
  {
   "type": "Feature",
   "geometry": {
    "type": "Point",
    "coordinates": [
     115.78001048,
     -32.12778397
    ]
   },
   "properties": {
    "name": "UNIT 5, 18 APIUM MEWS LAKE COOGEE 6166",
    "locID": "LOC000132989960",
    "tech": "FTTN",
    "upgrade": "NULL_NA",
    "gnaf_pid": "GAWA_720409237"
   }
  },
  {
   "type": "Feature",
   "geometry": {
    "type": "Point",
    "coordinates": [
     115.7852423,
     -32.12412855
    ]
   },
   "properties": {
    "name": "22 MARLOWE PLACE LAKE COOGEE 6166",
    "locID": "LOC000089322184",
    "tech": "FTTN",
    "upgrade": "NULL_NA",
    "gnaf_pid": "GAWA_720409240"
   }
  },
  {
   "type": "Feature",
   "geometry": {
    "type": "Point",
    "coordinates": [
     115.78631761,
     -32.13433484
    ]
   },
   "properties": {
    "name": "UNIT 18, 70 WEST CHURCHILL AVENUE LAKE COOGEE 6166",
    "locID": "LOC100074931725",
    "tech": "FTTN",
    "upgrade": "NULL_NA",
    "gnaf_pid": "GAWA_720409241"
   }
  },
  {
   "type": "Feature",
   "geometry": {
    "type": "Point",
    "coordinates": [
     115.77871273,
     -32.1298039
    ]
   },
   "properties": {
    "name": "42 INGRILLI COURT LAKE COOGEE 6166",
    "locID": "LOC000181176194",
    "tech": "FTTP",
    "upgrade": "NULL_NA",
    "gnaf_pid": "GAWA_720409251"
   }
  },
  {
   "type": "Feature",
   "geometry": {
    "type": "Point",
    "coordinates": [
     115.77642733,
     -32.12402978
    ]
   },
   "properties": {
    "name": "UNIT 2, 14 GIUFFRE PLACE LAKE COOGEE 6166",
    "locID": "LOC000023749829",
    "tech": "FTTN",
    "upgrade": "NULL_NA",
    "gnaf_pid": "GAWA_720409253"
   }
  },
  {
   "type": "Feature",
   "geometry": {
    "type": "Point",
    "coordinates": [
     115.78839847,
     -32.13501948
    ]
   },
   "properties": {
    "name": "630 ROCKINGHAM ROAD LAKE COOGEE 6166",
    "locID": "LOC000018180872",
    "tech": "FTTN",
    "upgrade": "NULL_NA",
    "gnaf_pid": "GAWA_720409254"
   }
  },
  {
   "type": "Feature",
   "geometry": {
    "type": "Point",
    "coordinates": [
     115.78791241,
     -32.130069
    ]
   },
   "properties": {
    "name": "58 LIGHTHOUSE VIEW LAKE COOGEE 6166",
    "locID": "LOC000184526703",
    "tech": "FTTP",
    "upgrade": "NULL_NA",
    "gnaf_pid": "GAWA_720409256"
   }
  },
  {
   "type": "Feature",
   "geometry": {
    "type": "Point",
    "coordinates": [
     115.79059424,
     -32.1215406
    ]
   },
   "properties": {
    "name": "11 SHELLEY WAY LAKE COOGEE 6166",
    "locID": "LOC000008615045",
    "tech": "FTTN",
    "upgrade": "FTTP_NA",
    "gnaf_pid": "GAWA_720409258"
   }
  },
  {
   "type": "Feature",
   "geometry": {
    "type": "Point",
    "coordinates": [
     115.78493154,
     -32.13720042
    ]
   },
   "properties": {
    "name": "67 COOGEE ROAD LAKE COOGEE 6166",
    "locID": "LOC000110721707",
    "tech": "FTTN",
    "upgrade": "NULL_NA",
    "gnaf_pid": "GAWA_720409260"
   }
  },
  {
   "type": "Feature",
   "geometry": {
    "type": "Point",
    "coordinates": [
     115.78859032,
     -32.12039943
    ]
   },
   "properties": {
    "name": "83 MARVELL AVENUE LAKE COOGEE 6166",
    "locID": "LOC000035264205",
    "tech": "FTTN",
    "upgrade": "FTTP_NA",
    "gnaf_pid": "GAWA_720409261"
   }
  },
  {
   "type": "Feature",
   "geometry": {
    "type": "Point",
    "coordinates": [
     115.77709245,
     -32.12371078
    ]
   },
   "properties": {
    "name": "27 KOTISINA GARDENS LAKE COOGEE 6166",
    "locID": "LOC000036544266",
    "tech": "FTTN",
    "upgrade": "NULL_NA",
    "gnaf_pid": "GAWA_720409267"
   }
  },
  {
   "type": "Feature",
   "geometry": {
    "type": "Point",
    "coordinates": [
     115.77625973,
     -32.12337282
    ]
   },
   "properties": {
    "name": "UNIT 1, 38 KOTISINA GARDENS LAKE COOGEE 6166",
    "locID": "LOC000058026525",
    "tech": "FTTN",
    "upgrade": "NULL_NA",
    "gnaf_pid": "GAWA_720409268"
   }
  },
  {
   "type": "Feature",
   "geometry": {
    "type": "Point",
    "coordinates": [
     115.78048657,
     -32.12666955
    ]
   },
   "properties": {
    "name": "UNIT 1, 27 APIUM MEWS LAKE COOGEE 6166",
    "locID": "LOC000149831866",
    "tech": "FTTN",
    "upgrade": "NULL_NA",
    "gnaf_pid": "GAWA_720409274"
   }
  },
  {
   "type": "Feature",
   "geometry": {
    "type": "Point",
    "coordinates": [
     115.78608254,
     -32.12285338
    ]
   },
   "properties": {
    "name": "8 FROST CLOSE LAKE COOGEE 6166",
    "locID": "LOC000046111978",
    "tech": "FTTN",
    "upgrade": "NULL_NA",
    "gnaf_pid": "GAWA_720409275"
   }
  },
  {
   "type": "Feature",
   "geometry": {
    "type": "Point",
    "coordinates": [
     115.78044525,
     -32.12128453
    ]
   },
   "properties": {
    "name": "6 SANDFORD AVENUE LAKE COOGEE 6166",
    "locID": "LOC000017287415",
    "tech": "FTTN",
    "upgrade": "NULL_NA",
    "gnaf_pid": "GAWA_720409285"
   }
  },
  {
   "type": "Feature",
   "geometry": {
    "type": "Point",
    "coordinates": [
     115.78207975,
     -32.13457569
    ]
   },
   "properties": {
    "name": "26 GICHA CLOSE LAKE COOGEE 6166",
    "locID": "LOC000149832610",
    "tech": "FTTN",
    "upgrade": "NULL_NA",
    "gnaf_pid": "GAWA_720409287"
   }
  },
  {
   "type": "Feature",
   "geometry": {
    "type": "Point",
    "coordinates": [
     115.78534821,
     -32.13289848
    ]
   },
   "properties": {
    "name": "UNIT 2, 28 RIVERINA PARADE LAKE COOGEE 6166",
    "locID": "LOC000027035817",
    "tech": "FTTN",
    "upgrade": "NULL_NA",
    "gnaf_pid": "GAWA_720409289"
   }
  },
  {
   "type": "Feature",
   "geometry": {
    "type": "Point",
    "coordinates": [
     115.7831488,
     -32.11692096
    ]
   },
   "properties": {
    "name": "1 BARRINGTON STREET LAKE COOGEE 6166",
    "locID": "LOC000112310564",
    "tech": "FTTN",
    "upgrade": "FTTP_NA",
    "gnaf_pid": "GAWA_720409290"
   }
  },
  {
   "type": "Feature",
   "geometry": {
    "type": "Point",
    "coordinates": [
     115.78073485,
     -32.12714971
    ]
   },
   "properties": {
    "name": "UNIT 6, 27 APIUM MEWS LAKE COOGEE 6166",
    "locID": "LOC000149831911",
    "tech": "FTTN",
    "upgrade": "NULL_NA",
    "gnaf_pid": "GAWA_720409291"
   }
  },
  {
   "type": "Feature",
   "geometry": {
    "type": "Point",
    "coordinates": [
     115.77720574,
     -32.12209349
    ]
   },
   "properties": {
    "name": "6 GUMINA PLACE LAKE COOGEE 6166",
    "locID": "LOC000032740316",
    "tech": "FTTN",
    "upgrade": "NULL_NA",
    "gnaf_pid": "GAWA_720409293"
   }
  },
  {
   "type": "Feature",
   "geometry": {
    "type": "Point",
    "coordinates": [
     115.77951523,
     -32.13660334
    ]
   },
   "properties": {
    "name": "50 ALBION AVENUE LAKE COOGEE 6166",
    "locID": "LOC000132994236",
    "tech": "FTTN",
    "upgrade": "NULL_NA",
    "gnaf_pid": "GAWA_720409298"
   }
  },
  {
   "type": "Feature",
   "geometry": {
    "type": "Point",
    "coordinates": [
     115.78537829,
     -32.13013279
    ]
   },
   "properties": {
    "name": "7 CARINE PARADE LAKE COOGEE 6166",
    "locID": "LOC000149838577",
    "tech": "FTTN",
    "upgrade": "NULL_NA",
    "gnaf_pid": "GAWA_720409301"
   }
  },
  {
   "type": "Feature",
   "geometry": {
    "type": "Point",
    "coordinates": [
     115.78852929,
     -32.13584494
    ]
   },
   "properties": {
    "name": "638B ROCKINGHAM ROAD LAKE COOGEE 6166",
    "locID": "LOC000090821813",
    "tech": "FTTN",
    "upgrade": "NULL_NA",
    "gnaf_pid": "GAWA_720409302"
   }
  },
  {
   "type": "Feature",
   "geometry": {
    "type": "Point",
    "coordinates": [
     115.78532616,
     -32.11722691
    ]
   },
   "properties": {
    "name": "8 TURFAN WAY LAKE COOGEE 6166",
    "locID": "LOC000100269545",
    "tech": "FTTN",
    "upgrade": "FTTP_NA",
    "gnaf_pid": "GAWA_720409305"
   }
  },
  {
   "type": "Feature",
   "geometry": {
    "type": "Point",
    "coordinates": [
     115.78378918,
     -32.12497616
    ]
   },
   "properties": {
    "name": "13 GARBIN PLACE LAKE COOGEE 6166",
    "locID": "LOC000050549256",
    "tech": "FTTN",
    "upgrade": "NULL_NA",
    "gnaf_pid": "GAWA_720409309"
   }
  },
  {
   "type": "Feature",
   "geometry": {
    "type": "Point",
    "coordinates": [
     115.78419468,
     -32.13015067
    ]
   },
   "properties": {
    "name": "12 ERIE LANE LAKE COOGEE 6166",
    "locID": "LOC100074893890",
    "tech": "FTTN",
    "upgrade": "NULL_NA",
    "gnaf_pid": "GAWA_720409313"
   }
  },
  {
   "type": "Feature",
   "geometry": {
    "type": "Point",
    "coordinates": [
     115.77728319,
     -32.12371016
    ]
   },
   "properties": {
    "name": "25 KOTISINA GARDENS LAKE COOGEE 6166",
    "locID": "LOC000050982090",
    "tech": "FTTN",
    "upgrade": "NULL_NA",
    "gnaf_pid": "GAWA_720409315"
   }
  },
  {
   "type": "Feature",
   "geometry": {
    "type": "Point",
    "coordinates": [
     115.78613033,
     -32.13511547
    ]
   },
   "properties": {
    "name": "49 TEMPLETONIA RISE LAKE COOGEE 6166",
    "locID": "LOC000166505307",
    "tech": "FTTN",
    "upgrade": "NULL_NA",
    "gnaf_pid": "GAWA_720409316"
   }
  },
  {
   "type": "Feature",
   "geometry": {
    "type": "Point",
    "coordinates": [
     115.77771319,
     -32.12568054
    ]
   },
   "properties": {
    "name": "9 ATWELL CLOSE LAKE COOGEE 6166",
    "locID": "LOC000055431182",
    "tech": "FTTN",
    "upgrade": "NULL_NA",
    "gnaf_pid": "GAWA_720409318"
   }
  },
  {
   "type": "Feature",
   "geometry": {
    "type": "Point",
    "coordinates": [
     115.77766413,
     -32.123275
    ]
   },
   "properties": {
    "name": "26 KOTISINA GARDENS LAKE COOGEE 6166",
    "locID": "LOC000082305836",
    "tech": "FTTN",
    "upgrade": "NULL_NA",
    "gnaf_pid": "GAWA_720409320"
   }
  },
  {
   "type": "Feature",
   "geometry": {
    "type": "Point",
    "coordinates": [
     115.78860577,
     -32.11805256
    ]
   },
   "properties": {
    "name": "61 MARVELL AVENUE LAKE COOGEE 6166",
    "locID": "LOC000039114580",
    "tech": "FTTN",
    "upgrade": "FTTP_NA",
    "gnaf_pid": "GAWA_720409321"
   }
  },
  {
   "type": "Feature",
   "geometry": {
    "type": "Point",
    "coordinates": [
     115.78853646,
     -32.12303088
    ]
   },
   "properties": {
    "name": "46 NOYES PLACE LAKE COOGEE 6166",
    "locID": "LOC000007059745",
    "tech": "FTTN",
    "upgrade": "NULL_NA",
    "gnaf_pid": "GAWA_720409323"
   }
  },
  {
   "type": "Feature",
   "geometry": {
    "type": "Point",
    "coordinates": [
     115.78795577,
     -32.11693445
    ]
   },
   "properties": {
    "name": "47 BARRINGTON STREET LAKE COOGEE 6166",
    "locID": "LOC000029510209",
    "tech": "FTTN",
    "upgrade": "FTTP_NA",
    "gnaf_pid": "GAWA_720409328"
   }
  },
  {
   "type": "Feature",
   "geometry": {
    "type": "Point",
    "coordinates": [
     115.78765127,
     -32.11847641
    ]
   },
   "properties": {
    "name": "10 LAWSON PLACE LAKE COOGEE 6166",
    "locID": "LOC000090488821",
    "tech": "FTTN",
    "upgrade": "FTTP_NA",
    "gnaf_pid": "GAWA_720409329"
   }
  },
  {
   "type": "Feature",
   "geometry": {
    "type": "Point",
    "coordinates": [
     115.77768606,
     -32.12170225
    ]
   },
   "properties": {
    "name": "7 GUMINA PLACE LAKE COOGEE 6166",
    "locID": "LOC000133000636",
    "tech": "FTTN",
    "upgrade": "NULL_NA",
    "gnaf_pid": "GAWA_720409333"
   }
  },
  {
   "type": "Feature",
   "geometry": {
    "type": "Point",
    "coordinates": [
     115.78718791,
     -32.13619273
    ]
   },
   "properties": {
    "name": "7 KAPULA WAY LAKE COOGEE 6166",
    "locID": "LOC000177926350",
    "tech": "FTTN",
    "upgrade": "NULL_NA",
    "gnaf_pid": "GAWA_720409334"
   }
  },
  {
   "type": "Feature",
   "geometry": {
    "type": "Point",
    "coordinates": [
     115.7813448,
     -32.12305156
    ]
   },
   "properties": {
    "name": "37 LESCHENAULT BOULEVARD LAKE COOGEE 6166",
    "locID": "LOC000017161893",
    "tech": "FTTN",
    "upgrade": "NULL_NA",
    "gnaf_pid": "GAWA_720409338"
   }
  },
  {
   "type": "Feature",
   "geometry": {
    "type": "Point",
    "coordinates": [
     115.79156308,
     -32.11719748
    ]
   },
   "properties": {
    "name": "39 KIPLING STREET LAKE COOGEE 6166",
    "locID": "LOC000010484484",
    "tech": "FTTN",
    "upgrade": "FTTP_NA",
    "gnaf_pid": "GAWA_720409339"
   }
  },
  {
   "type": "Feature",
   "geometry": {
    "type": "Point",
    "coordinates": [
     115.78721525,
     -32.12704272
    ]
   },
   "properties": {
    "name": "9 BECKETT CLOSE LAKE COOGEE 6166",
    "locID": "LOC000062444514",
    "tech": "FTTN",
    "upgrade": "NULL_NA",
    "gnaf_pid": "GAWA_720409341"
   }
  },
  {
   "type": "Feature",
   "geometry": {
    "type": "Point",
    "coordinates": [
     115.78547214,
     -32.13132773
    ]
   },
   "properties": {
    "name": "6 RIVERINA PARADE LAKE COOGEE 6166",
    "locID": "LOC000025607134",
    "tech": "FTTN",
    "upgrade": "NULL_NA",
    "gnaf_pid": "GAWA_720409344"
   }
  },
  {
   "type": "Feature",
   "geometry": {
    "type": "Point",
    "coordinates": [
     115.78556767,
     -32.12340117
    ]
   },
   "properties": {
    "name": "13 MARLOWE PLACE LAKE COOGEE 6166",
    "locID": "LOC000012002835",
    "tech": "FTTN",
    "upgrade": "NULL_NA",
    "gnaf_pid": "GAWA_720409348"
   }
  },
  {
   "type": "Feature",
   "geometry": {
    "type": "Point",
    "coordinates": [
     115.78816521,
     -32.13668506
    ]
   },
   "properties": {
    "name": "663 ROCKINGHAM ROAD LAKE COOGEE 6166",
    "locID": "LOC000149825265",
    "tech": "FTTN",
    "upgrade": "NULL_NA",
    "gnaf_pid": "GAWA_720409351"
   }
  },
  {
   "type": "Feature",
   "geometry": {
    "type": "Point",
    "coordinates": [
     115.78408752,
     -32.13461479
    ]
   },
   "properties": {
    "name": "4 GICHA CLOSE LAKE COOGEE 6166",
    "locID": "LOC000112000555",
    "tech": "FTTN",
    "upgrade": "NULL_NA",
    "gnaf_pid": "GAWA_720409354"
   }
  },
  {
   "type": "Feature",
   "geometry": {
    "type": "Point",
    "coordinates": [
     115.78495602,
     -32.13509942
    ]
   },
   "properties": {
    "name": "43 COOGEE ROAD LAKE COOGEE 6166",
    "locID": "LOC000020328370",
    "tech": "FTTN",
    "upgrade": "NULL_NA",
    "gnaf_pid": "GAWA_720409357"
   }
  },
  {
   "type": "Feature",
   "geometry": {
    "type": "Point",
    "coordinates": [
     115.7852787,
     -32.13720033
    ]
   },
   "properties": {
    "name": "17 VELALUKA DRIVE LAKE COOGEE 6166",
    "locID": "LOC000132975381",
    "tech": "FTTN",
    "upgrade": "NULL_NA",
    "gnaf_pid": "GAWA_720409365"
   }
  },
  {
   "type": "Feature",
   "geometry": {
    "type": "Point",
    "coordinates": [
     115.78717332,
     -32.13749021
    ]
   },
   "properties": {
    "name": "6 FIGTREE AVENUE LAKE COOGEE 6166",
    "locID": "LOC000149825415",
    "tech": "FTTN",
    "upgrade": "NULL_NA",
    "gnaf_pid": "GAWA_720409368"
   }
  },
  {
   "type": "Feature",
   "geometry": {
    "type": "Point",
    "coordinates": [
     115.7876319,
     -32.12021554
    ]
   },
   "properties": {
    "name": "34 FENIMORE AVENUE LAKE COOGEE 6166",
    "locID": "LOC000019906521",
    "tech": "FTTN",
    "upgrade": "FTTP_NA",
    "gnaf_pid": "GAWA_720409369"
   }
  },
  {
   "type": "Feature",
   "geometry": {
    "type": "Point",
    "coordinates": [
     115.78420917,
     -32.13510552
    ]
   },
   "properties": {
    "name": "3A GICHA CLOSE LAKE COOGEE 6166",
    "locID": "LOC000132990330",
    "tech": "FTTN",
    "upgrade": "NULL_NA",
    "gnaf_pid": "GAWA_720409370"
   }
  },
  {
   "type": "Feature",
   "geometry": {
    "type": "Point",
    "coordinates": [
     115.78796307,
     -32.12192214
    ]
   },
   "properties": {
    "name": "99 MARVELL AVENUE LAKE COOGEE 6166",
    "locID": "LOC000044105212",
    "tech": "FTTN",
    "upgrade": "NULL_NA",
    "gnaf_pid": "GAWA_720409371"
   }
  },
  {
   "type": "Feature",
   "geometry": {
    "type": "Point",
    "coordinates": [
     115.78767942,
     -32.13345964
    ]
   },
   "properties": {
    "name": "UNIT 6, 614 ROCKINGHAM ROAD LAKE COOGEE 6166",
    "locID": "LOC000166502223",
    "tech": "FTTN",
    "upgrade": "NULL_NA",
    "gnaf_pid": "GAWA_720409372"
   }
  },
  {
   "type": "Feature",
   "geometry": {
    "type": "Point",
    "coordinates": [
     115.79301099,
     -32.11766002
    ]
   },
   "properties": {
    "name": "24 BROWNING WAY LAKE COOGEE 6166",
    "locID": "LOC000029510025",
    "tech": "FTTN",
    "upgrade": "FTTP_NA",
    "gnaf_pid": "GAWA_720409375"
   }
  },
  {
   "type": "Feature",
   "geometry": {
    "type": "Point",
    "coordinates": [
     115.7867473,
     -32.11846979
    ]
   },
   "properties": {
    "name": "2 LAWSON PLACE LAKE COOGEE 6166",
    "locID": "LOC000063366450",
    "tech": "FTTN",
    "upgrade": "FTTP_NA",
    "gnaf_pid": "GAWA_720409376"
   }
  },
  {
   "type": "Feature",
   "geometry": {
    "type": "Point",
    "coordinates": [
     115.78123489,
     -32.12203637
    ]
   },
   "properties": {
    "name": "20 HAMELIN DRIVE LAKE COOGEE 6166",
    "locID": "LOC000013717837",
    "tech": "FTTN",
    "upgrade": "NULL_NA",
    "gnaf_pid": "GAWA_720409378"
   }
  },
  {
   "type": "Feature",
   "geometry": {
    "type": "Point",
    "coordinates": [
     115.78309505,
     -32.13652078
    ]
   },
   "properties": {
    "name": "3 GIARDINO PLACE LAKE COOGEE 6166",
    "locID": "LOC000187007831",
    "tech": "FTTN",
    "upgrade": "NULL_NA",
    "gnaf_pid": "GAWA_720409382"
   }
  },
  {
   "type": "Feature",
   "geometry": {
    "type": "Point",
    "coordinates": [
     115.78742464,
     -32.13197595
    ]
   },
   "properties": {
    "name": "9 MAGNET CLOSE LAKE COOGEE 6166",
    "locID": "LOC000085552006",
    "tech": "FTTN",
    "upgrade": "NULL_NA",
    "gnaf_pid": "GAWA_720409384"
   }
  },
  {
   "type": "Feature",
   "geometry": {
    "type": "Point",
    "coordinates": [
     115.78493158,
     -32.13807554
    ]
   },
   "properties": {
    "name": "77 COOGEE ROAD LAKE COOGEE 6166",
    "locID": "LOC000133000823",
    "tech": "FTTN",
    "upgrade": "NULL_NA",
    "gnaf_pid": "GAWA_720409388"
   }
  },
  {
   "type": "Feature",
   "geometry": {
    "type": "Point",
    "coordinates": [
     115.78631761,
     -32.13433484
    ]
   },
   "properties": {
    "name": "UNIT 16, 70 WEST CHURCHILL AVENUE LAKE COOGEE 6166",
    "locID": "LOC100074931718",
    "tech": "FTTN",
    "upgrade": "NULL_NA",
    "gnaf_pid": "GAWA_720409389"
   }
  },
  {
   "type": "Feature",
   "geometry": {
    "type": "Point",
    "coordinates": [
     115.78284411,
     -32.13609125
    ]
   },
   "properties": {
    "name": "6 GIARDINO PLACE LAKE COOGEE 6166",
    "locID": "LOC000113448570",
    "tech": "FTTN",
    "upgrade": "NULL_NA",
    "gnaf_pid": "GAWA_720409392"
   }
  },
  {
   "type": "Feature",
   "geometry": {
    "type": "Point",
    "coordinates": [
     115.78858431,
     -32.12342015
    ]
   },
   "properties": {
    "name": "54 SHELLEY WAY LAKE COOGEE 6166",
    "locID": "LOC000057712969",
    "tech": "FTTN",
    "upgrade": "NULL_NA",
    "gnaf_pid": "GAWA_720409397"
   }
  },
  {
   "type": "Feature",
   "geometry": {
    "type": "Point",
    "coordinates": [
     115.78609742,
     -32.11686695
    ]
   },
   "properties": {
    "name": "1 DRYDEN STREET LAKE COOGEE 6166",
    "locID": "LOC000012831937",
    "tech": "FTTN",
    "upgrade": "FTTP_NA",
    "gnaf_pid": "GAWA_720409403"
   }
  },
  {
   "type": "Feature",
   "geometry": {
    "type": "Point",
    "coordinates": [
     115.78340888,
     -32.13313125
    ]
   },
   "properties": {
    "name": "38 RIVERINA PARADE LAKE COOGEE 6166",
    "locID": "LOC000092979495",
    "tech": "FTTN",
    "upgrade": "NULL_NA",
    "gnaf_pid": "GAWA_720409404"
   }
  },
  {
   "type": "Feature",
   "geometry": {
    "type": "Point",
    "coordinates": [
     115.78256247,
     -32.12390351
    ]
   },
   "properties": {
    "name": "7 MINGA PLACE LAKE COOGEE 6166",
    "locID": "LOC000094722803",
    "tech": "FTTN",
    "upgrade": "NULL_NA",
    "gnaf_pid": "GAWA_720409408"
   }
  },
  {
   "type": "Feature",
   "geometry": {
    "type": "Point",
    "coordinates": [
     115.78195607,
     -32.12816468
    ]
   },
   "properties": {
    "name": "13 WADING PLACE LAKE COOGEE 6166",
    "locID": "LOC000175632546",
    "tech": "FTTN",
    "upgrade": "NULL_NA",
    "gnaf_pid": "GAWA_720409410"
   }
  },
  {
   "type": "Feature",
   "geometry": {
    "type": "Point",
    "coordinates": [
     115.7853234,
     -32.11800582
    ]
   },
   "properties": {
    "name": "18 BLONDELL DRIVE LAKE COOGEE 6166",
    "locID": "LOC000071933740",
    "tech": "FTTN",
    "upgrade": "FTTP_NA",
    "gnaf_pid": "GAWA_720409414"
   }
  },
  {
   "type": "Feature",
   "geometry": {
    "type": "Point",
    "coordinates": [
     115.77613377,
     -32.12364944
    ]
   },
   "properties": {
    "name": "37 KOTISINA GARDENS LAKE COOGEE 6166",
    "locID": "LOC000032854859",
    "tech": "FTTN",
    "upgrade": "NULL_NA",
    "gnaf_pid": "GAWA_720409416"
   }
  },
  {
   "type": "Feature",
   "geometry": {
    "type": "Point",
    "coordinates": [
     115.79044549,
     -32.12104517
    ]
   },
   "properties": {
    "name": "8 ORWELL COURT LAKE COOGEE 6166",
    "locID": "LOC000037900912",
    "tech": "FTTN",
    "upgrade": "FTTP_NA",
    "gnaf_pid": "GAWA_720409422"
   }
  },
  {
   "type": "Feature",
   "geometry": {
    "type": "Point",
    "coordinates": [
     115.78686547,
     -32.13138553
    ]
   },
   "properties": {
    "name": "1 RAKITNO CLOSE LAKE COOGEE 6166",
    "locID": "LOC000178699129",
    "tech": "FTTN",
    "upgrade": "NULL_NA",
    "gnaf_pid": "GAWA_720409423"
   }
  },
  {
   "type": "Feature",
   "geometry": {
    "type": "Point",
    "coordinates": [
     115.78217397,
     -32.1360698
    ]
   },
   "properties": {
    "name": "12 GIARDINO PLACE LAKE COOGEE 6166",
    "locID": "LOC000110764477",
    "tech": "FTTN",
    "upgrade": "NULL_NA",
    "gnaf_pid": "GAWA_720409426"
   }
  },
  {
   "type": "Feature",
   "geometry": {
    "type": "Point",
    "coordinates": [
     115.7852203,
     -32.12048419
    ]
   },
   "properties": {
    "name": "8B PATERSON COURT LAKE COOGEE 6166",
    "locID": "LOC000056896353",
    "tech": "FTTN",
    "upgrade": "FTTP_NA",
    "gnaf_pid": "GAWA_720409427"
   }
  },
  {
   "type": "Feature",
   "geometry": {
    "type": "Point",
    "coordinates": [
     115.78676666,
     -32.11943063
    ]
   },
   "properties": {
    "name": "26 FENIMORE AVENUE LAKE COOGEE 6166",
    "locID": "LOC000081163935",
    "tech": "FTTN",
    "upgrade": "FTTP_NA",
    "gnaf_pid": "GAWA_720409429"
   }
  },
  {
   "type": "Feature",
   "geometry": {
    "type": "Point",
    "coordinates": [
     115.78559095,
     -32.12449114
    ]
   },
   "properties": {
    "name": "22 ASQUITH STREET LAKE COOGEE 6166",
    "locID": "LOC000074772367",
    "tech": "FTTN",
    "upgrade": "NULL_NA",
    "gnaf_pid": "GAWA_720409431"
   }
  },
  {
   "type": "Feature",
   "geometry": {
    "type": "Point",
    "coordinates": [
     115.78566995,
     -32.12765764
    ]
   },
   "properties": {
    "name": "10A BACICH MEWS LAKE COOGEE 6166",
    "locID": "LOC000069103712",
    "tech": "FTTN",
    "upgrade": "NULL_NA",
    "gnaf_pid": "GAWA_720409433"
   }
  },
  {
   "type": "Feature",
   "geometry": {
    "type": "Point",
    "coordinates": [
     115.78054348,
     -32.12963869
    ]
   },
   "properties": {
    "name": "11 DONNELLY STREET LAKE COOGEE 6166",
    "locID": "LOC000112073268",
    "tech": "FTTN",
    "upgrade": "NULL_NA",
    "gnaf_pid": "GAWA_720409435"
   }
  },
  {
   "type": "Feature",
   "geometry": {
    "type": "Point",
    "coordinates": [
     115.78665351,
     -32.13309643
    ]
   },
   "properties": {
    "name": "UNIT 3, 2 YERILLA GATE LAKE COOGEE 6166",
    "locID": "LOC000033728055",
    "tech": "FTTN",
    "upgrade": "NULL_NA",
    "gnaf_pid": "GAWA_720409436"
   }
  },
  {
   "type": "Feature",
   "geometry": {
    "type": "Point",
    "coordinates": [
     115.78724337,
     -32.12994378
    ]
   },
   "properties": {
    "name": "9 KEEPER VISTA LAKE COOGEE 6166",
    "locID": "LOC000184526648",
    "tech": "FTTP",
    "upgrade": "NULL_NA",
    "gnaf_pid": "GAWA_720409437"
   }
  },
  {
   "type": "Feature",
   "geometry": {
    "type": "Point",
    "coordinates": [
     115.77644627,
     -32.12374646
    ]
   },
   "properties": {
    "name": "33 KOTISINA GARDENS LAKE COOGEE 6166",
    "locID": "LOC000069414468",
    "tech": "FTTN",
    "upgrade": "NULL_NA",
    "gnaf_pid": "GAWA_720409439"
   }
  },
  {
   "type": "Feature",
   "geometry": {
    "type": "Point",
    "coordinates": [
     115.78954641,
     -32.11945254
    ]
   },
   "properties": {
    "name": "3 KIPLING STREET LAKE COOGEE 6166",
    "locID": "LOC000080145660",
    "tech": "FTTN",
    "upgrade": "FTTP_NA",
    "gnaf_pid": "GAWA_720409441"
   }
  },
  {
   "type": "Feature",
   "geometry": {
    "type": "Point",
    "coordinates": [
     115.78083104,
     -32.12192338
    ]
   },
   "properties": {
    "name": "13 YALGORUP LANE LAKE COOGEE 6166",
    "locID": "LOC000090810341",
    "tech": "FTTN",
    "upgrade": "NULL_NA",
    "gnaf_pid": "GAWA_720409443"
   }
  },
  {
   "type": "Feature",
   "geometry": {
    "type": "Point",
    "coordinates": [
     115.7858048,
     -32.12531157
    ]
   },
   "properties": {
    "name": "4 BECKETT CLOSE LAKE COOGEE 6166",
    "locID": "LOC000078999590",
    "tech": "FTTN",
    "upgrade": "NULL_NA",
    "gnaf_pid": "GAWA_720409446"
   }
  },
  {
   "type": "Feature",
   "geometry": {
    "type": "Point",
    "coordinates": [
     115.77625554,
     -32.123217
    ]
   },
   "properties": {
    "name": "394B HAMILTON ROAD LAKE COOGEE 6166",
    "locID": "LOC000047828292",
    "tech": "FTTN",
    "upgrade": "NULL_NA",
    "gnaf_pid": "GAWA_720409452"
   }
  },
  {
   "type": "Feature",
   "geometry": {
    "type": "Point",
    "coordinates": [
     115.78522949,
     -32.12469732
    ]
   },
   "properties": {
    "name": "26 ASQUITH STREET LAKE COOGEE 6166",
    "locID": "LOC000071086964",
    "tech": "FTTN",
    "upgrade": "NULL_NA",
    "gnaf_pid": "GAWA_720409453"
   }
  },
  {
   "type": "Feature",
   "geometry": {
    "type": "Point",
    "coordinates": [
     115.78304468,
     -32.11895819
    ]
   },
   "properties": {
    "name": "472 ROCKINGHAM ROAD LAKE COOGEE 6166",
    "locID": "LOC000045282057",
    "tech": "FTTN",
    "upgrade": "FTTP_NA",
    "gnaf_pid": "GAWA_720409456"
   }
  },
  {
   "type": "Feature",
   "geometry": {
    "type": "Point",
    "coordinates": [
     115.78539398,
     -32.13035791
    ]
   },
   "properties": {
    "name": "3 CARINE PARADE LAKE COOGEE 6166",
    "locID": "ChIJ9XXbnuiYMioRuyKFbVTeeL8",
    "tech": "FTTN",
    "upgrade": "UNKNOWN",
    "gnaf_pid": "GAWA_720409458"
   }
  },
  {
   "type": "Feature",
   "geometry": {
    "type": "Point",
    "coordinates": [
     115.78284405,
     -32.13581178
    ]
   },
   "properties": {
    "name": "5 FIORE COURT LAKE COOGEE 6166",
    "locID": "LOC000113514017",
    "tech": "FTTN",
    "upgrade": "NULL_NA",
    "gnaf_pid": "GAWA_720409461"
   }
  },
  {
   "type": "Feature",
   "geometry": {
    "type": "Point",
    "coordinates": [
     115.78725192,
     -32.12910588
    ]
   },
   "properties": {
    "name": "582 ROCKINGHAM ROAD LAKE COOGEE 6166",
    "locID": "LOC000014660542",
    "tech": "FTTN",
    "upgrade": "NULL_NA",
    "gnaf_pid": "GAWA_720409463"
   }
  },
  {
   "type": "Feature",
   "geometry": {
    "type": "Point",
    "coordinates": [
     115.78447213,
     -32.1329142
    ]
   },
   "properties": {
    "name": "20 COOGEE ROAD LAKE COOGEE 6166",
    "locID": "LOC000027149253",
    "tech": "FTTN",
    "upgrade": "NULL_NA",
    "gnaf_pid": "GAWA_720409472"
   }
  },
  {
   "type": "Feature",
   "geometry": {
    "type": "Point",
    "coordinates": [
     115.77828667,
     -32.12408437
    ]
   },
   "properties": {
    "name": "4 CEPA COURT LAKE COOGEE 6166",
    "locID": "LOC000002072469",
    "tech": "FTTN",
    "upgrade": "NULL_NA",
    "gnaf_pid": "GAWA_720409476"
   }
  },
  {
   "type": "Feature",
   "geometry": {
    "type": "Point",
    "coordinates": [
     115.77747365,
     -32.12405072
    ]
   },
   "properties": {
    "name": "4 GIUFFRE PLACE LAKE COOGEE 6166",
    "locID": "LOC000015253858",
    "tech": "FTTN",
    "upgrade": "NULL_NA",
    "gnaf_pid": "GAWA_720409482"
   }
  },
  {
   "type": "Feature",
   "geometry": {
    "type": "Point",
    "coordinates": [
     115.78753562,
     -32.13711812
    ]
   },
   "properties": {
    "name": "9 FIGTREE AVENUE LAKE COOGEE 6166",
    "locID": "LOC000149825462",
    "tech": "FTTN",
    "upgrade": "NULL_NA",
    "gnaf_pid": "GAWA_720409483"
   }
  },
  {
   "type": "Feature",
   "geometry": {
    "type": "Point",
    "coordinates": [
     115.78594724,
     -32.13362623
    ]
   },
   "properties": {
    "name": "UNIT 1, 27 RIVERINA PARADE LAKE COOGEE 6166",
    "locID": "LOC000132993932",
    "tech": "FTTN",
    "upgrade": "NULL_NA",
    "gnaf_pid": "GAWA_720409485"
   }
  },
  {
   "type": "Feature",
   "geometry": {
    "type": "Point",
    "coordinates": [
     115.78252145,
     -32.13651964
    ]
   },
   "properties": {
    "name": "9 GIARDINO PLACE LAKE COOGEE 6166",
    "locID": "LOC000112288710",
    "tech": "FTTN",
    "upgrade": "NULL_NA",
    "gnaf_pid": "GAWA_720409486"
   }
  },
  {
   "type": "Feature",
   "geometry": {
    "type": "Point",
    "coordinates": [
     115.78159345,
     -32.13627344
    ]
   },
   "properties": {
    "name": "34 ALBION AVENUE LAKE COOGEE 6166",
    "locID": "LOC000132986674",
    "tech": "FTTN",
    "upgrade": "NULL_NA",
    "gnaf_pid": "GAWA_720409487"
   }
  },
  {
   "type": "Feature",
   "geometry": {
    "type": "Point",
    "coordinates": [
     115.78124259,
     -32.12076954
    ]
   },
   "properties": {
    "name": "6 HAMELIN DRIVE LAKE COOGEE 6166",
    "locID": "LOC000058138373",
    "tech": "FTTN",
    "upgrade": "NULL_NA",
    "gnaf_pid": "GAWA_720409492"
   }
  },
  {
   "type": "Feature",
   "geometry": {
    "type": "Point",
    "coordinates": [
     115.77769369,
     -32.12157191
    ]
   },
   "properties": {
    "name": "7A GUMINA PLACE LAKE COOGEE 6166",
    "locID": "LOC000133000868",
    "tech": "FTTN",
    "upgrade": "NULL_NA",
    "gnaf_pid": "GAWA_720409494"
   }
  },
  {
   "type": "Feature",
   "geometry": {
    "type": "Point",
    "coordinates": [
     115.78418228,
     -32.13054185
    ]
   },
   "properties": {
    "name": "4 ERIE LANE LAKE COOGEE 6166",
    "locID": "LOC000149838916",
    "tech": "FTTN",
    "upgrade": "NULL_NA",
    "gnaf_pid": "GAWA_720409502"
   }
  },
  {
   "type": "Feature",
   "geometry": {
    "type": "Point",
    "coordinates": [
     115.78401094,
     -32.1350884
    ]
   },
   "properties": {
    "name": "5B GICHA CLOSE LAKE COOGEE 6166",
    "locID": "LOC000132997309",
    "tech": "FTTN",
    "upgrade": "NULL_NA",
    "gnaf_pid": "GAWA_720409504"
   }
  },
  {
   "type": "Feature",
   "geometry": {
    "type": "Point",
    "coordinates": [
     115.77642733,
     -32.12402978
    ]
   },
   "properties": {
    "name": "UNIT 1, 14 GIUFFRE PLACE LAKE COOGEE 6166",
    "locID": "LOC000023702962",
    "tech": "FTTN",
    "upgrade": "NULL_NA",
    "gnaf_pid": "GAWA_720409505"
   }
  },
  {
   "type": "Feature",
   "geometry": {
    "type": "Point",
    "coordinates": [
     115.7854948,
     -32.13054727
    ]
   },
   "properties": {
    "name": "10 YINDI WAY LAKE COOGEE 6166",
    "locID": "LOC000189023344",
    "tech": "FTTN",
    "upgrade": "NULL_NA",
    "gnaf_pid": "GAWA_720409506"
   }
  },
  {
   "type": "Feature",
   "geometry": {
    "type": "Point",
    "coordinates": [
     115.78797891,
     -32.136204
    ]
   },
   "properties": {
    "name": "657 ROCKINGHAM ROAD LAKE COOGEE 6166",
    "locID": "LOC000149825692",
    "tech": "FTTN",
    "upgrade": "NULL_NA",
    "gnaf_pid": "GAWA_720409511"
   }
  },
  {
   "type": "Feature",
   "geometry": {
    "type": "Point",
    "coordinates": [
     115.78445541,
     -32.11986555
    ]
   },
   "properties": {
    "name": "4 JESSICA COURT LAKE COOGEE 6166",
    "locID": "LOC000003033823",
    "tech": "FTTN",
    "upgrade": "FTTP_NA",
    "gnaf_pid": "GAWA_720409512"
   }
  },
  {
   "type": "Feature",
   "geometry": {
    "type": "Point",
    "coordinates": [
     115.79294061,
     -32.1172198
    ]
   },
   "properties": {
    "name": "37 BROWNING WAY LAKE COOGEE 6166",
    "locID": "LOC000084873328",
    "tech": "FTTN",
    "upgrade": "FTTP_NA",
    "gnaf_pid": "GAWA_720409513"
   }
  },
  {
   "type": "Feature",
   "geometry": {
    "type": "Point",
    "coordinates": [
     115.78842201,
     -32.11693268
    ]
   },
   "properties": {
    "name": "51 BARRINGTON STREET LAKE COOGEE 6166",
    "locID": "LOC000081450110",
    "tech": "FTTN",
    "upgrade": "FTTP_NA",
    "gnaf_pid": "GAWA_720409514"
   }
  },
  {
   "type": "Feature",
   "geometry": {
    "type": "Point",
    "coordinates": [
     115.77645786,
     -32.12614909
    ]
   },
   "properties": {
    "name": "54 MAYOR ROAD LAKE COOGEE 6166",
    "locID": "LOC000084057564",
    "tech": "FTTN",
    "upgrade": "NULL_NA",
    "gnaf_pid": "GAWA_720409516"
   }
  },
  {
   "type": "Feature",
   "geometry": {
    "type": "Point",
    "coordinates": [
     115.78537011,
     -32.13000208
    ]
   },
   "properties": {
    "name": "9 CARINE PARADE LAKE COOGEE 6166",
    "locID": "LOC000149838169",
    "tech": "FTTN",
    "upgrade": "NULL_NA",
    "gnaf_pid": "GAWA_720409517"
   }
  },
  {
   "type": "Feature",
   "geometry": {
    "type": "Point",
    "coordinates": [
     115.78748105,
     -32.13507298
    ]
   },
   "properties": {
    "name": "647 ROCKINGHAM ROAD LAKE COOGEE 6166",
    "locID": "LOC000149825573",
    "tech": "FTTN",
    "upgrade": "NULL_NA",
    "gnaf_pid": "GAWA_720409518"
   }
  },
  {
   "type": "Feature",
   "geometry": {
    "type": "Point",
    "coordinates": [
     115.79003252,
     -32.12116094
    ]
   },
   "properties": {
    "name": "5 SHELLEY WAY LAKE COOGEE 6166",
    "locID": "LOC000044777126",
    "tech": "FTTN",
    "upgrade": "FTTP_NA",
    "gnaf_pid": "GAWA_720409521"
   }
  },
  {
   "type": "Feature",
   "geometry": {
    "type": "Point",
    "coordinates": [
     115.78659245,
     -32.13261904
    ]
   },
   "properties": {
    "name": "627 ROCKINGHAM ROAD LAKE COOGEE 6166",
    "locID": "LOC000094700812",
    "tech": "FTTN",
    "upgrade": "NULL_NA",
    "gnaf_pid": "GAWA_720409522"
   }
  },
  {
   "type": "Feature",
   "geometry": {
    "type": "Point",
    "coordinates": [
     115.79039085,
     -32.11848535
    ]
   },
   "properties": {
    "name": "13 BERSON COURT LAKE COOGEE 6166",
    "locID": "LOC000070539235",
    "tech": "FTTN",
    "upgrade": "FTTP_NA",
    "gnaf_pid": "GAWA_720409527"
   }
  },
  {
   "type": "Feature",
   "geometry": {
    "type": "Point",
    "coordinates": [
     115.78499097,
     -32.13312773
    ]
   },
   "properties": {
    "name": "25 COOGEE ROAD LAKE COOGEE 6166",
    "locID": "LOC000054494065",
    "tech": "FTTN",
    "upgrade": "NULL_NA",
    "gnaf_pid": "GAWA_720409528"
   }
  },
  {
   "type": "Feature",
   "geometry": {
    "type": "Point",
    "coordinates": [
     115.78875055,
     -32.12191993
    ]
   },
   "properties": {
    "name": "94 MARVELL AVENUE LAKE COOGEE 6166",
    "locID": "LOC000056363532",
    "tech": "FTTN",
    "upgrade": "NULL_NA",
    "gnaf_pid": "GAWA_720409530"
   }
  },
  {
   "type": "Feature",
   "geometry": {
    "type": "Point",
    "coordinates": [
     115.78734253,
     -32.12216128
    ]
   },
   "properties": {
    "name": "105 MARVELL AVENUE LAKE COOGEE 6166",
    "locID": "LOC000055770910",
    "tech": "FTTN",
    "upgrade": "NULL_NA",
    "gnaf_pid": "GAWA_720409532"
   }
  },
  {
   "type": "Feature",
   "geometry": {
    "type": "Point",
    "coordinates": [
     115.7775587,
     -32.12987177
    ]
   },
   "properties": {
    "name": "22 INGRILLI COURT LAKE COOGEE 6166",
    "locID": "LOC000175388550",
    "tech": "FTTN",
    "upgrade": "NULL_NA",
    "gnaf_pid": "GAWA_720409534"
   }
  },
  {
   "type": "Feature",
   "geometry": {
    "type": "Point",
    "coordinates": [
     115.77821389,
     -32.1302894
    ]
   },
   "properties": {
    "name": "12 INGRILLI COURT LAKE COOGEE 6166",
    "locID": "ChIJp-JgHcOYMioRssgTfAehywA",
    "tech": "FTTN",
    "upgrade": "UNKNOWN",
    "gnaf_pid": "GAWA_720409536"
   }
  },
  {
   "type": "Feature",
   "geometry": {
    "type": "Point",
    "coordinates": [
     115.78118615,
     -32.13070608
    ]
   },
   "properties": {
    "name": "25 FAWCETT ROAD LAKE COOGEE 6166",
    "locID": "LOC000077971217",
    "tech": "FTTN",
    "upgrade": "NULL_NA",
    "gnaf_pid": "GAWA_720409543"
   }
  },
  {
   "type": "Feature",
   "geometry": {
    "type": "Point",
    "coordinates": [
     115.78425679,
     -32.11772405
    ]
   },
   "properties": {
    "name": "13 TURFAN WAY LAKE COOGEE 6166",
    "locID": "LOC000007940830",
    "tech": "FTTN",
    "upgrade": "FTTP_NA",
    "gnaf_pid": "GAWA_720409544"
   }
  },
  {
   "type": "Feature",
   "geometry": {
    "type": "Point",
    "coordinates": [
     115.78822084,
     -32.11848206
    ]
   },
   "properties": {
    "name": "13 LAWSON PLACE LAKE COOGEE 6166",
    "locID": "LOC000101639730",
    "tech": "FTTN",
    "upgrade": "FTTP_NA",
    "gnaf_pid": "GAWA_720409550"
   }
  },
  {
   "type": "Feature",
   "geometry": {
    "type": "Point",
    "coordinates": [
     115.7834062,
     -32.13583739
    ]
   },
   "properties": {
    "name": "17 SYNDICATE LINK LAKE COOGEE 6166",
    "locID": "LOC000111550571",
    "tech": "FTTN",
    "upgrade": "NULL_NA",
    "gnaf_pid": "GAWA_720409552"
   }
  },
  {
   "type": "Feature",
   "geometry": {
    "type": "Point",
    "coordinates": [
     115.78294364,
     -32.13457567
    ]
   },
   "properties": {
    "name": "14 GICHA CLOSE LAKE COOGEE 6166",
    "locID": "LOC000113790927",
    "tech": "FTTN",
    "upgrade": "NULL_NA",
    "gnaf_pid": "GAWA_720409554"
   }
  },
  {
   "type": "Feature",
   "geometry": {
    "type": "Point",
    "coordinates": [
     115.78631761,
     -32.13433484
    ]
   },
   "properties": {
    "name": "UNIT 19, 70 WEST CHURCHILL AVENUE LAKE COOGEE 6166",
    "locID": "LOC100074931739",
    "tech": "FTTN",
    "upgrade": "NULL_NA",
    "gnaf_pid": "GAWA_720409556"
   }
  },
  {
   "type": "Feature",
   "geometry": {
    "type": "Point",
    "coordinates": [
     115.78422696,
     -32.13858206
    ]
   },
   "properties": {
    "name": "4 KORCULA COURT LAKE COOGEE 6166",
    "locID": "LOC000132990395",
    "tech": "FTTN",
    "upgrade": "NULL_NA",
    "gnaf_pid": "GAWA_720409557"
   }
  },
  {
   "type": "Feature",
   "geometry": {
    "type": "Point",
    "coordinates": [
     115.78905557,
     -32.12113841
    ]
   },
   "properties": {
    "name": "86 MARVELL AVENUE LAKE COOGEE 6166",
    "locID": "LOC000007791114",
    "tech": "FTTN",
    "upgrade": "FTTP_NA",
    "gnaf_pid": "GAWA_720409560"
   }
  },
  {
   "type": "Feature",
   "geometry": {
    "type": "Point",
    "coordinates": [
     115.78086023,
     -32.12322543
    ]
   },
   "properties": {
    "name": "38 LESCHENAULT BOULEVARD LAKE COOGEE 6166",
    "locID": "LOC000090447570",
    "tech": "FTTN",
    "upgrade": "NULL_NA",
    "gnaf_pid": "GAWA_720409561"
   }
  },
  {
   "type": "Feature",
   "geometry": {
    "type": "Point",
    "coordinates": [
     115.78422237,
     -32.13730273
    ]
   },
   "properties": {
    "name": "3 ALBION AVENUE LAKE COOGEE 6166",
    "locID": "LOC000132986460",
    "tech": "FTTN",
    "upgrade": "NULL_NA",
    "gnaf_pid": "GAWA_720409565"
   }
  },
  {
   "type": "Feature",
   "geometry": {
    "type": "Point",
    "coordinates": [
     115.78430792,
     -32.124565
    ]
   },
   "properties": {
    "name": "2 OKRA COURT LAKE COOGEE 6166",
    "locID": "LOC000132979151",
    "tech": "FTTN",
    "upgrade": "NULL_NA",
    "gnaf_pid": "GAWA_720409568"
   }
  },
  {
   "type": "Feature",
   "geometry": {
    "type": "Point",
    "coordinates": [
     115.78392196,
     -32.12324438
    ]
   },
   "properties": {
    "name": "517 ROCKINGHAM ROAD LAKE COOGEE 6166",
    "locID": "LOC000050332663",
    "tech": "FTTN",
    "upgrade": "NULL_NA",
    "gnaf_pid": "GAWA_720409572"
   }
  },
  {
   "type": "Feature",
   "geometry": {
    "type": "Point",
    "coordinates": [
     115.78508993,
     -32.13236998
    ]
   },
   "properties": {
    "name": "UNIT 2, 17 COOGEE ROAD LAKE COOGEE 6166",
    "locID": "LOC000007086721",
    "tech": "FTTN",
    "upgrade": "NULL_NA",
    "gnaf_pid": "GAWA_720409573"
   }
  },
  {
   "type": "Feature",
   "geometry": {
    "type": "Point",
    "coordinates": [
     115.78304222,
     -32.11859747
    ]
   },
   "properties": {
    "name": "468 ROCKINGHAM ROAD LAKE COOGEE 6166",
    "locID": "LOC000009606903",
    "tech": "FTTN",
    "upgrade": "FTTP_NA",
    "gnaf_pid": "GAWA_720409574"
   }
  },
  {
   "type": "Feature",
   "geometry": {
    "type": "Point",
    "coordinates": [
     115.79076581,
     -32.11723469
    ]
   },
   "properties": {
    "name": "33 KIPLING STREET LAKE COOGEE 6166",
    "locID": "LOC000055092623",
    "tech": "FTTN",
    "upgrade": "FTTP_NA",
    "gnaf_pid": "GAWA_720409578"
   }
  },
  {
   "type": "Feature",
   "geometry": {
    "type": "Point",
    "coordinates": [
     115.7865723,
     -32.11694353
    ]
   },
   "properties": {
    "name": "2 DRYDEN STREET LAKE COOGEE 6166",
    "locID": "LOC000058206584",
    "tech": "FTTN",
    "upgrade": "FTTP_NA",
    "gnaf_pid": "GAWA_720409579"
   }
  },
  {
   "type": "Feature",
   "geometry": {
    "type": "Point",
    "coordinates": [
     115.78760311,
     -32.11922041
    ]
   },
   "properties": {
    "name": "8 AUSTEN STREET LAKE COOGEE 6166",
    "locID": "LOC000058259450",
    "tech": "FTTN",
    "upgrade": "FTTP_NA",
    "gnaf_pid": "GAWA_720409582"
   }
  },
  {
   "type": "Feature",
   "geometry": {
    "type": "Point",
    "coordinates": [
     115.78954718,
     -32.11908279
    ]
   },
   "properties": {
    "name": "7 KIPLING STREET LAKE COOGEE 6166",
    "locID": "LOC000065668283",
    "tech": "FTTN",
    "upgrade": "FTTP_NA",
    "gnaf_pid": "GAWA_720409583"
   }
  },
  {
   "type": "Feature",
   "geometry": {
    "type": "Point",
    "coordinates": [
     115.78196029,
     -32.12827397
    ]
   },
   "properties": {
    "name": "11 WADING PLACE LAKE COOGEE 6166",
    "locID": "LOC000180214964",
    "tech": "FTTN",
    "upgrade": "NULL_NA",
    "gnaf_pid": "GAWA_720409586"
   }
  },
  {
   "type": "Feature",
   "geometry": {
    "type": "Point",
    "coordinates": [
     115.7862606,
     -32.13287195
    ]
   },
   "properties": {
    "name": "23 RIVERINA PARADE LAKE COOGEE 6166",
    "locID": "LOC000017082494",
    "tech": "FTTN",
    "upgrade": "NULL_NA",
    "gnaf_pid": "GAWA_720409587"
   }
  },
  {
   "type": "Feature",
   "geometry": {
    "type": "Point",
    "coordinates": [
     115.78113205,
     -32.12341804
    ]
   },
   "properties": {
    "name": "44 LESCHENAULT BOULEVARD LAKE COOGEE 6166",
    "locID": "LOC000058218750",
    "tech": "FTTN",
    "upgrade": "NULL_NA",
    "gnaf_pid": "GAWA_720409589"
   }
  },
  {
   "type": "Feature",
   "geometry": {
    "type": "Point",
    "coordinates": [
     115.78548039,
     -32.13198395
    ]
   },
   "properties": {
    "name": "14B RIVERINA PARADE LAKE COOGEE 6166",
    "locID": "LOC000149821668",
    "tech": "FTTN",
    "upgrade": "NULL_NA",
    "gnaf_pid": "GAWA_720409593"
   }
  },
  {
   "type": "Feature",
   "geometry": {
    "type": "Point",
    "coordinates": [
     115.78383656,
     -32.13183419
    ]
   },
   "properties": {
    "name": "7 RADONICH WAY LAKE COOGEE 6166",
    "locID": "LOC000007916078",
    "tech": "FTTN",
    "upgrade": "NULL_NA",
    "gnaf_pid": "GAWA_720409594"
   }
  },
  {
   "type": "Feature",
   "geometry": {
    "type": "Point",
    "coordinates": [
     115.78509481,
     -32.11723307
    ]
   },
   "properties": {
    "name": "10 TURFAN WAY LAKE COOGEE 6166",
    "locID": "LOC000092506993",
    "tech": "FTTN",
    "upgrade": "FTTP_NA",
    "gnaf_pid": "GAWA_720409598"
   }
  },
  {
   "type": "Feature",
   "geometry": {
    "type": "Point",
    "coordinates": [
     115.77767134,
     -32.12411623
    ]
   },
   "properties": {
    "name": "2 GIUFFRE PLACE LAKE COOGEE 6166",
    "locID": "LOC000031485857",
    "tech": "FTTN",
    "upgrade": "NULL_NA",
    "gnaf_pid": "GAWA_720409600"
   }
  },
  {
   "type": "Feature",
   "geometry": {
    "type": "Point",
    "coordinates": [
     115.78623878,
     -32.13362611
    ]
   },
   "properties": {
    "name": "7 YERILLA GATE LAKE COOGEE 6166",
    "locID": "Eio3IFllcmlsbGEgR2F0ZSwgTXVuc3RlciBXQSA2MTY2LCBBdXN0cmFsaWEiMBIuChQKEgktbPSG5pgyKhHJfVyTxtaY5hAHKhQKEgnFxAtr5pgyKhFnz5b-SbMDgg",
    "tech": "FTTN",
    "upgrade": "UNKNOWN",
    "gnaf_pid": "GAWA_720409601"
   }
  },
  {
   "type": "Feature",
   "geometry": {
    "type": "Point",
    "coordinates": [
     115.7927727,
     -32.11890552
    ]
   },
   "properties": {
    "name": "36 BROWNING WAY LAKE COOGEE 6166",
    "locID": "LOC000105273598",
    "tech": "FTTN",
    "upgrade": "FTTP_NA",
    "gnaf_pid": "GAWA_720409606"
   }
  },
  {
   "type": "Feature",
   "geometry": {
    "type": "Point",
    "coordinates": [
     115.78032138,
     -32.13446227
    ]
   },
   "properties": {
    "name": "16A WEST CHURCHILL AVENUE LAKE COOGEE 6166",
    "locID": "ChIJkwMTnd2YMioRVQS7FNe5-K4",
    "tech": "FTTN",
    "upgrade": "UNKNOWN",
    "gnaf_pid": "GAWA_720409607"
   }
  },
  {
   "type": "Feature",
   "geometry": {
    "type": "Point",
    "coordinates": [
     115.78684195,
     -32.13462237
    ]
   },
   "properties": {
    "name": "645 ROCKINGHAM ROAD LAKE COOGEE 6166",
    "locID": "LOC000099063359",
    "tech": "FTTN",
    "upgrade": "NULL_NA",
    "gnaf_pid": "GAWA_720409608"
   }
  },
  {
   "type": "Feature",
   "geometry": {
    "type": "Point",
    "coordinates": [
     115.78686677,
     -32.13688522
    ]
   },
   "properties": {
    "name": "4 PROLOG LINK LAKE COOGEE 6166",
    "locID": "LOC000149825443",
    "tech": "FTTN",
    "upgrade": "NULL_NA",
    "gnaf_pid": "GAWA_720409613"
   }
  },
  {
   "type": "Feature",
   "geometry": {
    "type": "Point",
    "coordinates": [
     115.79012307,
     -32.1217431
    ]
   },
   "properties": {
    "name": "12 SHELLEY WAY LAKE COOGEE 6166",
    "locID": "LOC000101264285",
    "tech": "FTTN",
    "upgrade": "FTTP_NA",
    "gnaf_pid": "GAWA_720409615"
   }
  },
  {
   "type": "Feature",
   "geometry": {
    "type": "Point",
    "coordinates": [
     115.78123203,
     -32.1215001
    ]
   },
   "properties": {
    "name": "14 HAMELIN DRIVE LAKE COOGEE 6166",
    "locID": "LOC000102045032",
    "tech": "FTTN",
    "upgrade": "NULL_NA",
    "gnaf_pid": "GAWA_720409616"
   }
  },
  {
   "type": "Feature",
   "geometry": {
    "type": "Point",
    "coordinates": [
     115.77804969,
     -32.13029162
    ]
   },
   "properties": {
    "name": "14 INGRILLI COURT LAKE COOGEE 6166",
    "locID": "LOC000027908895",
    "tech": "FTTN",
    "upgrade": "NULL_NA",
    "gnaf_pid": "GAWA_720409624"
   }
  },
  {
   "type": "Feature",
   "geometry": {
    "type": "Point",
    "coordinates": [
     115.78665351,
     -32.13309643
    ]
   },
   "properties": {
    "name": "UNIT 1, 2 YERILLA GATE LAKE COOGEE 6166",
    "locID": "LOC000033627208",
    "tech": "FTTN",
    "upgrade": "NULL_NA",
    "gnaf_pid": "GAWA_720409630"
   }
  },
  {
   "type": "Feature",
   "geometry": {
    "type": "Point",
    "coordinates": [
     115.78292388,
     -32.13346904
    ]
   },