{
 "type": "FeatureCollection",
 "generated": "2023-10-26T02:02:35.547764",
 "suburb": "LAKE ARGYLE",
 "features": [
  {
   "type": "Feature",
   "geometry": {
    "type": "Point",
    "coordinates": [
     128.84359769,
     -16.03251585
    ]
   },
   "properties": {
    "name": "8 LAKE ARGYLE ROAD LAKE ARGYLE 6743",
    "locID": "LOC000142569231",
    "tech": "SATELLITE",
    "upgrade": "NULL_NA",
    "gnaf_pid": "GAWA_147845548"
   }
  },
  {
   "type": "Feature",
   "geometry": {
    "type": "Point",
    "coordinates": [
     128.84359769,
     -16.03251585
    ]
   },
   "properties": {
    "name": "1 LAKE ARGYLE ROAD LAKE ARGYLE 6743",
    "locID": "LOC000079878130",
    "tech": "SATELLITE",
    "upgrade": "NULL_NA",
    "gnaf_pid": "GAWA_147845550"
   }
  },
  {
   "type": "Feature",
   "geometry": {
    "type": "Point",
    "coordinates": [
     128.29388,
     -16.78744
    ]
   },
   "properties": {
    "name": "LOT 865 GREAT NORTHERN HIGHWAY LAKE ARGYLE 6743",
    "locID": "EjJHcmVhdCBOb3J0aGVybiBId3ksIExha2UgQXJneWxlIFdBIDY3NDMsIEF1c3RyYWxpYSIuKiwKFAoSCS0N-oblmpkrEYKWh7Ee7VW0EhQKEgkxiRle3dabLBFQx3kkOPYABA",
    "tech": "SATELLITE",
    "upgrade": "UNKNOWN",
    "gnaf_pid": "GAWA_161548070"
   }
  },
  {
   "type": "Feature",
   "geometry": {
    "type": "Point",
    "coordinates": [
     128.56578278,
     -16.57498474
    ]
   },
   "properties": {
    "name": "LOT 929 LISSADELL ROAD LAKE ARGYLE 6743",
    "locID": "LOC000133612367",
    "tech": "SATELLITE",
    "upgrade": "NULL_NA",
    "gnaf_pid": "GAWA_161560121"
   }
  },
  {
   "type": "Feature",
   "geometry": {
    "type": "Point",
    "coordinates": [
     128.73916982,
     -16.113832
    ]
   },
   "properties": {
    "name": "LOT 880 LAKE ARGYLE ROAD LAKE ARGYLE 6743",
    "locID": "LOC000142348170",
    "tech": "SATELLITE",
    "upgrade": "NULL_NA",
    "gnaf_pid": "GAWA_162793683"
   }
  },
  {
   "type": "Feature",
   "geometry": {
    "type": "Point",
    "coordinates": [
     128.30886488,
     -16.59873919
    ]
   },
   "properties": {
    "name": "LOT 39 GAWOOLENG STREET LAKE ARGYLE 6743",
    "locID": "LOC000133603910",
    "tech": "SATELLITE",
    "upgrade": "NULL_NA",
    "gnaf_pid": "GAWA_718339530"
   }
  },
  {
   "type": "Feature",
   "geometry": {
    "type": "Point",
    "coordinates": [
     128.30886488,
     -16.59873919
    ]
   },
   "properties": {
    "name": "LOT 41 GAWOOLENG STREET LAKE ARGYLE 6743",
    "locID": "LOC000133603923",
    "tech": "SATELLITE",
    "upgrade": "NULL_NA",
    "gnaf_pid": "GAWA_718339531"
   }
  },
  {
   "type": "Feature",
   "geometry": {
    "type": "Point",
    "coordinates": [
     128.30886488,
     -16.59873919
    ]
   },
   "properties": {
    "name": "LOT 701 GLEN HILL ROAD LAKE ARGYLE 6743",
    "locID": "LOC000133603934",
    "tech": "SATELLITE",
    "upgrade": "NULL_NA",
    "gnaf_pid": "GAWA_718339663"
   }
  },
  {
   "type": "Feature",
   "geometry": {
    "type": "Point",
    "coordinates": [
     128.30886488,
     -16.59873919
    ]
   },
   "properties": {
    "name": "LOT 19 JUNGORANUNG COURT LAKE ARGYLE 6743",
    "locID": "LOC000180598414",
    "tech": "SATELLITE",
    "upgrade": "NULL_NA",
    "gnaf_pid": "GAWA_718340470"
   }
  },
  {
   "type": "Feature",
   "geometry": {
    "type": "Point",
    "coordinates": [
     128.90178469,
     -16.04166279
    ]
   },
   "properties": {
    "name": "LOT 996 LAKE ARGYLE ROAD LAKE ARGYLE 6743",
    "locID": "LOC000142904352",
    "tech": "SATELLITE",
    "upgrade": "NULL_NA",
    "gnaf_pid": "GAWA_718340748"
   }
  },
  {
   "type": "Feature",
   "geometry": {
    "type": "Point",
    "coordinates": [
     128.30886488,
     -16.59873919
    ]
   },
   "properties": {
    "name": "LOT 17 LOOKOUT DRIVE LAKE ARGYLE 6743",
    "locID": "EipMb29rb3V0IERyLCBMYWtlIEFyZ3lsZSBXQSA2NzQzLCBBdXN0cmFsaWEiLiosChQKEgmD06p5WOqbLBFBxdx0UqkB2BIUChIJMYkZXt3WmywRUMd5JDj2AAQ",
    "tech": "SATELLITE",
    "upgrade": "UNKNOWN",
    "gnaf_pid": "GAWA_718340951"
   }
  },
  {
   "type": "Feature",
   "geometry": {
    "type": "Point",
    "coordinates": [
     128.30886488,
     -16.59873919
    ]
   },
   "properties": {
    "name": "LOT 18 LOOKOUT DRIVE LAKE ARGYLE 6743",
    "locID": "EipMb29rb3V0IERyLCBMYWtlIEFyZ3lsZSBXQSA2NzQzLCBBdXN0cmFsaWEiLiosChQKEgmD06p5WOqbLBFBxdx0UqkB2BIUChIJMYkZXt3WmywRUMd5JDj2AAQ",
    "tech": "SATELLITE",
    "upgrade": "UNKNOWN",
    "gnaf_pid": "GAWA_718340952"
   }
  },
  {
   "type": "Feature",
   "geometry": {
    "type": "Point",
    "coordinates": [
     128.30886488,
     -16.59873919
    ]
   },
   "properties": {
    "name": "LOT 10 MCCARDIE ROAD LAKE ARGYLE 6743",
    "locID": "LOC000185107616",
    "tech": "SATELLITE",
    "upgrade": "NULL_NA",
    "gnaf_pid": "GAWA_718341286"
   }
  },
  {
   "type": "Feature",
   "geometry": {
    "type": "Point",
    "coordinates": [
     128.30886488,
     -16.59873919
    ]
   },
   "properties": {
    "name": "LOT 11 MCCARDIE ROAD LAKE ARGYLE 6743",
    "locID": "LOC000185107616",
    "tech": "SATELLITE",
    "upgrade": "NULL_NA",
    "gnaf_pid": "GAWA_718341287"
   }
  },
  {
   "type": "Feature",
   "geometry": {
    "type": "Point",
    "coordinates": [
     128.30886488,
     -16.59873919
    ]
   },
   "properties": {
    "name": "LOT 1 MCCARDIE ROAD LAKE ARGYLE 6743",
    "locID": "LOC000185107616",
    "tech": "SATELLITE",
    "upgrade": "NULL_NA",
    "gnaf_pid": "GAWA_718341288"
   }
  },
  {
   "type": "Feature",
   "geometry": {
    "type": "Point",
    "coordinates": [
     128.30886488,
     -16.59873919
    ]
   },
   "properties": {
    "name": "LOT 26 MCCARDIE ROAD LAKE ARGYLE 6743",
    "locID": "ChIJN6sxRFjqmywR4tbOHdhvfX0",
    "tech": "SATELLITE",
    "upgrade": "UNKNOWN",
    "gnaf_pid": "GAWA_718341289"
   }
  },
  {
   "type": "Feature",
   "geometry": {
    "type": "Point",
    "coordinates": [
     128.30886488,
     -16.59873919
    ]
   },
   "properties": {
    "name": "LOT 28 MCCARDIE ROAD LAKE ARGYLE 6743",
    "locID": "LOC000185107616",
    "tech": "SATELLITE",
    "upgrade": "NULL_NA",
    "gnaf_pid": "GAWA_718341290"
   }
  },
  {
   "type": "Feature",
   "geometry": {
    "type": "Point",
    "coordinates": [
     128.30886488,
     -16.59873919
    ]
   },
   "properties": {
    "name": "LOT 2 MCCARDIE ROAD LAKE ARGYLE 6743",
    "locID": "LOC000185107616",
    "tech": "SATELLITE",
    "upgrade": "NULL_NA",
    "gnaf_pid": "GAWA_718341291"
   }
  },
  {
   "type": "Feature",
   "geometry": {
    "type": "Point",
    "coordinates": [
     128.30886488,
     -16.59873919
    ]
   },
   "properties": {
    "name": "LOT 31 MCCARDIE ROAD LAKE ARGYLE 6743",
    "locID": "LOC000185107616",
    "tech": "SATELLITE",
    "upgrade": "NULL_NA",
    "gnaf_pid": "GAWA_718341292"
   }
  },
  {
   "type": "Feature",
   "geometry": {
    "type": "Point",
    "coordinates": [
     128.30886488,
     -16.59873919
    ]
   },
   "properties": {
    "name": "LOT 3 MCCARDIE ROAD LAKE ARGYLE 6743",
    "locID": "LOC000185107616",
    "tech": "SATELLITE",
    "upgrade": "NULL_NA",
    "gnaf_pid": "GAWA_718341293"
   }
  },
  {
   "type": "Feature",
   "geometry": {
    "type": "Point",
    "coordinates": [
     128.30886488,
     -16.59873919
    ]
   },
   "properties": {
    "name": "LOT 4 MCCARDIE ROAD LAKE ARGYLE 6743",
    "locID": "LOC000185107616",
    "tech": "SATELLITE",
    "upgrade": "NULL_NA",
    "gnaf_pid": "GAWA_718341294"
   }
  },
  {
   "type": "Feature",
   "geometry": {
    "type": "Point",
    "coordinates": [
     128.30886488,
     -16.59873919
    ]
   },
   "properties": {
    "name": "LOT 5 MCCARDIE ROAD LAKE ARGYLE 6743",
    "locID": "LOC000185107616",
    "tech": "SATELLITE",
    "upgrade": "NULL_NA",
    "gnaf_pid": "GAWA_718341295"
   }
  },
  {
   "type": "Feature",
   "geometry": {
    "type": "Point",
    "coordinates": [
     128.30886488,
     -16.59873919
    ]
   },
   "properties": {
    "name": "LOT 6 MCCARDIE ROAD LAKE ARGYLE 6743",
    "locID": "LOC100079748773",
    "tech": "SATELLITE",
    "upgrade": "NULL_NA",
    "gnaf_pid": "GAWA_718341296"
   }
  },
  {
   "type": "Feature",
   "geometry": {
    "type": "Point",
    "coordinates": [
     128.30886488,
     -16.59873919
    ]
   },
   "properties": {
    "name": "LOT 7 MCCARDIE ROAD LAKE ARGYLE 6743",
    "locID": "LOC100079748773",
    "tech": "SATELLITE",
    "upgrade": "NULL_NA",
    "gnaf_pid": "GAWA_718341297"
   }
  },
  {
   "type": "Feature",
   "geometry": {
    "type": "Point",
    "coordinates": [
     128.30886488,
     -16.59873919
    ]
   },
   "properties": {
    "name": "LOT 8 MCCARDIE ROAD LAKE ARGYLE 6743",
    "locID": "LOC000185107616",
    "tech": "SATELLITE",
    "upgrade": "NULL_NA",
    "gnaf_pid": "GAWA_718341298"
   }
  },
  {
   "type": "Feature",
   "geometry": {
    "type": "Point",
    "coordinates": [
     128.30886488,
     -16.59873919
    ]
   },
   "properties": {
    "name": "LOT 9 MCCARDIE ROAD LAKE ARGYLE 6743",
    "locID": "LOC100056756453",
    "tech": "SATELLITE",
    "upgrade": "NULL_NA",
    "gnaf_pid": "GAWA_718341299"
   }
  },
  {
   "type": "Feature",
   "geometry": {
    "type": "Point",
    "coordinates": [
     128.86828635,
     -15.9430271
    ]
   },
   "properties": {
    "name": "LOT 994 VICTORIA HIGHWAY LAKE ARGYLE 6743",
    "locID": "LOC000133638282",
    "tech": "SATELLITE",
    "upgrade": "NULL_NA",
    "gnaf_pid": "GAWA_718343331"
   }
  },
  {
   "type": "Feature",
   "geometry": {
    "type": "Point",
    "coordinates": [
     128.97126946,
     -15.914231
    ]
   },
   "properties": {
    "name": "LOT 995 VICTORIA HIGHWAY LAKE ARGYLE 6743",
    "locID": "LOC000188449501",
    "tech": "SATELLITE",
    "upgrade": "NULL_NA",
    "gnaf_pid": "GAWA_718343332"
   }
  },
  {
   "type": "Feature",
   "geometry": {
    "type": "Point",
    "coordinates": [
     128.30886488,
     -16.59873919
    ]
   },
   "properties": {
    "name": "LOT 12 WARAMIE STREET LAKE ARGYLE 6743",
    "locID": "LOC000133574995",
    "tech": "SATELLITE",
    "upgrade": "NULL_NA",
    "gnaf_pid": "GAWA_718343442"
   }
  },
  {
   "type": "Feature",
   "geometry": {
    "type": "Point",
    "coordinates": [
     128.30886488,
     -16.59873919
    ]
   },
   "properties": {
    "name": "LOT 13 WARAMIE STREET LAKE ARGYLE 6743",
    "locID": "LOC000133575002",
    "tech": "SATELLITE",
    "upgrade": "NULL_NA",
    "gnaf_pid": "GAWA_718343443"
   }
  },
  {
   "type": "Feature",
   "geometry": {
    "type": "Point",
    "coordinates": [
     128.30886488,
     -16.59873919
    ]
   },
   "properties": {
    "name": "LOT 14 WARAMIE STREET LAKE ARGYLE 6743",
    "locID": "LOC000133575018",
    "tech": "SATELLITE",
    "upgrade": "NULL_NA",
    "gnaf_pid": "GAWA_718343444"
   }
  },
  {
   "type": "Feature",
   "geometry": {
    "type": "Point",
    "coordinates": [
     128.30886488,
     -16.59873919
    ]
   },
   "properties": {
    "name": "LOT 15 WARAMIE STREET LAKE ARGYLE 6743",
    "locID": "LOC000133575025",
    "tech": "SATELLITE",
    "upgrade": "NULL_NA",
    "gnaf_pid": "GAWA_718343445"
   }
  },
  {
   "type": "Feature",
   "geometry": {
    "type": "Point",
    "coordinates": [
     128.30886488,
     -16.59873919
    ]
   },
   "properties": {
    "name": "LOT 36 WARAMIE STREET LAKE ARGYLE 6743",
    "locID": "LOC000133575039",
    "tech": "SATELLITE",
    "upgrade": "NULL_NA",
    "gnaf_pid": "GAWA_718343446"
   }
  },
  {
   "type": "Feature",
   "geometry": {
    "type": "Point",
    "coordinates": [
     128.84359769,
     -16.03251585
    ]
   },
   "properties": {
    "name": "LOT 511 LAKE ARGYLE ROAD LAKE ARGYLE 6743",
    "locID": "LOC000169472688",
    "tech": "SATELLITE",
    "upgrade": "NULL_NA",
    "gnaf_pid": "GAWA_718960099"
   }
  },
  {
   "type": "Feature",
   "geometry": {
    "type": "Point",
    "coordinates": [
     128.74011085,
     -16.11452408
    ]
   },
   "properties": {
    "name": "3443 LAKE ARGYLE ROAD LAKE ARGYLE 6743",
    "locID": "EjMzNDQzIExha2UgQXJneWxlIFJkLCBMYWtlIEFyZ3lsZSBXQSA2NzQzLCBBdXN0cmFsaWEiMRIvChQKEgn5vXAyAoKZLBE-_CU-YjT2CRDzGioUChIJZQb_2eycmSwRO15YIMGgugQ",
    "tech": "SATELLITE",
    "upgrade": "UNKNOWN",
    "gnaf_pid": "GAWA_719035016"
   }
  },
  {
   "type": "Feature",
   "geometry": {
    "type": "Point",
    "coordinates": [
     128.74092027,
     -16.11223831
    ]
   },
   "properties": {
    "name": "3431 LAKE ARGYLE ROAD LAKE ARGYLE 6743",
    "locID": "LOC000189684104",
    "tech": "SATELLITE",
    "upgrade": "NULL_NA",
    "gnaf_pid": "GAWA_719042111"
   }
  },
  {
   "type": "Feature",
   "geometry": {
    "type": "Point",
    "coordinates": [
     128.74011085,
     -16.11452408
    ]
   },
   "properties": {
    "name": "3443B LAKE ARGYLE ROAD LAKE ARGYLE 6743",
    "locID": "EjMzNDQzIExha2UgQXJneWxlIFJkLCBMYWtlIEFyZ3lsZSBXQSA2NzQzLCBBdXN0cmFsaWEiMRIvChQKEgn5vXAyAoKZLBE-_CU-YjT2CRDzGioUChIJZQb_2eycmSwRO15YIMGgugQ",
    "tech": "SATELLITE",
    "upgrade": "UNKNOWN",
    "gnaf_pid": "GAWA_720049635"
   }
  }
 ]
}