{
 "type": "FeatureCollection",
 "generated": "2024-06-18T14:57:52.867413",
 "suburb": "LUMEAH",
 "features": [
  {
   "type": "Feature",
   "geometry": {
    "type": "Point",
    "coordinates": [
     117.27995649,
     -33.93943051
    ]
   },
   "properties": {
    "name": "654 COOK ROAD LUMEAH 6395",
    "locID": "LOC000148159510",
    "tech": "SATELLITE",
    "upgrade": "NULL_NA",
    "gnaf_pid": "GAWA_719053891"
   }
  },
  {
   "type": "Feature",
   "geometry": {
    "type": "Point",
    "coordinates": [
     117.25942359,
     -33.99142939
    ]
   },
   "properties": {
    "name": "354 YARRANUP ROAD LUMEAH 6395",
    "locID": "LOC100078091070",
    "tech": "SATELLITE",
    "upgrade": "NULL_NA",
    "gnaf_pid": "GAWA_719053892"
   }
  },
  {
   "type": "Feature",
   "geometry": {
    "type": "Point",
    "coordinates": [
     117.31806378,
     -33.97869419
    ]
   },
   "properties": {
    "name": "217 BILNEY ROAD LUMEAH 6395",
    "locID": "LOC100071990770",
    "tech": "SATELLITE",
    "upgrade": "NULL_NA",
    "gnaf_pid": "GAWA_719054138"
   }
  },
  {
   "type": "Feature",
   "geometry": {
    "type": "Point",
    "coordinates": [
     117.21983205,
     -33.97935836
    ]
   },
   "properties": {
    "name": "23 YARRANUP ROAD LUMEAH 6395",
    "locID": "LOC100071990789",
    "tech": "SATELLITE",
    "upgrade": "NULL_NA",
    "gnaf_pid": "GAWA_719054140"
   }
  },
  {
   "type": "Feature",
   "geometry": {
    "type": "Point",
    "coordinates": [
     117.24041904,
     -34.02419439
    ]
   },
   "properties": {
    "name": "106 ROSEDALE ROAD LUMEAH 6395",
    "locID": "LOC100078091460",
    "tech": "SATELLITE",
    "upgrade": "NULL_NA",
    "gnaf_pid": "GAWA_719054141"
   }
  },
  {
   "type": "Feature",
   "geometry": {
    "type": "Point",
    "coordinates": [
     117.30330246,
     -33.93237279
    ]
   },
   "properties": {
    "name": "575 POTTS ROAD LUMEAH 6395",
    "locID": "LOC100078089801",
    "tech": "SATELLITE",
    "upgrade": "NULL_NA",
    "gnaf_pid": "GAWA_719054151"
   }
  },
  {
   "type": "Feature",
   "geometry": {
    "type": "Point",
    "coordinates": [
     117.32444951,
     -33.9117433
    ]
   },
   "properties": {
    "name": "480 GRAHAMS WELL ROAD LUMEAH 6395",
    "locID": "LOC000172779890",
    "tech": "SATELLITE",
    "upgrade": "NULL_NA",
    "gnaf_pid": "GAWA_719054388"
   }
  },
  {
   "type": "Feature",
   "geometry": {
    "type": "Point",
    "coordinates": [
     117.23260701,
     -33.93151189
    ]
   },
   "properties": {
    "name": "328 COOK ROAD LUMEAH 6395",
    "locID": "LOC000175922017",
    "tech": "SATELLITE",
    "upgrade": "NULL_NA",
    "gnaf_pid": "GAWA_719054392"
   }
  },
  {
   "type": "Feature",
   "geometry": {
    "type": "Point",
    "coordinates": [
     117.30928574,
     -33.97385301
    ]
   },
   "properties": {
    "name": "215 BILNEY ROAD LUMEAH 6395",
    "locID": "LOC100071990649",
    "tech": "SATELLITE",
    "upgrade": "NULL_NA",
    "gnaf_pid": "GAWA_719054393"
   }
  },
  {
   "type": "Feature",
   "geometry": {
    "type": "Point",
    "coordinates": [
     117.20578769,
     -34.02899992
    ]
   },
   "properties": {
    "name": "390 WATTLEDALE ROAD LUMEAH 6395",
    "locID": "LOC100078091571",
    "tech": "SATELLITE",
    "upgrade": "NULL_NA",
    "gnaf_pid": "GAWA_719054394"
   }
  },
  {
   "type": "Feature",
   "geometry": {
    "type": "Point",
    "coordinates": [
     117.1917375,
     -33.97403093
    ]
   },
   "properties": {
    "name": "138 SHAMROCK ROAD LUMEAH 6395",
    "locID": "LOC100078090809",
    "tech": "WIRELESS",
    "upgrade": "NULL_NA",
    "gnaf_pid": "GAWA_719054617"
   }
  },
  {
   "type": "Feature",
   "geometry": {
    "type": "Point",
    "coordinates": [
     117.20956866,
     -33.93296267
    ]
   },
   "properties": {
    "name": "66 LOWDEN ROAD LUMEAH 6395",
    "locID": "LOC000112840011",
    "tech": "WIRELESS",
    "upgrade": "NULL_NA",
    "gnaf_pid": "GAWA_719054621"
   }
  },
  {
   "type": "Feature",
   "geometry": {
    "type": "Point",
    "coordinates": [
     117.31717661,
     -33.91534062
    ]
   },
   "properties": {
    "name": "479 GRAHAMS WELL ROAD LUMEAH 6395",
    "locID": "LOC000172779772",
    "tech": "SATELLITE",
    "upgrade": "NULL_NA",
    "gnaf_pid": "GAWA_719054622"
   }
  },
  {
   "type": "Feature",
   "geometry": {
    "type": "Point",
    "coordinates": [
     117.1835379,
     -33.94033549
    ]
   },
   "properties": {
    "name": "41 BALGARUP ROAD LUMEAH 6395",
    "locID": "LOC100071989897",
    "tech": "SATELLITE",
    "upgrade": "NULL_NA",
    "gnaf_pid": "GAWA_719054623"
   }
  },
  {
   "type": "Feature",
   "geometry": {
    "type": "Point",
    "coordinates": [
     117.18363621,
     -33.95623884
    ]
   },
   "properties": {
    "name": "147 MORLEY ROAD LUMEAH 6395",
    "locID": "LOC100071990198",
    "tech": "SATELLITE",
    "upgrade": "NULL_NA",
    "gnaf_pid": "GAWA_719054838"
   }
  },
  {
   "type": "Feature",
   "geometry": {
    "type": "Point",
    "coordinates": [
     117.28860026,
     -34.07396504
    ]
   },
   "properties": {
    "name": "254 ALGER ROAD LUMEAH 6395",
    "locID": "LOC000178676144",
    "tech": "SATELLITE",
    "upgrade": "NULL_NA",
    "gnaf_pid": "GAWA_719054840"
   }
  },
  {
   "type": "Feature",
   "geometry": {
    "type": "Point",
    "coordinates": [
     117.23508675,
     -33.95469536
    ]
   },
   "properties": {
    "name": "330 COOK ROAD LUMEAH 6395",
    "locID": "LOC100078090308",
    "tech": "WIRELESS",
    "upgrade": "NULL_NA",
    "gnaf_pid": "GAWA_719054841"
   }
  },
  {
   "type": "Feature",
   "geometry": {
    "type": "Point",
    "coordinates": [
     117.23917447,
     -34.05706576
    ]
   },
   "properties": {
    "name": "155 JAMES ROAD LUMEAH 6395",
    "locID": "LOC100071992563",
    "tech": "SATELLITE",
    "upgrade": "NULL_NA",
    "gnaf_pid": "GAWA_719054844"
   }
  },
  {
   "type": "Feature",
   "geometry": {
    "type": "Point",
    "coordinates": [
     117.23572853,
     -34.00125879
    ]
   },
   "properties": {
    "name": "99 WATTLEDALE ROAD LUMEAH 6395",
    "locID": "LOC000182173289",
    "tech": "SATELLITE",
    "upgrade": "NULL_NA",
    "gnaf_pid": "GAWA_719055357"
   }
  },
  {
   "type": "Feature",
   "geometry": {
    "type": "Point",
    "coordinates": [
     117.22345175,
     -33.99253671
    ]
   },
   "properties": {
    "name": "23386 ALBANY HIGHWAY LUMEAH 6395",
    "locID": "LOC100071991099",
    "tech": "SATELLITE",
    "upgrade": "NULL_NA",
    "gnaf_pid": "GAWA_719055358"
   }
  },
  {
   "type": "Feature",
   "geometry": {
    "type": "Point",
    "coordinates": [
     117.29344905,
     -34.08262907
    ]
   },
   "properties": {
    "name": "263 JAGO ROAD LUMEAH 6395",
    "locID": "LOC100071993032",
    "tech": "SATELLITE",
    "upgrade": "NULL_NA",
    "gnaf_pid": "GAWA_719055359"
   }
  },
  {
   "type": "Feature",
   "geometry": {
    "type": "Point",
    "coordinates": [
     117.20560028,
     -33.95508099
    ]
   },
   "properties": {
    "name": "23001 ALBANY HIGHWAY LUMEAH 6395",
    "locID": "LOC100071990146",
    "tech": "SATELLITE",
    "upgrade": "NULL_NA",
    "gnaf_pid": "GAWA_719055364"
   }
  },
  {
   "type": "Feature",
   "geometry": {
    "type": "Point",
    "coordinates": [
     117.22870084,
     -34.04055761
    ]
   },
   "properties": {
    "name": "254 ROSEDALE ROAD LUMEAH 6395",
    "locID": "LOC100071992366",
    "tech": "SATELLITE",
    "upgrade": "NULL_NA",
    "gnaf_pid": "GAWA_719055365"
   }
  },
  {
   "type": "Feature",
   "geometry": {
    "type": "Point",
    "coordinates": [
     117.15455009,
     -33.9543311
    ]
   },
   "properties": {
    "name": "406 BALGARUP ROAD LUMEAH 6395",
    "locID": "LOC100071990133",
    "tech": "WIRELESS",
    "upgrade": "NULL_NA",
    "gnaf_pid": "GAWA_719055366"
   }
  },
  {
   "type": "Feature",
   "geometry": {
    "type": "Point",
    "coordinates": [
     117.22569969,
     -34.06271053
    ]
   },
   "properties": {
    "name": "820 WATTLEDALE ROAD LUMEAH 6395",
    "locID": "LOC100071992657",
    "tech": "SATELLITE",
    "upgrade": "NULL_NA",
    "gnaf_pid": "GAWA_719055573"
   }
  },
  {
   "type": "Feature",
   "geometry": {
    "type": "Point",
    "coordinates": [
     117.27706126,
     -33.99108866
    ]
   },
   "properties": {
    "name": "563 YARRANUP ROAD LUMEAH 6395",
    "locID": "LOC000190022272",
    "tech": "SATELLITE",
    "upgrade": "NULL_NA",
    "gnaf_pid": "GAWA_719055574"
   }
  },
  {
   "type": "Feature",
   "geometry": {
    "type": "Point",
    "coordinates": [
     117.31820372,
     -34.00564883
    ]
   },
   "properties": {
    "name": "1507 POTTS ROAD LUMEAH 6395",
    "locID": "LOC100071991551",
    "tech": "SATELLITE",
    "upgrade": "NULL_NA",
    "gnaf_pid": "GAWA_719055575"
   }
  }
 ]
}