{
 "type": "FeatureCollection",
 "generated": "2024-09-06T14:31:54.847566",
 "suburb": "MASSEY BAY",
 "features": [
  {
   "type": "Feature",
   "geometry": {
    "type": "Point",
    "coordinates": [
     113.67802199,
     -24.89665458
    ]
   },
   "properties": {
    "name": "200 CARNARVON ROAD MASSEY BAY 6701",
    "locID": "LOC000108117202",
    "tech": "NULL",
    "upgrade": "NULL_NA",
    "gnaf_pid": "GAWA_147039541",
    "tech_change_status": "Not Planned"
   }
  },
  {
   "type": "Feature",
   "geometry": {
    "type": "Point",
    "coordinates": [
     113.6765,
     -24.90289
    ]
   },
   "properties": {
    "name": "111 CORNISH STREET MASSEY BAY 6701",
    "locID": "LOC000090429577",
    "tech": "SATELLITE",
    "upgrade": "NULL_NA",
    "gnaf_pid": "GAWA_147039542",
    "tech_change_status": "Not Planned"
   }
  },
  {
   "type": "Feature",
   "geometry": {
    "type": "Point",
    "coordinates": [
     113.68528434,
     -24.90596563
    ]
   },
   "properties": {
    "name": "187 OYSTER CREEK ROAD MASSEY BAY 6701",
    "locID": "LOC000173160816",
    "tech": "SATELLITE",
    "upgrade": "NULL_NA",
    "gnaf_pid": "GAWA_149193821",
    "tech_change_status": "Not Planned"
   }
  },
  {
   "type": "Feature",
   "geometry": {
    "type": "Point",
    "coordinates": [
     113.68331073,
     -24.90841045
    ]
   },
   "properties": {
    "name": "LOT 1212 CORNISH STREET MASSEY BAY 6701",
    "locID": "LOC000043333558",
    "tech": "FTTN",
    "upgrade": "NULL_NA",
    "gnaf_pid": "GAWA_161536566",
    "tech_change_status": "Not Planned"
   }
  },
  {
   "type": "Feature",
   "geometry": {
    "type": "Point",
    "coordinates": [
     113.68696676,
     -24.907561
    ]
   },
   "properties": {
    "name": "LOT 581 OYSTER CREEK ROAD MASSEY BAY 6701",
    "locID": "LOC000173160816",
    "tech": "SATELLITE",
    "upgrade": "NULL_NA",
    "gnaf_pid": "GAWA_718219635",
    "tech_change_status": "Not Planned"
   }
  },
  {
   "type": "Feature",
   "geometry": {
    "type": "Point",
    "coordinates": [
     113.68696645,
     -24.89995578
    ]
   },
   "properties": {
    "name": "LOT 582 OYSTER CREEK ROAD MASSEY BAY 6701",
    "locID": "LOC000173160816",
    "tech": "SATELLITE",
    "upgrade": "NULL_NA",
    "gnaf_pid": "GAWA_718219636",
    "tech_change_status": "Not Planned"
   }
  },
  {
   "type": "Feature",
   "geometry": {
    "type": "Point",
    "coordinates": [
     113.67004072,
     -24.89851472
    ]
   },
   "properties": {
    "name": "LOT 501 CORNISH STREET MASSEY BAY 6701",
    "locID": "LOC000094575522",
    "tech": "FTTN",
    "upgrade": "NULL_NA",
    "gnaf_pid": "GAWA_718250710",
    "tech_change_status": "Not Planned"
   }
  }
 ]
}