{
 "type": "FeatureCollection",
 "generated": "2023-11-12T15:57:17.885405",
 "suburb": "MASSEY BAY",
 "features": [
  {
   "type": "Feature",
   "geometry": {
    "type": "Point",
    "coordinates": [
     113.67802218,
     -24.89665464
    ]
   },
   "properties": {
    "name": "200 CARNARVON ROAD MASSEY BAY 6701",
    "locID": "LOC000108117202",
    "tech": "SATELLITE",
    "upgrade": "NULL_NA",
    "gnaf_pid": "GAWA_147039541"
   }
  },
  {
   "type": "Feature",
   "geometry": {
    "type": "Point",
    "coordinates": [
     113.6765,
     -24.90289
    ]
   },
   "properties": {
    "name": "111 CORNISH STREET MASSEY BAY 6701",
    "locID": "LOC000090429577",
    "tech": "SATELLITE",
    "upgrade": "NULL_NA",
    "gnaf_pid": "GAWA_147039542"
   }
  },
  {
   "type": "Feature",
   "geometry": {
    "type": "Point",
    "coordinates": [
     113.68528434,
     -24.90596563
    ]
   },
   "properties": {
    "name": "187 OYSTER CREEK ROAD MASSEY BAY 6701",
    "locID": "LOC000173160816",
    "tech": "SATELLITE",
    "upgrade": "NULL_NA",
    "gnaf_pid": "GAWA_149193821"
   }
  },
  {
   "type": "Feature",
   "geometry": {
    "type": "Point",
    "coordinates": [
     113.68331073,
     -24.90841045
    ]
   },
   "properties": {
    "name": "LOT 1212 CORNISH STREET MASSEY BAY 6701",
    "locID": "LOC000043333558",
    "tech": "FTTN",
    "upgrade": "NULL_NA",
    "gnaf_pid": "GAWA_161536566",
    "tech_change_status": "Not Planned"
   }
  },
  {
   "type": "Feature",
   "geometry": {
    "type": "Point",
    "coordinates": [
     113.6694538,
     -24.89655482
    ]
   },
   "properties": {
    "name": "111 MASSEY BAY DRIVE MASSEY BAY 6701",
    "locID": "ChIJT8pJXkvB4ysR4QxExzmG3BQ",
    "tech": "SATELLITE",
    "upgrade": "UNKNOWN",
    "gnaf_pid": "GAWA_162651413"
   }
  },
  {
   "type": "Feature",
   "geometry": {
    "type": "Point",
    "coordinates": [
     113.6694538,
     -24.89655482
    ]
   },
   "properties": {
    "name": "151 MASSEY BAY DRIVE MASSEY BAY 6701",
    "locID": "ChIJT8pJXkvB4ysRMIv5BZ6jZVk",
    "tech": "SATELLITE",
    "upgrade": "UNKNOWN",
    "gnaf_pid": "GAWA_162651414"
   }
  },
  {
   "type": "Feature",
   "geometry": {
    "type": "Point",
    "coordinates": [
     113.68696676,
     -24.907561
    ]
   },
   "properties": {
    "name": "LOT 581 OYSTER CREEK ROAD MASSEY BAY 6701",
    "locID": "LOC000173160816",
    "tech": "SATELLITE",
    "upgrade": "NULL_NA",
    "gnaf_pid": "GAWA_718219635"
   }
  },
  {
   "type": "Feature",
   "geometry": {
    "type": "Point",
    "coordinates": [
     113.68696645,
     -24.89995578
    ]
   },
   "properties": {
    "name": "LOT 582 OYSTER CREEK ROAD MASSEY BAY 6701",
    "locID": "LOC000173160816",
    "tech": "SATELLITE",
    "upgrade": "NULL_NA",
    "gnaf_pid": "GAWA_718219636"
   }
  },
  {
   "type": "Feature",
   "geometry": {
    "type": "Point",
    "coordinates": [
     113.67004072,
     -24.89851472
    ]
   },
   "properties": {
    "name": "LOT 501 CORNISH STREET MASSEY BAY 6701",
    "locID": "LOC000094575522",
    "tech": "FTTN",
    "upgrade": "NULL_NA",
    "gnaf_pid": "GAWA_718250710",
    "tech_change_status": "Not Planned"
   }
  }
 ]
}