{
 "type": "FeatureCollection",
 "generated": "2024-07-07T20:22:45.061761",
 "suburb": "MINIGIN",
 "features": [
  {
   "type": "Feature",
   "geometry": {
    "type": "Point",
    "coordinates": [
     117.134375,
     -32.87178
    ]
   },
   "properties": {
    "name": "21 NEBRIKINNING ROAD MINIGIN 6312",
    "locID": "LOC000034492365",
    "tech": "SATELLITE",
    "upgrade": "NULL_NA",
    "gnaf_pid": "GAWA_161998189",
    "tech_change_status": "Not Planned"
   }
  },
  {
   "type": "Feature",
   "geometry": {
    "type": "Point",
    "coordinates": [
     117.14046931,
     -32.87196817
    ]
   },
   "properties": {
    "name": "3342 WANDERING-NARROGIN ROAD MINIGIN 6312",
    "locID": "LOC000102111366",
    "tech": "SATELLITE",
    "upgrade": "NULL_NA",
    "gnaf_pid": "GAWA_161999091",
    "tech_change_status": "Not Planned"
   }
  },
  {
   "type": "Feature",
   "geometry": {
    "type": "Point",
    "coordinates": [
     117.02373,
     -32.879188
    ]
   },
   "properties": {
    "name": "117 BRADFORD EXCHANGE ROAD MINIGIN 6312",
    "locID": "LOC000095904243",
    "tech": "SATELLITE",
    "upgrade": "NULL_NA",
    "gnaf_pid": "GAWA_161999845",
    "tech_change_status": "Not Planned"
   }
  },
  {
   "type": "Feature",
   "geometry": {
    "type": "Point",
    "coordinates": [
     116.97478,
     -32.93394
    ]
   },
   "properties": {
    "name": "1190 CLAYTON ROAD MINIGIN 6312",
    "locID": "LOC000106685686",
    "tech": "SATELLITE",
    "upgrade": "NULL_NA",
    "gnaf_pid": "GAWA_162000322",
    "tech_change_status": "Not Planned"
   }
  },
  {
   "type": "Feature",
   "geometry": {
    "type": "Point",
    "coordinates": [
     116.98110536,
     -32.93004601
    ]
   },
   "properties": {
    "name": "1200 CLAYTON ROAD MINIGIN 6312",
    "locID": "LOC000108103978",
    "tech": "SATELLITE",
    "upgrade": "NULL_NA",
    "gnaf_pid": "GAWA_162000323",
    "tech_change_status": "Not Planned"
   }
  },
  {
   "type": "Feature",
   "geometry": {
    "type": "Point",
    "coordinates": [
     117.03024578,
     -32.92963234
    ]
   },
   "properties": {
    "name": "1670 CLAYTON ROAD MINIGIN 6312",
    "locID": "LOC000012917647",
    "tech": "SATELLITE",
    "upgrade": "NULL_NA",
    "gnaf_pid": "GAWA_162000324",
    "tech_change_status": "Not Planned"
   }
  },
  {
   "type": "Feature",
   "geometry": {
    "type": "Point",
    "coordinates": [
     117.06172618,
     -32.90863657
    ]
   },
   "properties": {
    "name": "1971 CLAYTON ROAD MINIGIN 6312",
    "locID": "LOC000086739858",
    "tech": "SATELLITE",
    "upgrade": "NULL_NA",
    "gnaf_pid": "GAWA_162000325",
    "tech_change_status": "Not Planned"
   }
  },
  {
   "type": "Feature",
   "geometry": {
    "type": "Point",
    "coordinates": [
     117.07297019,
     -32.92611526
    ]
   },
   "properties": {
    "name": "2194 CLAYTON ROAD MINIGIN 6312",
    "locID": "LOC000048080117",
    "tech": "WIRELESS",
    "upgrade": "NULL_NA",
    "gnaf_pid": "GAWA_162000326",
    "tech_change_status": "Not Planned",
    "program_type": "Fixed Wireless and Satellite Upgrade Program",
    "target_eligibility_quarter": "Dec 2024"
   }
  },
  {
   "type": "Feature",
   "geometry": {
    "type": "Point",
    "coordinates": [
     117.083234,
     -32.932727
    ]
   },
   "properties": {
    "name": "2202 CLAYTON ROAD MINIGIN 6312",
    "locID": "LOC000059623975",
    "tech": "WIRELESS",
    "upgrade": "NULL_NA",
    "gnaf_pid": "GAWA_162000327",
    "tech_change_status": "Not Planned",
    "program_type": "Fixed Wireless and Satellite Upgrade Program",
    "target_eligibility_quarter": "Dec 2024"
   }
  },
  {
   "type": "Feature",
   "geometry": {
    "type": "Point",
    "coordinates": [
     117.13171888,
     -32.93516337
    ]
   },
   "properties": {
    "name": "2732 CLAYTON ROAD MINIGIN 6312",
    "locID": "LOC000048076633",
    "tech": "WIRELESS",
    "upgrade": "NULL_NA",
    "gnaf_pid": "GAWA_162000328",
    "tech_change_status": "Not Planned",
    "program_type": "Fixed Wireless and Satellite Upgrade Program",
    "target_eligibility_quarter": "Dec 2024"
   }
  },
  {
   "type": "Feature",
   "geometry": {
    "type": "Point",
    "coordinates": [
     117.142507,
     -32.930543
    ]
   },
   "properties": {
    "name": "2869 CLAYTON ROAD MINIGIN 6312",
    "locID": "LOC000011951024",
    "tech": "WIRELESS",
    "upgrade": "NULL_NA",
    "gnaf_pid": "GAWA_162000329",
    "tech_change_status": "Not Planned",
    "program_type": "Fixed Wireless and Satellite Upgrade Program",
    "target_eligibility_quarter": "Dec 2024"
   }
  },
  {
   "type": "Feature",
   "geometry": {
    "type": "Point",
    "coordinates": [
     117.057562,
     -32.890107
    ]
   },
   "properties": {
    "name": "1618 CONGELIN-NARROGIN ROAD MINIGIN 6312",
    "locID": "LOC000152541025",
    "tech": "SATELLITE",
    "upgrade": "NULL_NA",
    "gnaf_pid": "GAWA_162000360",
    "tech_change_status": "Not Planned"
   }
  },
  {
   "type": "Feature",
   "geometry": {
    "type": "Point",
    "coordinates": [
     117.00503913,
     -32.9769738
    ]
   },
   "properties": {
    "name": "248 CORNWALL ROAD MINIGIN 6312",
    "locID": "LOC000079849962",
    "tech": "WIRELESS",
    "upgrade": "NULL_NA",
    "gnaf_pid": "GAWA_162000396",
    "tech_change_status": "Not Planned",
    "program_type": "Fixed Wireless and Satellite Upgrade Program",
    "target_eligibility_quarter": "Dec 2024"
   }
  },
  {
   "type": "Feature",
   "geometry": {
    "type": "Point",
    "coordinates": [
     117.054508,
     -32.971093
    ]
   },
   "properties": {
    "name": "117 COWCHER ROAD MINIGIN 6312",
    "locID": "LOC000015472069",
    "tech": "SATELLITE",
    "upgrade": "NULL_NA",
    "gnaf_pid": "GAWA_162000407",
    "tech_change_status": "Not Planned"
   }
  },
  {
   "type": "Feature",
   "geometry": {
    "type": "Point",
    "coordinates": [
     117.055284,
     -32.933627
    ]
   },
   "properties": {
    "name": "617 COWCHER ROAD MINIGIN 6312",
    "locID": "LOC000100287613",
    "tech": "SATELLITE",
    "upgrade": "NULL_NA",
    "gnaf_pid": "GAWA_162000408",
    "tech_change_status": "Not Planned"
   }
  },
  {
   "type": "Feature",
   "geometry": {
    "type": "Point",
    "coordinates": [
     117.062249,
     -32.976952
    ]
   },
   "properties": {
    "name": "62 COWCHER ROAD MINIGIN 6312",
    "locID": "LOC000049866158",
    "tech": "SATELLITE",
    "upgrade": "NULL_NA",
    "gnaf_pid": "GAWA_162000409",
    "tech_change_status": "Not Planned"
   }
  },
  {
   "type": "Feature",
   "geometry": {
    "type": "Point",
    "coordinates": [
     116.99285276,
     -32.90525382
    ]
   },
   "properties": {
    "name": "101 CURNOWS ROAD MINIGIN 6312",
    "locID": "LOC000064430908",
    "tech": "SATELLITE",
    "upgrade": "NULL_NA",
    "gnaf_pid": "GAWA_162000430",
    "tech_change_status": "Not Planned"
   }
  },
  {
   "type": "Feature",
   "geometry": {
    "type": "Point",
    "coordinates": [
     117.161283,
     -32.916758
    ]
   },
   "properties": {
    "name": "133 FLEAY ROAD MINIGIN 6312",
    "locID": "LOC000064424140",
    "tech": "WIRELESS",
    "upgrade": "NULL_NA",
    "gnaf_pid": "GAWA_162000722",
    "tech_change_status": "Not Planned",
    "program_type": "Fixed Wireless and Satellite Upgrade Program",
    "target_eligibility_quarter": "Dec 2024"
   }
  },
  {
   "type": "Feature",
   "geometry": {
    "type": "Point",
    "coordinates": [
     117.15446475,
     -32.91668879
    ]
   },
   "properties": {
    "name": "67 FLEAY ROAD MINIGIN 6312",
    "locID": "LOC000091780670",
    "tech": "WIRELESS",
    "upgrade": "NULL_NA",
    "gnaf_pid": "GAWA_162000723",
    "tech_change_status": "Not Planned",
    "program_type": "Fixed Wireless and Satellite Upgrade Program",
    "target_eligibility_quarter": "Dec 2024"
   }
  },
  {
   "type": "Feature",
   "geometry": {
    "type": "Point",
    "coordinates": [
     117.038306,
     -32.962715
    ]
   },
   "properties": {
    "name": "384 HARDIE ROAD MINIGIN 6312",
    "locID": "LOC000068462407",
    "tech": "SATELLITE",
    "upgrade": "NULL_NA",
    "gnaf_pid": "GAWA_162000932",
    "tech_change_status": "Not Planned"
   }
  },
  {
   "type": "Feature",
   "geometry": {
    "type": "Point",
    "coordinates": [
     117.13736078,
     -32.90764944
    ]
   },
   "properties": {
    "name": "318 HIGHAM ROAD MINIGIN 6312",
    "locID": "LOC000105656486",
    "tech": "WIRELESS",
    "upgrade": "NULL_NA",
    "gnaf_pid": "GAWA_162000979",
    "tech_change_status": "Not Planned",
    "program_type": "Fixed Wireless and Satellite Upgrade Program",
    "target_eligibility_quarter": "Dec 2024"
   }
  },
  {
   "type": "Feature",
   "geometry": {
    "type": "Point",
    "coordinates": [
     117.104413,
     -32.878581
    ]
   },
   "properties": {
    "name": "98 PRITCHARD ROAD MINIGIN 6312",
    "locID": "LOC000104388918",
    "tech": "SATELLITE",
    "upgrade": "NULL_NA",
    "gnaf_pid": "GAWA_162002166",
    "tech_change_status": "Not Planned"
   }
  },
  {
   "type": "Feature",
   "geometry": {
    "type": "Point",
    "coordinates": [
     117.10473809,
     -32.94437821
    ]
   },
   "properties": {
    "name": "165 QUARRY ROAD MINIGIN 6312",
    "locID": "LOC000005646481",
    "tech": "SATELLITE",
    "upgrade": "NULL_NA",
    "gnaf_pid": "GAWA_162002176",
    "tech_change_status": "Not Planned"
   }
  },
  {
   "type": "Feature",
   "geometry": {
    "type": "Point",
    "coordinates": [
     117.00273949,
     -32.91699324
    ]
   },
   "properties": {
    "name": "36 ROSEDALE ROAD MINIGIN 6312",
    "locID": "LOC000022777448",
    "tech": "SATELLITE",
    "upgrade": "NULL_NA",
    "gnaf_pid": "GAWA_162002265",
    "tech_change_status": "Not Planned"
   }
  },
  {
   "type": "Feature",
   "geometry": {
    "type": "Point",
    "coordinates": [
     117.012331,
     -32.880679
    ]
   },
   "properties": {
    "name": "114 SHEPHERD ROAD MINIGIN 6312",
    "locID": "LOC000040248121",
    "tech": "SATELLITE",
    "upgrade": "NULL_NA",
    "gnaf_pid": "GAWA_162002353",
    "tech_change_status": "Not Planned"
   }
  },
  {
   "type": "Feature",
   "geometry": {
    "type": "Point",
    "coordinates": [
     117.097262,
     -32.923589
    ]
   },
   "properties": {
    "name": "113 SPOUSE ROAD MINIGIN 6312",
    "locID": "LOC000098316200",
    "tech": "WIRELESS",
    "upgrade": "NULL_NA",
    "gnaf_pid": "GAWA_162002429",
    "tech_change_status": "Not Planned",
    "program_type": "Fixed Wireless and Satellite Upgrade Program",
    "target_eligibility_quarter": "Dec 2024"
   }
  },
  {
   "type": "Feature",
   "geometry": {
    "type": "Point",
    "coordinates": [
     117.093197,
     -32.908342
    ]
   },
   "properties": {
    "name": "263 SPOUSE ROAD MINIGIN 6312",
    "locID": "LOC000021968122",
    "tech": "WIRELESS",
    "upgrade": "NULL_NA",
    "gnaf_pid": "GAWA_162002430",
    "tech_change_status": "Not Planned",
    "program_type": "Fixed Wireless and Satellite Upgrade Program",
    "target_eligibility_quarter": "Dec 2024"
   }
  },
  {
   "type": "Feature",
   "geometry": {
    "type": "Point",
    "coordinates": [
     117.146885,
     -32.871958
    ]
   },
   "properties": {
    "name": "3383 WANDERING-NARROGIN ROAD MINIGIN 6312",
    "locID": "LOC000092655023",
    "tech": "SATELLITE",
    "upgrade": "NULL_NA",
    "gnaf_pid": "GAWA_162003154",
    "tech_change_status": "Not Planned"
   }
  },
  {
   "type": "Feature",
   "geometry": {
    "type": "Point",
    "coordinates": [
     117.156674,
     -32.884988
    ]
   },
   "properties": {
    "name": "3513 WANDERING-NARROGIN ROAD MINIGIN 6312",
    "locID": "LOC000089511595",
    "tech": "WIRELESS",
    "upgrade": "NULL_NA",
    "gnaf_pid": "GAWA_162003155",
    "tech_change_status": "Not Planned",
    "program_type": "Fixed Wireless and Satellite Upgrade Program",
    "target_eligibility_quarter": "NA"
   }
  },
  {
   "type": "Feature",
   "geometry": {
    "type": "Point",
    "coordinates": [
     117.166814,
     -32.903891
    ]
   },
   "properties": {
    "name": "3843 WANDERING-NARROGIN ROAD MINIGIN 6312",
    "locID": "LOC000093117962",
    "tech": "WIRELESS",
    "upgrade": "NULL_NA",
    "gnaf_pid": "GAWA_162003156",
    "tech_change_status": "Not Planned",
    "program_type": "Fixed Wireless and Satellite Upgrade Program",
    "target_eligibility_quarter": "Dec 2024"
   }
  },
  {
   "type": "Feature",
   "geometry": {
    "type": "Point",
    "coordinates": [
     117.00176077,
     -33.00046042
    ]
   },
   "properties": {
    "name": "1011 WILLIAMS-KONDININ ROAD MINIGIN 6312",
    "locID": "LOC000042997673",
    "tech": "WIRELESS",
    "upgrade": "NULL_NA",
    "gnaf_pid": "GAWA_162003309",
    "tech_change_status": "Not Planned",
    "program_type": "Fixed Wireless and Satellite Upgrade Program",
    "target_eligibility_quarter": "Dec 2024"
   }
  },
  {
   "type": "Feature",
   "geometry": {
    "type": "Point",
    "coordinates": [
     117.091598,
     -32.964901
    ]
   },
   "properties": {
    "name": "1981 WILLIAMS-KONDININ ROAD MINIGIN 6312",
    "locID": "LOC000016453140",
    "tech": "SATELLITE",
    "upgrade": "NULL_NA",
    "gnaf_pid": "GAWA_162003310",
    "tech_change_status": "Not Planned"
   }
  },
  {
   "type": "Feature",
   "geometry": {
    "type": "Point",
    "coordinates": [
     117.175114,
     -32.913931
    ]
   },
   "properties": {
    "name": "131 HILLSIDE ROAD MINIGIN 6312",
    "locID": "LOC000058144270",
    "tech": "WIRELESS",
    "upgrade": "NULL_NA",
    "gnaf_pid": "GAWA_162329759",
    "tech_change_status": "Not Planned",
    "program_type": "Fixed Wireless and Satellite Upgrade Program",
    "target_eligibility_quarter": "Dec 2024"
   }
  },
  {
   "type": "Feature",
   "geometry": {
    "type": "Point",
    "coordinates": [
     117.14276264,
     -32.8693405
    ]
   },
   "properties": {
    "name": "635 SPRINGHILL ROAD MINIGIN 6312",
    "locID": "LOC000133186227",
    "tech": "SATELLITE",
    "upgrade": "NULL_NA",
    "gnaf_pid": "GAWA_718342892",
    "tech_change_status": "Not Planned"
   }
  },
  {
   "type": "Feature",
   "geometry": {
    "type": "Point",
    "coordinates": [
     117.02884313,
     -32.87919029
    ]
   },
   "properties": {
    "name": "151 BRADFORD EXCHANGE ROAD MINIGIN 6312",
    "locID": "LOC100071961029",
    "tech": "SATELLITE",
    "upgrade": "NULL_NA",
    "gnaf_pid": "GAWA_718821353",
    "tech_change_status": "Not Planned"
   }
  },
  {
   "type": "Feature",
   "geometry": {
    "type": "Point",
    "coordinates": [
     117.02293311,
     -32.87918494
    ]
   },
   "properties": {
    "name": "205 BRADFORD EXCHANGE ROAD MINIGIN 6312",
    "locID": "LOC000095904243",
    "tech": "SATELLITE",
    "upgrade": "NULL_NA",
    "gnaf_pid": "GAWA_718821354",
    "tech_change_status": "Not Planned"
   }
  },
  {
   "type": "Feature",
   "geometry": {
    "type": "Point",
    "coordinates": [
     117.08389062,
     -32.96042119
    ]
   },
   "properties": {
    "name": "1811 WILLIAMS-KONDININ ROAD MINIGIN 6312",
    "locID": "LOC000150290743",
    "tech": "SATELLITE",
    "upgrade": "NULL_NA",
    "gnaf_pid": "GAWA_718874584",
    "tech_change_status": "Not Planned"
   }
  },
  {
   "type": "Feature",
   "geometry": {
    "type": "Point",
    "coordinates": [
     117.1711087,
     -32.9166821
    ]
   },
   "properties": {
    "name": "31 HILLSIDE ROAD MINIGIN 6312",
    "locID": "LOC100079701904",
    "tech": "WIRELESS",
    "upgrade": "NULL_NA",
    "gnaf_pid": "GAWA_720717700",
    "tech_change_status": "Not Planned",
    "program_type": "Fixed Wireless and Satellite Upgrade Program",
    "target_eligibility_quarter": "Dec 2024"
   }
  }
 ]
}