{
 "type": "FeatureCollection",
 "generated": "2024-09-06T15:07:01.797498",
 "suburb": "MOCARDY",
 "features": [
  {
   "type": "Feature",
   "geometry": {
    "type": "Point",
    "coordinates": [
     116.876069,
     -30.844337
    ]
   },
   "properties": {
    "name": "332 GRIFFITHS ROAD MOCARDY 6603",
    "locID": "LOC000053806780",
    "tech": "SATELLITE",
    "upgrade": "NULL_NA",
    "gnaf_pid": "GAWA_162255780",
    "tech_change_status": "Not Planned"
   }
  },
  {
   "type": "Feature",
   "geometry": {
    "type": "Point",
    "coordinates": [
     116.86839108,
     -30.94011559
    ]
   },
   "properties": {
    "name": "1093 KALGUDDERING EAST ROAD MOCARDY 6603",
    "locID": "LOC000009609403",
    "tech": "NULL",
    "upgrade": "NULL_NA",
    "gnaf_pid": "GAWA_162256115",
    "tech_change_status": "Not Planned"
   }
  },
  {
   "type": "Feature",
   "geometry": {
    "type": "Point",
    "coordinates": [
     116.866328,
     -30.972377
    ]
   },
   "properties": {
    "name": "1206 KALGUDDERING EAST ROAD MOCARDY 6603",
    "locID": "LOC000038332168",
    "tech": "SATELLITE",
    "upgrade": "NULL_NA",
    "gnaf_pid": "GAWA_162256116",
    "tech_change_status": "Not Planned"
   }
  },
  {
   "type": "Feature",
   "geometry": {
    "type": "Point",
    "coordinates": [
     116.886919,
     -30.92481
    ]
   },
   "properties": {
    "name": "1545 KALGUDDERING EAST ROAD MOCARDY 6603",
    "locID": "LOC000052037522",
    "tech": "SATELLITE",
    "upgrade": "NULL_NA",
    "gnaf_pid": "GAWA_162256117",
    "tech_change_status": "Not Planned"
   }
  },
  {
   "type": "Feature",
   "geometry": {
    "type": "Point",
    "coordinates": [
     116.935085,
     -30.949565
    ]
   },
   "properties": {
    "name": "1860 KALGUDDERING EAST ROAD MOCARDY 6603",
    "locID": "LOC000015419446",
    "tech": "NULL",
    "upgrade": "NULL_NA",
    "gnaf_pid": "GAWA_162256118",
    "tech_change_status": "Not Planned"
   }
  },
  {
   "type": "Feature",
   "geometry": {
    "type": "Point",
    "coordinates": [
     116.938438,
     -30.932681
    ]
   },
   "properties": {
    "name": "2047 KALGUDDERING EAST ROAD MOCARDY 6603",
    "locID": "LOC000046237794",
    "tech": "NULL",
    "upgrade": "NULL_NA",
    "gnaf_pid": "GAWA_162256119",
    "tech_change_status": "Not Planned"
   }
  },
  {
   "type": "Feature",
   "geometry": {
    "type": "Point",
    "coordinates": [
     116.81069,
     -30.947839
    ]
   },
   "properties": {
    "name": "575 KALGUDDERING EAST ROAD MOCARDY 6603",
    "locID": "LOC000057832024",
    "tech": "SATELLITE",
    "upgrade": "NULL_NA",
    "gnaf_pid": "GAWA_162256120",
    "tech_change_status": "Not Planned"
   }
  },
  {
   "type": "Feature",
   "geometry": {
    "type": "Point",
    "coordinates": [
     116.76979756,
     -30.91869787
    ]
   },
   "properties": {
    "name": "387 KALGUDDERING NORTH ROAD MOCARDY 6603",
    "locID": "LOC000022827657",
    "tech": "SATELLITE",
    "upgrade": "NULL_NA",
    "gnaf_pid": "GAWA_162256121",
    "tech_change_status": "Not Planned"
   }
  },
  {
   "type": "Feature",
   "geometry": {
    "type": "Point",
    "coordinates": [
     116.77328394,
     -30.91824969
    ]
   },
   "properties": {
    "name": "388 KALGUDDERING NORTH ROAD MOCARDY 6603",
    "locID": "LOC000064049549",
    "tech": "SATELLITE",
    "upgrade": "NULL_NA",
    "gnaf_pid": "GAWA_162256122",
    "tech_change_status": "Not Planned"
   }
  },
  {
   "type": "Feature",
   "geometry": {
    "type": "Point",
    "coordinates": [
     116.84998508,
     -30.92067231
    ]
   },
   "properties": {
    "name": "490 LITCHFIELD ROAD MOCARDY 6603",
    "locID": "LOC000089694175",
    "tech": "SATELLITE",
    "upgrade": "NULL_NA",
    "gnaf_pid": "GAWA_162256402",
    "tech_change_status": "Not Planned"
   }
  },
  {
   "type": "Feature",
   "geometry": {
    "type": "Point",
    "coordinates": [
     116.931893,
     -30.860134
    ]
   },
   "properties": {
    "name": "1526 MANMANNING ROAD MOCARDY 6603",
    "locID": "LOC000069178448",
    "tech": "SATELLITE",
    "upgrade": "NULL_NA",
    "gnaf_pid": "GAWA_162256455",
    "tech_change_status": "Not Planned"
   }
  },
  {
   "type": "Feature",
   "geometry": {
    "type": "Point",
    "coordinates": [
     116.952131,
     -30.88807
    ]
   },
   "properties": {
    "name": "1581 MANMANNING ROAD MOCARDY 6603",
    "locID": "LOC000080987555",
    "tech": "SATELLITE",
    "upgrade": "NULL_NA",
    "gnaf_pid": "GAWA_162256456",
    "tech_change_status": "Not Planned"
   }
  },
  {
   "type": "Feature",
   "geometry": {
    "type": "Point",
    "coordinates": [
     116.915953,
     -30.877888
    ]
   },
   "properties": {
    "name": "1811 MANMANNING ROAD MOCARDY 6603",
    "locID": "LOC000011528249",
    "tech": "NULL",
    "upgrade": "NULL_NA",
    "gnaf_pid": "GAWA_162256457",
    "tech_change_status": "Not Planned"
   }
  },
  {
   "type": "Feature",
   "geometry": {
    "type": "Point",
    "coordinates": [
     116.8899569,
     -30.88187669
    ]
   },
   "properties": {
    "name": "1947 MANMANNING ROAD MOCARDY 6603",
    "locID": "LOC000060270250",
    "tech": "SATELLITE",
    "upgrade": "NULL_NA",
    "gnaf_pid": "GAWA_162256458",
    "tech_change_status": "Not Planned"
   }
  },
  {
   "type": "Feature",
   "geometry": {
    "type": "Point",
    "coordinates": [
     116.8899569,
     -30.88187669
    ]
   },
   "properties": {
    "name": "1993 MANMANNING ROAD MOCARDY 6603",
    "locID": "LOC000103594927",
    "tech": "SATELLITE",
    "upgrade": "NULL_NA",
    "gnaf_pid": "GAWA_162256459",
    "tech_change_status": "Not Planned"
   }
  },
  {
   "type": "Feature",
   "geometry": {
    "type": "Point",
    "coordinates": [
     116.843528,
     -30.861109
    ]
   },
   "properties": {
    "name": "2414 MANMANNING ROAD MOCARDY 6603",
    "locID": "LOC000034674209",
    "tech": "SATELLITE",
    "upgrade": "NULL_NA",
    "gnaf_pid": "GAWA_162256460",
    "tech_change_status": "Not Planned"
   }
  },
  {
   "type": "Feature",
   "geometry": {
    "type": "Point",
    "coordinates": [
     116.838175,
     -30.893244
    ]
   },
   "properties": {
    "name": "2463 MANMANNING ROAD MOCARDY 6603",
    "locID": "LOC000009769465",
    "tech": "SATELLITE",
    "upgrade": "NULL_NA",
    "gnaf_pid": "GAWA_162256461",
    "tech_change_status": "Not Planned"
   }
  },
  {
   "type": "Feature",
   "geometry": {
    "type": "Point",
    "coordinates": [
     116.999393,
     -30.857284
    ]
   },
   "properties": {
    "name": "876 MANMANNING ROAD MOCARDY 6603",
    "locID": "LOC000014401764",
    "tech": "SATELLITE",
    "upgrade": "NULL_NA",
    "gnaf_pid": "GAWA_162256462",
    "tech_change_status": "Not Planned"
   }
  },
  {
   "type": "Feature",
   "geometry": {
    "type": "Point",
    "coordinates": [
     116.79132645,
     -30.82233586
    ]
   },
   "properties": {
    "name": "230 MILLSTEED ROAD MOCARDY 6603",
    "locID": "LOC000056416565",
    "tech": "SATELLITE",
    "upgrade": "NULL_NA",
    "gnaf_pid": "GAWA_162256602",
    "tech_change_status": "Not Planned"
   }
  },
  {
   "type": "Feature",
   "geometry": {
    "type": "Point",
    "coordinates": [
     116.946655,
     -30.918151
    ]
   },
   "properties": {
    "name": "1407 MOONIJIN WEST ROAD MOCARDY 6603",
    "locID": "LOC000055622853",
    "tech": "SATELLITE",
    "upgrade": "NULL_NA",
    "gnaf_pid": "GAWA_162256651",
    "tech_change_status": "Not Planned"
   }
  },
  {
   "type": "Feature",
   "geometry": {
    "type": "Point",
    "coordinates": [
     116.878777,
     -30.90123
    ]
   },
   "properties": {
    "name": "2344 MOONIJIN WEST ROAD MOCARDY 6603",
    "locID": "LOC000094439216",
    "tech": "SATELLITE",
    "upgrade": "NULL_NA",
    "gnaf_pid": "GAWA_162256652",
    "tech_change_status": "Not Planned"
   }
  },
  {
   "type": "Feature",
   "geometry": {
    "type": "Point",
    "coordinates": [
     116.808859,
     -30.911161
    ]
   },
   "properties": {
    "name": "2904 MOONIJIN WEST ROAD MOCARDY 6603",
    "locID": "LOC000081369711",
    "tech": "SATELLITE",
    "upgrade": "NULL_NA",
    "gnaf_pid": "GAWA_162256653",
    "tech_change_status": "Not Planned"
   }
  },
  {
   "type": "Feature",
   "geometry": {
    "type": "Point",
    "coordinates": [
     116.792396,
     -30.901633
    ]
   },
   "properties": {
    "name": "3392 MOONIJIN WEST ROAD MOCARDY 6603",
    "locID": "LOC000011190076",
    "tech": "WIRELESS",
    "upgrade": "NULL_NA",
    "gnaf_pid": "GAWA_162256654",
    "tech_change_status": "Not Planned",
    "program_type": "Fixed Wireless and Satellite Upgrade Program",
    "target_eligibility_quarter": "Dec 2024"
   }
  },
  {
   "type": "Feature",
   "geometry": {
    "type": "Point",
    "coordinates": [
     116.81249551,
     -30.95409592
    ]
   },
   "properties": {
    "name": "31 MOUNTJOY ROAD MOCARDY 6603",
    "locID": "LOC000107765847",
    "tech": "SATELLITE",
    "upgrade": "NULL_NA",
    "gnaf_pid": "GAWA_162256673",
    "tech_change_status": "Not Planned"
   }
  },
  {
   "type": "Feature",
   "geometry": {
    "type": "Point",
    "coordinates": [
     116.760631,
     -30.97416
    ]
   },
   "properties": {
    "name": "7964 NORTHAM-PITHARA ROAD MOCARDY 6603",
    "locID": "LOC000057964822",
    "tech": "SATELLITE",
    "upgrade": "NULL_NA",
    "gnaf_pid": "GAWA_162256841",
    "tech_change_status": "Not Planned"
   }
  },
  {
   "type": "Feature",
   "geometry": {
    "type": "Point",
    "coordinates": [
     116.7459268,
     -30.93179511
    ]
   },
   "properties": {
    "name": "8604 NORTHAM-PITHARA ROAD MOCARDY 6603",
    "locID": "LOC000011506458",
    "tech": "WIRELESS",
    "upgrade": "NULL_NA",
    "gnaf_pid": "GAWA_162256842",
    "tech_change_status": "Not Planned",
    "program_type": "Fixed Wireless and Satellite Upgrade Program",
    "target_eligibility_quarter": "Dec 2024"
   }
  },
  {
   "type": "Feature",
   "geometry": {
    "type": "Point",
    "coordinates": [
     116.740167,
     -30.925277
    ]
   },
   "properties": {
    "name": "8642 NORTHAM-PITHARA ROAD MOCARDY 6603",
    "locID": "LOC000091714429",
    "tech": "WIRELESS",
    "upgrade": "NULL_NA",
    "gnaf_pid": "GAWA_162256843",
    "tech_change_status": "Not Planned",
    "program_type": "Fixed Wireless and Satellite Upgrade Program",
    "target_eligibility_quarter": "Dec 2024"
   }
  },
  {
   "type": "Feature",
   "geometry": {
    "type": "Point",
    "coordinates": [
     116.89116279,
     -30.79148744
    ]
   },
   "properties": {
    "name": "2758 OLD KOORDA-WONGAN HILLS ROAD MOCARDY 6603",
    "locID": "LOC000090456611",
    "tech": "NULL",
    "upgrade": "NULL_NA",
    "gnaf_pid": "GAWA_162256950",
    "tech_change_status": "Not Planned"
   }
  },
  {
   "type": "Feature",
   "geometry": {
    "type": "Point",
    "coordinates": [
     116.89393806,
     -30.8075956
    ]
   },
   "properties": {
    "name": "2759 OLD KOORDA-WONGAN HILLS ROAD MOCARDY 6603",
    "locID": "LOC000016390854",
    "tech": "NULL",
    "upgrade": "NULL_NA",
    "gnaf_pid": "GAWA_162256951",
    "tech_change_status": "Not Planned"
   }
  },
  {
   "type": "Feature",
   "geometry": {
    "type": "Point",
    "coordinates": [
     116.997673,
     -30.828984
    ]
   },
   "properties": {
    "name": "157 RAINE ROAD MOCARDY 6603",
    "locID": "LOC000079543139",
    "tech": "NULL",
    "upgrade": "NULL_NA",
    "gnaf_pid": "GAWA_162257203",
    "tech_change_status": "Not Planned"
   }
  },
  {
   "type": "Feature",
   "geometry": {
    "type": "Point",
    "coordinates": [
     116.99528307,
     -30.88943815
    ]
   },
   "properties": {
    "name": "268 SEWELL ROAD MOCARDY 6603",
    "locID": "LOC000160690930",
    "tech": "SATELLITE",
    "upgrade": "NULL_NA",
    "gnaf_pid": "GAWA_162257439",
    "tech_change_status": "Not Planned"
   }
  },
  {
   "type": "Feature",
   "geometry": {
    "type": "Point",
    "coordinates": [
     116.916686,
     -30.846372
    ]
   },
   "properties": {
    "name": "865 STOKES ROAD MOCARDY 6603",
    "locID": "LOC000055873466",
    "tech": "SATELLITE",
    "upgrade": "NULL_NA",
    "gnaf_pid": "GAWA_162257613",
    "tech_change_status": "Not Planned"
   }
  },
  {
   "type": "Feature",
   "geometry": {
    "type": "Point",
    "coordinates": [
     117.022975,
     -30.82898
    ]
   },
   "properties": {
    "name": "405 JONES ROAD MOCARDY 6603",
    "locID": "LOC000092939142",
    "tech": "SATELLITE",
    "upgrade": "NULL_NA",
    "gnaf_pid": "GAWA_162264840",
    "tech_change_status": "Not Planned"
   }
  },
  {
   "type": "Feature",
   "geometry": {
    "type": "Point",
    "coordinates": [
     116.929639,
     -30.950484
    ]
   },
   "properties": {
    "name": "1858 KALGUDDERING EAST ROAD MOCARDY 6603",
    "locID": "LOC000082412501",
    "tech": "NULL",
    "upgrade": "NULL_NA",
    "gnaf_pid": "GAWA_162264917",
    "tech_change_status": "Not Planned"
   }
  },
  {
   "type": "Feature",
   "geometry": {
    "type": "Point",
    "coordinates": [
     116.78358748,
     -30.80818388
    ]
   },
   "properties": {
    "name": "301 OLD BALLIDU ROAD MOCARDY 6603",
    "locID": "LOC000019480815",
    "tech": "SATELLITE",
    "upgrade": "NULL_NA",
    "gnaf_pid": "GAWA_162267593",
    "tech_change_status": "Not Planned"
   }
  },
  {
   "type": "Feature",
   "geometry": {
    "type": "Point",
    "coordinates": [
     116.80044594,
     -30.87164372
    ]
   },
   "properties": {
    "name": "5 OLIVER ROAD MOCARDY 6603",
    "locID": "LOC000006154730",
    "tech": "SATELLITE",
    "upgrade": "NULL_NA",
    "gnaf_pid": "GAWA_162278803",
    "tech_change_status": "Not Planned"
   }
  },
  {
   "type": "Feature",
   "geometry": {
    "type": "Point",
    "coordinates": [
     116.89116279,
     -30.79148744
    ]
   },
   "properties": {
    "name": "6413 HOSPITAL ROAD MOCARDY 6603",
    "locID": "LOC000068239956",
    "tech": "NULL",
    "upgrade": "NULL_NA",
    "gnaf_pid": "GAWA_162687274",
    "tech_change_status": "Not Planned"
   }
  },
  {
   "type": "Feature",
   "geometry": {
    "type": "Point",
    "coordinates": [
     116.83289852,
     -30.81069503
    ]
   },
   "properties": {
    "name": "7006 HOSPITAL ROAD MOCARDY 6603",
    "locID": "LOC000103580727",
    "tech": "SATELLITE",
    "upgrade": "NULL_NA",
    "gnaf_pid": "GAWA_162687275",
    "tech_change_status": "Not Planned"
   }
  },
  {
   "type": "Feature",
   "geometry": {
    "type": "Point",
    "coordinates": [
     116.8128376,
     -30.85279604
    ]
   },
   "properties": {
    "name": "7523 HOSPITAL ROAD MOCARDY 6603",
    "locID": "LOC000005669838",
    "tech": "NULL",
    "upgrade": "NULL_NA",
    "gnaf_pid": "GAWA_162687276",
    "tech_change_status": "Not Planned"
   }
  },
  {
   "type": "Feature",
   "geometry": {
    "type": "Point",
    "coordinates": [
     116.92047138,
     -30.77026249
    ]
   },
   "properties": {
    "name": "5989 WONGAN HILLS-CADOUX ROAD MOCARDY 6603",
    "locID": "LOC000017238656",
    "tech": "SATELLITE",
    "upgrade": "NULL_NA",
    "gnaf_pid": "GAWA_162694333",
    "tech_change_status": "Not Planned"
   }
  },
  {
   "type": "Feature",
   "geometry": {
    "type": "Point",
    "coordinates": [
     116.77254147,
     -30.84252561
    ]
   },
   "properties": {
    "name": "244 MOCARDY ROAD MOCARDY 6603",
    "locID": "LOC000089233726",
    "tech": "SATELLITE",
    "upgrade": "NULL_NA",
    "gnaf_pid": "GAWA_162761508",
    "tech_change_status": "Not Planned"
   }
  },
  {
   "type": "Feature",
   "geometry": {
    "type": "Point",
    "coordinates": [
     116.98236839,
     -30.88950164
    ]
   },
   "properties": {
    "name": "26590 SEWELL ROAD MOCARDY 6603",
    "locID": "LOC000114550295",
    "tech": "SATELLITE",
    "upgrade": "NULL_NA",
    "gnaf_pid": "GAWA_163392309",
    "tech_change_status": "Not Planned"
   }
  },
  {
   "type": "Feature",
   "geometry": {
    "type": "Point",
    "coordinates": [
     116.76196356,
     -30.97414249
    ]
   },
   "properties": {
    "name": "LOT 232 NORTHAM-PITHARA ROAD MOCARDY 6603",
    "locID": "LOC000089157139",
    "tech": "NULL",
    "upgrade": "NULL_NA",
    "gnaf_pid": "GAWA_718630140",
    "tech_change_status": "Not Planned"
   }
  },
  {
   "type": "Feature",
   "geometry": {
    "type": "Point",
    "coordinates": [
     116.75476167,
     -30.91419186
    ]
   },
   "properties": {
    "name": "LOT 1 DANUBIN STREET MOCARDY 6603",
    "locID": "LOC000109319513",
    "tech": "WIRELESS",
    "upgrade": "NULL_NA",
    "gnaf_pid": "GAWA_718934670",
    "tech_change_status": "Not Planned",
    "program_type": "Fixed Wireless and Satellite Upgrade Program",
    "target_eligibility_quarter": "Dec 2024"
   }
  }
 ]
}