{
 "type": "FeatureCollection",
 "generated": "2024-07-07T20:26:49.188695",
 "suburb": "MOLLERIN",
 "features": [
  {
   "type": "Feature",
   "geometry": {
    "type": "Point",
    "coordinates": [
     117.424165,
     -30.44402579
    ]
   },
   "properties": {
    "name": "2594 ANDERSON ROAD MOLLERIN 6475",
    "locID": "LOC000081082352",
    "tech": "SATELLITE",
    "upgrade": "NULL_NA",
    "gnaf_pid": "GAWA_162636685",
    "tech_change_status": "Not Planned"
   }
  },
  {
   "type": "Feature",
   "geometry": {
    "type": "Point",
    "coordinates": [
     117.4027191,
     -30.59633266
    ]
   },
   "properties": {
    "name": "956 ANDERSON ROAD MOLLERIN 6475",
    "locID": "LOC000038634209",
    "tech": "SATELLITE",
    "upgrade": "NULL_NA",
    "gnaf_pid": "GAWA_162636686",
    "tech_change_status": "Not Planned"
   }
  },
  {
   "type": "Feature",
   "geometry": {
    "type": "Point",
    "coordinates": [
     117.46529901,
     -30.49329324
    ]
   },
   "properties": {
    "name": "109 CHAPMAN ROAD MOLLERIN 6475",
    "locID": "LOC000026129187",
    "tech": "SATELLITE",
    "upgrade": "NULL_NA",
    "gnaf_pid": "GAWA_162638558",
    "tech_change_status": "Not Planned"
   }
  },
  {
   "type": "Feature",
   "geometry": {
    "type": "Point",
    "coordinates": [
     117.53462783,
     -30.51057514
    ]
   },
   "properties": {
    "name": "650 CHAPMAN ROAD MOLLERIN 6475",
    "locID": "LOC000007082500",
    "tech": "SATELLITE",
    "upgrade": "NULL_NA",
    "gnaf_pid": "GAWA_162638559",
    "tech_change_status": "Not Planned"
   }
  },
  {
   "type": "Feature",
   "geometry": {
    "type": "Point",
    "coordinates": [
     117.46808754,
     -30.55970556
    ]
   },
   "properties": {
    "name": "1408 COMMONWEALTH ROAD MOLLERIN 6475",
    "locID": "LOC000036479331",
    "tech": "SATELLITE",
    "upgrade": "NULL_NA",
    "gnaf_pid": "GAWA_162638918",
    "tech_change_status": "Not Planned"
   }
  },
  {
   "type": "Feature",
   "geometry": {
    "type": "Point",
    "coordinates": [
     117.43214657,
     -30.29835879
    ]
   },
   "properties": {
    "name": "271 KING ROAD MOLLERIN 6475",
    "locID": "LOC000161769874",
    "tech": "SATELLITE",
    "upgrade": "NULL_NA",
    "gnaf_pid": "GAWA_162642215",
    "tech_change_status": "Not Planned"
   }
  },
  {
   "type": "Feature",
   "geometry": {
    "type": "Point",
    "coordinates": [
     117.49117421,
     -30.59952576
    ]
   },
   "properties": {
    "name": "2163 KOORDA-MOLLERIN ROAD MOLLERIN 6475",
    "locID": "LOC000059121782",
    "tech": "SATELLITE",
    "upgrade": "NULL_NA",
    "gnaf_pid": "GAWA_162642272",
    "tech_change_status": "Not Planned"
   }
  },
  {
   "type": "Feature",
   "geometry": {
    "type": "Point",
    "coordinates": [
     117.46665891,
     -30.52554701
    ]
   },
   "properties": {
    "name": "1561 KULJA-MOLLERIN ROCK ROAD MOLLERIN 6475",
    "locID": "LOC000142449959",
    "tech": "SATELLITE",
    "upgrade": "NULL_NA",
    "gnaf_pid": "GAWA_162642290",
    "tech_change_status": "Not Planned"
   }
  },
  {
   "type": "Feature",
   "geometry": {
    "type": "Point",
    "coordinates": [
     117.44456191,
     -30.60217422
    ]
   },
   "properties": {
    "name": "439 MARGARETTE ROAD MOLLERIN 6475",
    "locID": "LOC000084041118",
    "tech": "SATELLITE",
    "upgrade": "NULL_NA",
    "gnaf_pid": "GAWA_162643005",
    "tech_change_status": "Not Planned"
   }
  },
  {
   "type": "Feature",
   "geometry": {
    "type": "Point",
    "coordinates": [
     117.4819536,
     -30.36219076
    ]
   },
   "properties": {
    "name": "1229 MOLLERIN NORTH ROAD MOLLERIN 6475",
    "locID": "LOC000085353039",
    "tech": "SATELLITE",
    "upgrade": "NULL_NA",
    "gnaf_pid": "GAWA_162643419",
    "tech_change_status": "Not Planned"
   }
  },
  {
   "type": "Feature",
   "geometry": {
    "type": "Point",
    "coordinates": [
     117.51293425,
     -30.45483359
    ]
   },
   "properties": {
    "name": "21 MOLLERIN NORTH ROAD MOLLERIN 6475",
    "locID": "LOC000081311453",
    "tech": "SATELLITE",
    "upgrade": "NULL_NA",
    "gnaf_pid": "GAWA_162643420",
    "tech_change_status": "Not Planned"
   }
  },
  {
   "type": "Feature",
   "geometry": {
    "type": "Point",
    "coordinates": [
     117.50395007,
     -30.4214984
    ]
   },
   "properties": {
    "name": "429 MOLLERIN NORTH ROAD MOLLERIN 6475",
    "locID": "LOC000046480417",
    "tech": "SATELLITE",
    "upgrade": "NULL_NA",
    "gnaf_pid": "GAWA_162643421",
    "tech_change_status": "Not Planned"
   }
  },
  {
   "type": "Feature",
   "geometry": {
    "type": "Point",
    "coordinates": [
     117.5916323,
     -30.56631532
    ]
   },
   "properties": {
    "name": "187 MOLLERIN ROCK SOUTH ROAD MOLLERIN 6475",
    "locID": "LOC000033723112",
    "tech": "SATELLITE",
    "upgrade": "NULL_NA",
    "gnaf_pid": "GAWA_162643429",
    "tech_change_status": "Not Planned"
   }
  },
  {
   "type": "Feature",
   "geometry": {
    "type": "Point",
    "coordinates": [
     117.56692659,
     -30.56642632
    ]
   },
   "properties": {
    "name": "226 MOLLERIN ROCK SOUTH ROAD MOLLERIN 6475",
    "locID": "LOC000057920926",
    "tech": "SATELLITE",
    "upgrade": "NULL_NA",
    "gnaf_pid": "GAWA_162643430",
    "tech_change_status": "Not Planned"
   }
  },
  {
   "type": "Feature",
   "geometry": {
    "type": "Point",
    "coordinates": [
     117.44163148,
     -30.48544017
    ]
   },
   "properties": {
    "name": "169 OVENS ROAD MOLLERIN 6475",
    "locID": "LOC000082474549",
    "tech": "SATELLITE",
    "upgrade": "NULL_NA",
    "gnaf_pid": "GAWA_162644085",
    "tech_change_status": "Not Planned"
   }
  },
  {
   "type": "Feature",
   "geometry": {
    "type": "Point",
    "coordinates": [
     117.41555059,
     -30.4960888
    ]
   },
   "properties": {
    "name": "80 OVENS ROAD MOLLERIN 6475",
    "locID": "LOC000059421178",
    "tech": "SATELLITE",
    "upgrade": "NULL_NA",
    "gnaf_pid": "GAWA_162644086",
    "tech_change_status": "Not Planned"
   }
  },
  {
   "type": "Feature",
   "geometry": {
    "type": "Point",
    "coordinates": [
     117.52615065,
     -30.32520645
    ]
   },
   "properties": {
    "name": "1833 SCOTSMAN ROAD MOLLERIN 6475",
    "locID": "LOC000033580421",
    "tech": "SATELLITE",
    "upgrade": "NULL_NA",
    "gnaf_pid": "GAWA_162645237",
    "tech_change_status": "Not Planned"
   }
  },
  {
   "type": "Feature",
   "geometry": {
    "type": "Point",
    "coordinates": [
     117.42496985,
     -30.35046591
    ]
   },
   "properties": {
    "name": "892 SCOTSMAN ROAD MOLLERIN 6475",
    "locID": "LOC000024546176",
    "tech": "SATELLITE",
    "upgrade": "NULL_NA",
    "gnaf_pid": "GAWA_162645238",
    "tech_change_status": "Not Planned"
   }
  },
  {
   "type": "Feature",
   "geometry": {
    "type": "Point",
    "coordinates": [
     117.5403865,
     -30.39841462
    ]
   },
   "properties": {
    "name": "237 WALKER ROAD MOLLERIN 6475",
    "locID": "LOC000083053755",
    "tech": "SATELLITE",
    "upgrade": "NULL_NA",
    "gnaf_pid": "GAWA_162647002",
    "tech_change_status": "Not Planned"
   }
  },
  {
   "type": "Feature",
   "geometry": {
    "type": "Point",
    "coordinates": [
     117.5403865,
     -30.39841462
    ]
   },
   "properties": {
    "name": "239 WALKER ROAD MOLLERIN 6475",
    "locID": "LOC000019508440",
    "tech": "SATELLITE",
    "upgrade": "NULL_NA",
    "gnaf_pid": "GAWA_162647003",
    "tech_change_status": "Not Planned"
   }
  }
 ]
}