{
 "type": "FeatureCollection",
 "generated": "2023-11-12T16:50:10.212378",
 "suburb": "MOUNT ERIN",
 "features": [
  {
   "type": "Feature",
   "geometry": {
    "type": "Point",
    "coordinates": [
     114.836127,
     -28.539886
    ]
   },
   "properties": {
    "name": "164 CRABBE ROAD MOUNT ERIN 6532",
    "locID": "LOC000007796143",
    "tech": "SATELLITE",
    "upgrade": "NULL_NA",
    "gnaf_pid": "GAWA_162000412"
   }
  },
  {
   "type": "Feature",
   "geometry": {
    "type": "Point",
    "coordinates": [
     114.89397999,
     -28.56514197
    ]
   },
   "properties": {
    "name": "1751 DURAWAH NORTHERN GULLY ROAD MOUNT ERIN 6532",
    "locID": "LOC000012046381",
    "tech": "SATELLITE",
    "upgrade": "NULL_NA",
    "gnaf_pid": "GAWA_162000564"
   }
  },
  {
   "type": "Feature",
   "geometry": {
    "type": "Point",
    "coordinates": [
     114.848461,
     -28.553447
    ]
   },
   "properties": {
    "name": "905 DURAWAH ROAD MOUNT ERIN 6532",
    "locID": "LOC000040362174",
    "tech": "SATELLITE",
    "upgrade": "NULL_NA",
    "gnaf_pid": "GAWA_162000566"
   }
  },
  {
   "type": "Feature",
   "geometry": {
    "type": "Point",
    "coordinates": [
     114.889782,
     -28.57914
    ]
   },
   "properties": {
    "name": "479 FORRESTER ROAD MOUNT ERIN 6532",
    "locID": "LOC000007078541",
    "tech": "SATELLITE",
    "upgrade": "NULL_NA",
    "gnaf_pid": "GAWA_162000747"
   }
  },
  {
   "type": "Feature",
   "geometry": {
    "type": "Point",
    "coordinates": [
     114.840751,
     -28.515932
    ]
   },
   "properties": {
    "name": "478 INDIALLA ROAD MOUNT ERIN 6532",
    "locID": "LOC000095728016",
    "tech": "SATELLITE",
    "upgrade": "NULL_NA",
    "gnaf_pid": "GAWA_162001060"
   }
  },
  {
   "type": "Feature",
   "geometry": {
    "type": "Point",
    "coordinates": [
     114.856774,
     -28.605856
    ]
   },
   "properties": {
    "name": "1341 MURPHY NORRIS ROAD MOUNT ERIN 6532",
    "locID": "LOC000032351957",
    "tech": "SATELLITE",
    "upgrade": "NULL_NA",
    "gnaf_pid": "GAWA_162001745"
   }
  },
  {
   "type": "Feature",
   "geometry": {
    "type": "Point",
    "coordinates": [
     114.86481956,
     -28.57887569
    ]
   },
   "properties": {
    "name": "1104 NEWMARRACARRA ROAD MOUNT ERIN 6532",
    "locID": "LOC000061165631",
    "tech": "SATELLITE",
    "upgrade": "NULL_NA",
    "gnaf_pid": "GAWA_162001869"
   }
  },
  {
   "type": "Feature",
   "geometry": {
    "type": "Point",
    "coordinates": [
     114.869349,
     -28.593023
    ]
   },
   "properties": {
    "name": "944 NEWMARRACARRA ROAD MOUNT ERIN 6532",
    "locID": "LOC000090654366",
    "tech": "SATELLITE",
    "upgrade": "NULL_NA",
    "gnaf_pid": "GAWA_162001870"
   }
  },
  {
   "type": "Feature",
   "geometry": {
    "type": "Point",
    "coordinates": [
     114.86980434,
     -28.52313608
    ]
   },
   "properties": {
    "name": "LOT 8 INDIALLA ROAD MOUNT ERIN 6532",
    "locID": "Eig4IEluZGlhbGxhIFJkLCBOYWJhd2EgV0EgNjUzMiwgQXVzdHJhbGlhIjASLgoUChIJl1yFhKWs2ysROyi48beg1w0QCCoUChIJOT0bU-FU2isR9Vl_UBjwDXs",
    "tech": "SATELLITE",
    "upgrade": "UNKNOWN",
    "gnaf_pid": "GAWA_162252634"
   }
  },
  {
   "type": "Feature",
   "geometry": {
    "type": "Point",
    "coordinates": [
     114.85252573,
     -28.55780787
    ]
   },
   "properties": {
    "name": "90 DURAWAH ROAD MOUNT ERIN 6532",
    "locID": "LOC000040362174",
    "tech": "SATELLITE",
    "upgrade": "NULL_NA",
    "gnaf_pid": "GAWA_163388529"
   }
  },
  {
   "type": "Feature",
   "geometry": {
    "type": "Point",
    "coordinates": [
     114.87870388,
     -28.5501394
    ]
   },
   "properties": {
    "name": "907 DURAWAH ROAD MOUNT ERIN 6532",
    "locID": "ChIJgxqey6JV2isRP8nwqzGsRu8",
    "tech": "SATELLITE",
    "upgrade": "UNKNOWN",
    "gnaf_pid": "GAWA_718339177"
   }
  },
  {
   "type": "Feature",
   "geometry": {
    "type": "Point",
    "coordinates": [
     114.85946761,
     -28.5868931
    ]
   },
   "properties": {
    "name": "1415 NEWMARRACARRA ROAD MOUNT ERIN 6532",
    "locID": "ChIJwfKRgH9W2isRSCy4tUDy4t0",
    "tech": "SATELLITE",
    "upgrade": "UNKNOWN",
    "gnaf_pid": "GAWA_718735599"
   }
  }
 ]
}