{
 "type": "FeatureCollection",
 "generated": "2024-08-18T10:12:47.847205",
 "suburb": "MOUNT STIRLING",
 "features": [
  {
   "type": "Feature",
   "geometry": {
    "type": "Point",
    "coordinates": [
     117.41651588,
     -31.85190206
    ]
   },
   "properties": {
    "name": "1528 BADJALING NORTH ROAD MOUNT STIRLING 6383",
    "locID": "LOC000032801818",
    "tech": "SATELLITE",
    "upgrade": "NULL_NA",
    "gnaf_pid": "GAWA_162258898",
    "tech_change_status": "Not Planned"
   }
  },
  {
   "type": "Feature",
   "geometry": {
    "type": "Point",
    "coordinates": [
     117.5475901,
     -31.92773208
    ]
   },
   "properties": {
    "name": "486 BLAND ROAD MOUNT STIRLING 6383",
    "locID": "LOC000008011851",
    "tech": "SATELLITE",
    "upgrade": "NULL_NA",
    "gnaf_pid": "GAWA_162259567",
    "tech_change_status": "Not Planned"
   }
  },
  {
   "type": "Feature",
   "geometry": {
    "type": "Point",
    "coordinates": [
     117.603691,
     -31.825257
    ]
   },
   "properties": {
    "name": "2561 KELLERBERRIN-YOTING ROAD MOUNT STIRLING 6383",
    "locID": "LOC000010468075",
    "tech": "SATELLITE",
    "upgrade": "NULL_NA",
    "gnaf_pid": "GAWA_162265020",
    "tech_change_status": "Not Planned"
   }
  },
  {
   "type": "Feature",
   "geometry": {
    "type": "Point",
    "coordinates": [
     117.606807,
     -31.836476
    ]
   },
   "properties": {
    "name": "2617 KELLERBERRIN-YOTING ROAD MOUNT STIRLING 6383",
    "locID": "LOC000015405700",
    "tech": "SATELLITE",
    "upgrade": "NULL_NA",
    "gnaf_pid": "GAWA_162265021",
    "tech_change_status": "Not Planned"
   }
  },
  {
   "type": "Feature",
   "geometry": {
    "type": "Point",
    "coordinates": [
     117.597036,
     -31.859827
    ]
   },
   "properties": {
    "name": "2865 KELLERBERRIN-YOTING ROAD MOUNT STIRLING 6383",
    "locID": "LOC000100601322",
    "tech": "SATELLITE",
    "upgrade": "NULL_NA",
    "gnaf_pid": "GAWA_162265022",
    "tech_change_status": "Not Planned"
   }
  },
  {
   "type": "Feature",
   "geometry": {
    "type": "Point",
    "coordinates": [
     117.609037,
     -31.900493
    ]
   },
   "properties": {
    "name": "3341 KELLERBERRIN-YOTING ROAD MOUNT STIRLING 6383",
    "locID": "LOC000011230438",
    "tech": "SATELLITE",
    "upgrade": "NULL_NA",
    "gnaf_pid": "GAWA_162265023",
    "tech_change_status": "Not Planned"
   }
  },
  {
   "type": "Feature",
   "geometry": {
    "type": "Point",
    "coordinates": [
     117.477183,
     -31.897353
    ]
   },
   "properties": {
    "name": "1477 MOUNT STIRLING ROAD MOUNT STIRLING 6383",
    "locID": "LOC000038996028",
    "tech": "SATELLITE",
    "upgrade": "NULL_NA",
    "gnaf_pid": "GAWA_162267072",
    "tech_change_status": "Not Planned"
   }
  },
  {
   "type": "Feature",
   "geometry": {
    "type": "Point",
    "coordinates": [
     117.52007586,
     -31.88989538
    ]
   },
   "properties": {
    "name": "1840 MOUNT STIRLING ROAD MOUNT STIRLING 6383",
    "locID": "LOC000010595982",
    "tech": "SATELLITE",
    "upgrade": "NULL_NA",
    "gnaf_pid": "GAWA_162267073",
    "tech_change_status": "Not Planned"
   }
  },
  {
   "type": "Feature",
   "geometry": {
    "type": "Point",
    "coordinates": [
     117.501156,
     -31.856318
    ]
   },
   "properties": {
    "name": "541 TAYLOR NORTH WEST ROAD MOUNT STIRLING 6383",
    "locID": "LOC000099200206",
    "tech": "SATELLITE",
    "upgrade": "NULL_NA",
    "gnaf_pid": "GAWA_162270358",
    "tech_change_status": "Not Planned"
   }
  },
  {
   "type": "Feature",
   "geometry": {
    "type": "Point",
    "coordinates": [
     117.43951993,
     -31.86824397
    ]
   },
   "properties": {
    "name": "159 WILLS ROAD MOUNT STIRLING 6383",
    "locID": "LOC000037678202",
    "tech": "SATELLITE",
    "upgrade": "NULL_NA",
    "gnaf_pid": "GAWA_162271626",
    "tech_change_status": "Not Planned"
   }
  },
  {
   "type": "Feature",
   "geometry": {
    "type": "Point",
    "coordinates": [
     117.45399,
     -31.878535
    ]
   },
   "properties": {
    "name": "155 WILSON ROAD MOUNT STIRLING 6383",
    "locID": "LOC000090023070",
    "tech": "SATELLITE",
    "upgrade": "NULL_NA",
    "gnaf_pid": "GAWA_162271651",
    "tech_change_status": "Not Planned"
   }
  },
  {
   "type": "Feature",
   "geometry": {
    "type": "Point",
    "coordinates": [
     117.550653,
     -31.903679
    ]
   },
   "properties": {
    "name": "659 YOTING NORTH ROAD MOUNT STIRLING 6383",
    "locID": "LOC000002110700",
    "tech": "SATELLITE",
    "upgrade": "NULL_NA",
    "gnaf_pid": "GAWA_162272026",
    "tech_change_status": "Not Planned"
   }
  },
  {
   "type": "Feature",
   "geometry": {
    "type": "Point",
    "coordinates": [
     117.570526,
     -31.894225
    ]
   },
   "properties": {
    "name": "678 YOTING NORTH ROAD MOUNT STIRLING 6383",
    "locID": "LOC000108914914",
    "tech": "SATELLITE",
    "upgrade": "NULL_NA",
    "gnaf_pid": "GAWA_162272027",
    "tech_change_status": "Not Planned"
   }
  },
  {
   "type": "Feature",
   "geometry": {
    "type": "Point",
    "coordinates": [
     117.5475901,
     -31.92773208
    ]
   },
   "properties": {
    "name": "532 BLAND ROAD MOUNT STIRLING 6383",
    "locID": "LOC000073592297",
    "tech": "SATELLITE",
    "upgrade": "NULL_NA",
    "gnaf_pid": "GAWA_162276129",
    "tech_change_status": "Not Planned"
   }
  },
  {
   "type": "Feature",
   "geometry": {
    "type": "Point",
    "coordinates": [
     117.41568644,
     -31.84376839
    ]
   },
   "properties": {
    "name": "4037 CUBBINE ROAD MOUNT STIRLING 6383",
    "locID": "LOC000098084838",
    "tech": "SATELLITE",
    "upgrade": "NULL_NA",
    "gnaf_pid": "GAWA_162276748",
    "tech_change_status": "Not Planned"
   }
  },
  {
   "type": "Feature",
   "geometry": {
    "type": "Point",
    "coordinates": [
     117.400006,
     -31.808161
    ]
   },
   "properties": {
    "name": "104 QUARTERMAINE ROAD MOUNT STIRLING 6383",
    "locID": "LOC000032111908",
    "tech": "SATELLITE",
    "upgrade": "NULL_NA",
    "gnaf_pid": "GAWA_162279007",
    "tech_change_status": "Not Planned"
   }
  },
  {
   "type": "Feature",
   "geometry": {
    "type": "Point",
    "coordinates": [
     117.50967052,
     -31.87757698
    ]
   },
   "properties": {
    "name": "LOT 2 MOUNT STIRLING ROAD MOUNT STIRLING 6383",
    "locID": "LOC000015468904",
    "tech": "SATELLITE",
    "upgrade": "NULL_NA",
    "gnaf_pid": "GAWA_162820063",
    "tech_change_status": "Not Planned"
   }
  }
 ]
}