{
 "type": "FeatureCollection",
 "generated": "2024-09-06T16:31:27.387135",
 "suburb": "NANGETTY",
 "features": [
  {
   "type": "Feature",
   "geometry": {
    "type": "Point",
    "coordinates": [
     115.32939357,
     -29.05879912
    ]
   },
   "properties": {
    "name": "2009 DEPOT HILL ROAD NANGETTY 6522",
    "locID": "LOC000097529343",
    "tech": "NULL",
    "upgrade": "NULL_NA",
    "gnaf_pid": "GAWA_161996846",
    "tech_change_status": "Not Planned"
   }
  },
  {
   "type": "Feature",
   "geometry": {
    "type": "Point",
    "coordinates": [
     115.29249767,
     -29.08166389
    ]
   },
   "properties": {
    "name": "5037 ALLANOOKA SPRINGS ROAD NANGETTY 6522",
    "locID": "LOC000012796096",
    "tech": "NULL",
    "upgrade": "NULL_NA",
    "gnaf_pid": "GAWA_161999456",
    "tech_change_status": "Not Planned"
   }
  },
  {
   "type": "Feature",
   "geometry": {
    "type": "Point",
    "coordinates": [
     115.4691976,
     -29.0452117
    ]
   },
   "properties": {
    "name": "335 BYRO ROAD NANGETTY 6522",
    "locID": "LOC000072845671",
    "tech": "NULL",
    "upgrade": "NULL_NA",
    "gnaf_pid": "GAWA_162000036",
    "tech_change_status": "Not Planned"
   }
  },
  {
   "type": "Feature",
   "geometry": {
    "type": "Point",
    "coordinates": [
     115.53347621,
     -29.05251774
    ]
   },
   "properties": {
    "name": "1571 COALSEAM ROAD NANGETTY 6522",
    "locID": "LOC000079044278",
    "tech": "NULL",
    "upgrade": "NULL_NA",
    "gnaf_pid": "GAWA_162000336",
    "tech_change_status": "Not Planned"
   }
  },
  {
   "type": "Feature",
   "geometry": {
    "type": "Point",
    "coordinates": [
     115.34857411,
     -29.04472654
    ]
   },
   "properties": {
    "name": "2142 DEPOT HILL ROAD NANGETTY 6522",
    "locID": "LOC000101294443",
    "tech": "SATELLITE",
    "upgrade": "NULL_NA",
    "gnaf_pid": "GAWA_162000499",
    "tech_change_status": "Not Planned"
   }
  },
  {
   "type": "Feature",
   "geometry": {
    "type": "Point",
    "coordinates": [
     115.294613,
     -29.016355
    ]
   },
   "properties": {
    "name": "2319 DEPOT HILL ROAD NANGETTY 6522",
    "locID": "LOC000045779903",
    "tech": "NULL",
    "upgrade": "NULL_NA",
    "gnaf_pid": "GAWA_162000500",
    "tech_change_status": "Not Planned"
   }
  },
  {
   "type": "Feature",
   "geometry": {
    "type": "Point",
    "coordinates": [
     115.35719479,
     -28.99036529
    ]
   },
   "properties": {
    "name": "2632 DEPOT HILL ROAD NANGETTY 6522",
    "locID": "LOC100082108947",
    "tech": "NULL",
    "upgrade": "NULL_NA",
    "gnaf_pid": "GAWA_162000501",
    "tech_change_status": "Not Planned"
   }
  },
  {
   "type": "Feature",
   "geometry": {
    "type": "Point",
    "coordinates": [
     115.35150271,
     -28.96426152
    ]
   },
   "properties": {
    "name": "2940 DEPOT HILL ROAD NANGETTY 6522",
    "locID": "LOC000022873060",
    "tech": "SATELLITE",
    "upgrade": "NULL_NA",
    "gnaf_pid": "GAWA_162000502",
    "tech_change_status": "Not Planned"
   }
  },
  {
   "type": "Feature",
   "geometry": {
    "type": "Point",
    "coordinates": [
     115.29455349,
     -29.04806823
    ]
   },
   "properties": {
    "name": "4343 ERANGY SPRING ROAD NANGETTY 6522",
    "locID": "LOC000072936527",
    "tech": "NULL",
    "upgrade": "NULL_NA",
    "gnaf_pid": "GAWA_162000661",
    "tech_change_status": "Not Planned"
   }
  },
  {
   "type": "Feature",
   "geometry": {
    "type": "Point",
    "coordinates": [
     115.29455349,
     -29.04806823
    ]
   },
   "properties": {
    "name": "4351 ERANGY SPRING ROAD NANGETTY 6522",
    "locID": "LOC000050615665",
    "tech": "NULL",
    "upgrade": "NULL_NA",
    "gnaf_pid": "GAWA_162000662",
    "tech_change_status": "Not Planned"
   }
  },
  {
   "type": "Feature",
   "geometry": {
    "type": "Point",
    "coordinates": [
     115.29249767,
     -29.08166389
    ]
   },
   "properties": {
    "name": "4715 ERANGY SPRING ROAD NANGETTY 6522",
    "locID": "LOC000090400510",
    "tech": "NULL",
    "upgrade": "NULL_NA",
    "gnaf_pid": "GAWA_162000664",
    "tech_change_status": "Not Planned"
   }
  },
  {
   "type": "Feature",
   "geometry": {
    "type": "Point",
    "coordinates": [
     115.39190929,
     -29.0534109
    ]
   },
   "properties": {
    "name": "1649 MINGENEW-MULLEWA ROAD NANGETTY 6522",
    "locID": "LOC000072540093",
    "tech": "SATELLITE",
    "upgrade": "NULL_NA",
    "gnaf_pid": "GAWA_162001639",
    "tech_change_status": "Not Planned"
   }
  },
  {
   "type": "Feature",
   "geometry": {
    "type": "Point",
    "coordinates": [
     115.395631,
     -29.020213
    ]
   },
   "properties": {
    "name": "1803 MINGENEW-MULLEWA ROAD NANGETTY 6522",
    "locID": "LOC000046368445",
    "tech": "NULL",
    "upgrade": "NULL_NA",
    "gnaf_pid": "GAWA_162001640",
    "tech_change_status": "Not Planned"
   }
  },
  {
   "type": "Feature",
   "geometry": {
    "type": "Point",
    "coordinates": [
     115.40260373,
     -28.95725737
    ]
   },
   "properties": {
    "name": "2463 MINGENEW-MULLEWA ROAD NANGETTY 6522",
    "locID": "LOC000091754824",
    "tech": "SATELLITE",
    "upgrade": "NULL_NA",
    "gnaf_pid": "GAWA_162001641",
    "tech_change_status": "Not Planned"
   }
  },
  {
   "type": "Feature",
   "geometry": {
    "type": "Point",
    "coordinates": [
     115.40260373,
     -28.95725737
    ]
   },
   "properties": {
    "name": "2515 MINGENEW-MULLEWA ROAD NANGETTY 6522",
    "locID": "LOC000046553789",
    "tech": "SATELLITE",
    "upgrade": "NULL_NA",
    "gnaf_pid": "GAWA_162001644",
    "tech_change_status": "Not Planned"
   }
  },
  {
   "type": "Feature",
   "geometry": {
    "type": "Point",
    "coordinates": [
     115.45580412,
     -28.93086182
    ]
   },
   "properties": {
    "name": "3186 MINGENEW-MULLEWA ROAD NANGETTY 6522",
    "locID": "LOC000065624866",
    "tech": "NULL",
    "upgrade": "NULL_NA",
    "gnaf_pid": "GAWA_162001645",
    "tech_change_status": "Not Planned"
   }
  },
  {
   "type": "Feature",
   "geometry": {
    "type": "Point",
    "coordinates": [
     115.465135,
     -29.021038
    ]
   },
   "properties": {
    "name": "261 MUNGATERRA ROAD NANGETTY 6522",
    "locID": "LOC000002974293",
    "tech": "NULL",
    "upgrade": "NULL_NA",
    "gnaf_pid": "GAWA_162001742",
    "tech_change_status": "Not Planned"
   }
  },
  {
   "type": "Feature",
   "geometry": {
    "type": "Point",
    "coordinates": [
     115.3576367,
     -29.03795285
    ]
   },
   "properties": {
    "name": "488 YARRAGADEE WEST ROAD NANGETTY 6522",
    "locID": "LOC000048049963",
    "tech": "SATELLITE",
    "upgrade": "NULL_NA",
    "gnaf_pid": "GAWA_162003418",
    "tech_change_status": "Not Planned"
   }
  }
 ]
}