{
 "type": "FeatureCollection",
 "generated": "2024-07-07T22:20:12.869507",
 "suburb": "NORTH YELBENI",
 "features": [
  {
   "type": "Feature",
   "geometry": {
    "type": "Point",
    "coordinates": [
     117.70527351,
     -31.01513931
    ]
   },
   "properties": {
    "name": "302 BROWN ROAD NORTH YELBENI 6487",
    "locID": "LOC000082852241",
    "tech": "SATELLITE",
    "upgrade": "NULL_NA",
    "gnaf_pid": "GAWA_161889855",
    "tech_change_status": "Not Planned"
   }
  },
  {
   "type": "Feature",
   "geometry": {
    "type": "Point",
    "coordinates": [
     117.69961917,
     -30.98241879
    ]
   },
   "properties": {
    "name": "2346 GABBIN-TRAYNING ROAD NORTH YELBENI 6487",
    "locID": "LOC000063267909",
    "tech": "SATELLITE",
    "upgrade": "NULL_NA",
    "gnaf_pid": "GAWA_161891102",
    "tech_change_status": "Not Planned"
   }
  },
  {
   "type": "Feature",
   "geometry": {
    "type": "Point",
    "coordinates": [
     117.66870362,
     -31.10689865
    ]
   },
   "properties": {
    "name": "625 GALE ROAD NORTH YELBENI 6487",
    "locID": "LOC000109912449",
    "tech": "SATELLITE",
    "upgrade": "NULL_NA",
    "gnaf_pid": "GAWA_161891105",
    "tech_change_status": "Not Planned"
   }
  },
  {
   "type": "Feature",
   "geometry": {
    "type": "Point",
    "coordinates": [
     117.69734227,
     -31.14193468
    ]
   },
   "properties": {
    "name": "70 GALE ROAD NORTH YELBENI 6487",
    "locID": "LOC000002122338",
    "tech": "SATELLITE",
    "upgrade": "NULL_NA",
    "gnaf_pid": "GAWA_161891106",
    "tech_change_status": "Not Planned"
   }
  },
  {
   "type": "Feature",
   "geometry": {
    "type": "Point",
    "coordinates": [
     117.64111071,
     -31.03267579
    ]
   },
   "properties": {
    "name": "244 GANGELL ROAD NORTH YELBENI 6487",
    "locID": "LOC000044602115",
    "tech": "SATELLITE",
    "upgrade": "NULL_NA",
    "gnaf_pid": "GAWA_161891107",
    "tech_change_status": "Not Planned"
   }
  },
  {
   "type": "Feature",
   "geometry": {
    "type": "Point",
    "coordinates": [
     117.64634455,
     -31.12902505
    ]
   },
   "properties": {
    "name": "2709 GOLDFIELDS ROAD NORTH YELBENI 6487",
    "locID": "LOC000108701343",
    "tech": "SATELLITE",
    "upgrade": "NULL_NA",
    "gnaf_pid": "GAWA_161891379",
    "tech_change_status": "Not Planned"
   }
  },
  {
   "type": "Feature",
   "geometry": {
    "type": "Point",
    "coordinates": [
     117.68867881,
     -31.04096282
    ]
   },
   "properties": {
    "name": "168 MCANDREW ROAD NORTH YELBENI 6487",
    "locID": "LOC000012397906",
    "tech": "SATELLITE",
    "upgrade": "NULL_NA",
    "gnaf_pid": "GAWA_161892232",
    "tech_change_status": "Not Planned"
   }
  },
  {
   "type": "Feature",
   "geometry": {
    "type": "Point",
    "coordinates": [
     117.68095146,
     -31.05998438
    ]
   },
   "properties": {
    "name": "365 MCANDREW ROAD NORTH YELBENI 6487",
    "locID": "LOC000048207612",
    "tech": "SATELLITE",
    "upgrade": "NULL_NA",
    "gnaf_pid": "GAWA_161892233",
    "tech_change_status": "Not Planned"
   }
  },
  {
   "type": "Feature",
   "geometry": {
    "type": "Point",
    "coordinates": [
     117.70588066,
     -31.07730275
    ]
   },
   "properties": {
    "name": "120 MULLINS ROAD NORTH YELBENI 6487",
    "locID": "LOC000040001661",
    "tech": "SATELLITE",
    "upgrade": "NULL_NA",
    "gnaf_pid": "GAWA_161892602",
    "tech_change_status": "Not Planned"
   }
  },
  {
   "type": "Feature",
   "geometry": {
    "type": "Point",
    "coordinates": [
     117.70680867,
     -31.12689658
    ]
   },
   "properties": {
    "name": "3864 NUNGARIN-WYALKATCHEM ROAD NORTH YELBENI 6487",
    "locID": "LOC000098239332",
    "tech": "SATELLITE",
    "upgrade": "NULL_NA",
    "gnaf_pid": "GAWA_161892749",
    "tech_change_status": "Not Planned"
   }
  },
  {
   "type": "Feature",
   "geometry": {
    "type": "Point",
    "coordinates": [
     117.63714292,
     -31.07901696
    ]
   },
   "properties": {
    "name": "1073 SHERZINGER ROAD NORTH YELBENI 6487",
    "locID": "LOC000050837312",
    "tech": "SATELLITE",
    "upgrade": "NULL_NA",
    "gnaf_pid": "GAWA_161893641",
    "tech_change_status": "Not Planned"
   }
  },
  {
   "type": "Feature",
   "geometry": {
    "type": "Point",
    "coordinates": [
     117.64782183,
     -31.07005944
    ]
   },
   "properties": {
    "name": "1156 SHERZINGER ROAD NORTH YELBENI 6487",
    "locID": "LOC000088184271",
    "tech": "SATELLITE",
    "upgrade": "NULL_NA",
    "gnaf_pid": "GAWA_161893642",
    "tech_change_status": "Not Planned"
   }
  },
  {
   "type": "Feature",
   "geometry": {
    "type": "Point",
    "coordinates": [
     117.63163662,
     -31.1379476
    ]
   },
   "properties": {
    "name": "407 SHERZINGER ROAD NORTH YELBENI 6487",
    "locID": "LOC000032771174",
    "tech": "SATELLITE",
    "upgrade": "NULL_NA",
    "gnaf_pid": "GAWA_161893643",
    "tech_change_status": "Not Planned"
   }
  },
  {
   "type": "Feature",
   "geometry": {
    "type": "Point",
    "coordinates": [
     117.62875458,
     -31.111122
    ]
   },
   "properties": {
    "name": "703 SHERZINGER ROAD NORTH YELBENI 6487",
    "locID": "LOC000076884240",
    "tech": "SATELLITE",
    "upgrade": "NULL_NA",
    "gnaf_pid": "GAWA_161893644",
    "tech_change_status": "Not Planned"
   }
  },
  {
   "type": "Feature",
   "geometry": {
    "type": "Point",
    "coordinates": [
     117.69953702,
     -31.00173572
    ]
   },
   "properties": {
    "name": "1639 SWAMP WELL ROAD NORTH YELBENI 6487",
    "locID": "LOC000010495685",
    "tech": "SATELLITE",
    "upgrade": "NULL_NA",
    "gnaf_pid": "GAWA_161893945",
    "tech_change_status": "Not Planned"
   }
  },
  {
   "type": "Feature",
   "geometry": {
    "type": "Point",
    "coordinates": [
     117.64111071,
     -31.03267579
    ]
   },
   "properties": {
    "name": "270 GANGELL ROAD NORTH YELBENI 6487",
    "locID": "LOC000056326368",
    "tech": "SATELLITE",
    "upgrade": "NULL_NA",
    "gnaf_pid": "GAWA_161902143",
    "tech_change_status": "Not Planned"
   }
  },
  {
   "type": "Feature",
   "geometry": {
    "type": "Point",
    "coordinates": [
     117.6109,
     -31.16791
    ]
   },
   "properties": {
    "name": "361 SHERZINGER ROAD NORTH YELBENI 6487",
    "locID": "LOC000080742534",
    "tech": "SATELLITE",
    "upgrade": "NULL_NA",
    "gnaf_pid": "GAWA_161932213",
    "tech_change_status": "Not Planned"
   }
  }
 ]
}