{
 "type": "FeatureCollection",
 "generated": "2024-07-07T23:40:24.957787",
 "suburb": "REGANS FORD",
 "features": [
  {
   "type": "Feature",
   "geometry": {
    "type": "Point",
    "coordinates": [
     115.72006,
     -30.97539
    ]
   },
   "properties": {
    "name": "7606 BRAND HIGHWAY REGANS FORD 6507",
    "locID": "LOC000003046993",
    "tech": "SATELLITE",
    "upgrade": "NULL_NA",
    "gnaf_pid": "GAWA_161420412",
    "tech_change_status": "Not Planned"
   }
  },
  {
   "type": "Feature",
   "geometry": {
    "type": "Point",
    "coordinates": [
     115.65140608,
     -30.93428877
    ]
   },
   "properties": {
    "name": "8247 BRAND HIGHWAY REGANS FORD 6507",
    "locID": "LOC000045226383",
    "tech": "SATELLITE",
    "upgrade": "NULL_NA",
    "gnaf_pid": "GAWA_161420413",
    "tech_change_status": "Not Planned"
   }
  },
  {
   "type": "Feature",
   "geometry": {
    "type": "Point",
    "coordinates": [
     115.71667,
     -30.9585
    ]
   },
   "properties": {
    "name": "246 DANDARAGAN ROAD REGANS FORD 6507",
    "locID": "LOC000033629116",
    "tech": "SATELLITE",
    "upgrade": "NULL_NA",
    "gnaf_pid": "GAWA_161421049",
    "tech_change_status": "Not Planned"
   }
  },
  {
   "type": "Feature",
   "geometry": {
    "type": "Point",
    "coordinates": [
     115.70737,
     -30.97713
    ]
   },
   "properties": {
    "name": "32 DANDARAGAN ROAD REGANS FORD 6507",
    "locID": "LOC000004499164",
    "tech": "SATELLITE",
    "upgrade": "NULL_NA",
    "gnaf_pid": "GAWA_161421050",
    "tech_change_status": "Not Planned"
   }
  },
  {
   "type": "Feature",
   "geometry": {
    "type": "Point",
    "coordinates": [
     115.71697,
     -30.93718
    ]
   },
   "properties": {
    "name": "450 DANDARAGAN ROAD REGANS FORD 6507",
    "locID": "LOC000048054230",
    "tech": "SATELLITE",
    "upgrade": "NULL_NA",
    "gnaf_pid": "GAWA_161421051",
    "tech_change_status": "Not Planned"
   }
  },
  {
   "type": "Feature",
   "geometry": {
    "type": "Point",
    "coordinates": [
     115.76557759,
     -30.94656588
    ]
   },
   "properties": {
    "name": "1040 GILLINGARRA ROAD REGANS FORD 6507",
    "locID": "LOC000069315755",
    "tech": "SATELLITE",
    "upgrade": "NULL_NA",
    "gnaf_pid": "GAWA_161421509",
    "tech_change_status": "Not Planned"
   }
  },
  {
   "type": "Feature",
   "geometry": {
    "type": "Point",
    "coordinates": [
     115.85059,
     -30.94596
    ]
   },
   "properties": {
    "name": "1936 GILLINGARRA ROAD REGANS FORD 6507",
    "locID": "LOC000101110875",
    "tech": "SATELLITE",
    "upgrade": "NULL_NA",
    "gnaf_pid": "GAWA_161421510",
    "tech_change_status": "Not Planned"
   }
  },
  {
   "type": "Feature",
   "geometry": {
    "type": "Point",
    "coordinates": [
     115.88684,
     -30.94147
    ]
   },
   "properties": {
    "name": "2309 GILLINGARRA ROAD REGANS FORD 6507",
    "locID": "LOC000020449531",
    "tech": "SATELLITE",
    "upgrade": "NULL_NA",
    "gnaf_pid": "GAWA_161421511",
    "tech_change_status": "Not Planned"
   }
  },
  {
   "type": "Feature",
   "geometry": {
    "type": "Point",
    "coordinates": [
     115.74542,
     -30.95215
    ]
   },
   "properties": {
    "name": "762 GILLINGARRA ROAD REGANS FORD 6507",
    "locID": "LOC000071133787",
    "tech": "SATELLITE",
    "upgrade": "NULL_NA",
    "gnaf_pid": "GAWA_161421512",
    "tech_change_status": "Not Planned"
   }
  },
  {
   "type": "Feature",
   "geometry": {
    "type": "Point",
    "coordinates": [
     115.61424,
     -30.93044
    ]
   },
   "properties": {
    "name": "327 NAMMEGARRA ROAD REGANS FORD 6507",
    "locID": "LOC000002112538",
    "tech": "SATELLITE",
    "upgrade": "NULL_NA",
    "gnaf_pid": "GAWA_161422563",
    "tech_change_status": "Not Planned"
   }
  },
  {
   "type": "Feature",
   "geometry": {
    "type": "Point",
    "coordinates": [
     115.70198234,
     -30.98289383
    ]
   },
   "properties": {
    "name": "LOT 1 DARCH STREET REGANS FORD 6507",
    "locID": "LOC000109487279",
    "tech": "SATELLITE",
    "upgrade": "NULL_NA",
    "gnaf_pid": "GAWA_162766682",
    "tech_change_status": "Not Planned"
   }
  },
  {
   "type": "Feature",
   "geometry": {
    "type": "Point",
    "coordinates": [
     115.80307086,
     -30.92398376
    ]
   },
   "properties": {
    "name": "LOT 3583 GILLINGARRA ROAD REGANS FORD 6507",
    "locID": "LOC000071133787",
    "tech": "SATELLITE",
    "upgrade": "NULL_NA",
    "gnaf_pid": "GAWA_719648018",
    "tech_change_status": "Not Planned"
   }
  },
  {
   "type": "Feature",
   "geometry": {
    "type": "Point",
    "coordinates": [
     115.80559271,
     -30.97069581
    ]
   },
   "properties": {
    "name": "LOT 7 WOODBINE ROAD REGANS FORD 6507",
    "locID": "LOC100079584295",
    "tech": "SATELLITE",
    "upgrade": "NULL_NA",
    "gnaf_pid": "GAWA_721105455",
    "tech_change_status": "Not Planned"
   }
  },
  {
   "type": "Feature",
   "geometry": {
    "type": "Point",
    "coordinates": [
     115.80559271,
     -30.97069581
    ]
   },
   "properties": {
    "name": "LOT 8 WOODBINE ROAD REGANS FORD 6507",
    "locID": "LOC100079584295",
    "tech": "SATELLITE",
    "upgrade": "NULL_NA",
    "gnaf_pid": "GAWA_721105589",
    "tech_change_status": "Not Planned"
   }
  }
 ]
}