{
 "type": "FeatureCollection",
 "generated": "2023-12-22T05:31:20.293414",
 "suburb": "REGANS FORD",
 "features": [
  {
   "type": "Feature",
   "geometry": {
    "type": "Point",
    "coordinates": [
     115.72006,
     -30.97539
    ]
   },
   "properties": {
    "name": "7606 BRAND HIGHWAY REGANS FORD 6507",
    "locID": "LOC000003046993",
    "tech": "SATELLITE",
    "upgrade": "NULL_NA",
    "gnaf_pid": "GAWA_161420412"
   }
  },
  {
   "type": "Feature",
   "geometry": {
    "type": "Point",
    "coordinates": [
     115.64961,
     -30.93857
    ]
   },
   "properties": {
    "name": "8247 BRAND HIGHWAY REGANS FORD 6507",
    "locID": "LOC000045226383",
    "tech": "SATELLITE",
    "upgrade": "NULL_NA",
    "gnaf_pid": "GAWA_161420413"
   }
  },
  {
   "type": "Feature",
   "geometry": {
    "type": "Point",
    "coordinates": [
     115.71667,
     -30.9585
    ]
   },
   "properties": {
    "name": "246 DANDARAGAN ROAD REGANS FORD 6507",
    "locID": "LOC000033629116",
    "tech": "SATELLITE",
    "upgrade": "NULL_NA",
    "gnaf_pid": "GAWA_161421049"
   }
  },
  {
   "type": "Feature",
   "geometry": {
    "type": "Point",
    "coordinates": [
     115.70737,
     -30.97713
    ]
   },
   "properties": {
    "name": "32 DANDARAGAN ROAD REGANS FORD 6507",
    "locID": "LOC000004499164",
    "tech": "SATELLITE",
    "upgrade": "NULL_NA",
    "gnaf_pid": "GAWA_161421050"
   }
  },
  {
   "type": "Feature",
   "geometry": {
    "type": "Point",
    "coordinates": [
     115.71697,
     -30.93718
    ]
   },
   "properties": {
    "name": "450 DANDARAGAN ROAD REGANS FORD 6507",
    "locID": "LOC000048054230",
    "tech": "SATELLITE",
    "upgrade": "NULL_NA",
    "gnaf_pid": "GAWA_161421051"
   }
  },
  {
   "type": "Feature",
   "geometry": {
    "type": "Point",
    "coordinates": [
     115.76557759,
     -30.94656588
    ]
   },
   "properties": {
    "name": "1040 GILLINGARRA ROAD REGANS FORD 6507",
    "locID": "LOC000069315755",
    "tech": "SATELLITE",
    "upgrade": "NULL_NA",
    "gnaf_pid": "GAWA_161421509"
   }
  },
  {
   "type": "Feature",
   "geometry": {
    "type": "Point",
    "coordinates": [
     115.85059,
     -30.94596
    ]
   },
   "properties": {
    "name": "1936 GILLINGARRA ROAD REGANS FORD 6507",
    "locID": "LOC000101110875",
    "tech": "SATELLITE",
    "upgrade": "NULL_NA",
    "gnaf_pid": "GAWA_161421510"
   }
  },
  {
   "type": "Feature",
   "geometry": {
    "type": "Point",
    "coordinates": [
     115.88684,
     -30.94147
    ]
   },
   "properties": {
    "name": "2309 GILLINGARRA ROAD REGANS FORD 6507",
    "locID": "LOC000020449531",
    "tech": "SATELLITE",
    "upgrade": "NULL_NA",
    "gnaf_pid": "GAWA_161421511"
   }
  },
  {
   "type": "Feature",
   "geometry": {
    "type": "Point",
    "coordinates": [
     115.74542,
     -30.95215
    ]
   },
   "properties": {
    "name": "762 GILLINGARRA ROAD REGANS FORD 6507",
    "locID": "LOC000071133787",
    "tech": "SATELLITE",
    "upgrade": "NULL_NA",
    "gnaf_pid": "GAWA_161421512"
   }
  },
  {
   "type": "Feature",
   "geometry": {
    "type": "Point",
    "coordinates": [
     115.61424,
     -30.93044
    ]
   },
   "properties": {
    "name": "327 NAMMEGARRA ROAD REGANS FORD 6507",
    "locID": "LOC000002112538",
    "tech": "SATELLITE",
    "upgrade": "NULL_NA",
    "gnaf_pid": "GAWA_161422563"
   }
  },
  {
   "type": "Feature",
   "geometry": {
    "type": "Point",
    "coordinates": [
     115.74478609,
     -30.98033716
    ]
   },
   "properties": {
    "name": "LOT 4 HUNTER ROAD REGANS FORD 6507",
    "locID": "EilIdW50ZXIgUmQsIFJlZ2FucyBGb3JkIFdBIDY1MDcsIEF1c3RyYWxpYSIuKiwKFAoSCSOZ8EB_h80rEWSD2VdZT3zVEhQKEgl_AeFsTYTNKxHA5XkkOPYABA",
    "tech": "SATELLITE",
    "upgrade": "UNKNOWN",
    "gnaf_pid": "GAWA_161553541"
   }
  },
  {
   "type": "Feature",
   "geometry": {
    "type": "Point",
    "coordinates": [
     115.70103566,
     -30.98372908
    ]
   },
   "properties": {
    "name": "10 HARRIS STREET REGANS FORD 6507",
    "locID": "ChIJbzS_gxmHzSsR9a4YOYSSg8I",
    "tech": "SATELLITE",
    "upgrade": "UNKNOWN",
    "gnaf_pid": "GAWA_162758896"
   }
  },
  {
   "type": "Feature",
   "geometry": {
    "type": "Point",
    "coordinates": [
     115.69821024,
     -30.98377578
    ]
   },
   "properties": {
    "name": "40 HARRIS STREET REGANS FORD 6507",
    "locID": "ChIJcS7v_hmHzSsR6efG0l0aabU",
    "tech": "SATELLITE",
    "upgrade": "UNKNOWN",
    "gnaf_pid": "GAWA_162758897"
   }
  },
  {
   "type": "Feature",
   "geometry": {
    "type": "Point",
    "coordinates": [
     115.70198234,
     -30.98289383
    ]
   },
   "properties": {
    "name": "LOT 1 DARCH STREET REGANS FORD 6507",
    "locID": "LOC000109487279",
    "tech": "SATELLITE",
    "upgrade": "NULL_NA",
    "gnaf_pid": "GAWA_162766682"
   }
  },
  {
   "type": "Feature",
   "geometry": {
    "type": "Point",
    "coordinates": [
     115.75017737,
     -30.97989914
    ]
   },
   "properties": {
    "name": "LOT 7 HUNTER ROAD REGANS FORD 6507",
    "locID": "EilIdW50ZXIgUmQsIFJlZ2FucyBGb3JkIFdBIDY1MDcsIEF1c3RyYWxpYSIuKiwKFAoSCSOZ8EB_h80rEWSD2VdZT3zVEhQKEgl_AeFsTYTNKxHA5XkkOPYABA",
    "tech": "SATELLITE",
    "upgrade": "UNKNOWN",
    "gnaf_pid": "GAWA_162838884"
   }
  },
  {
   "type": "Feature",
   "geometry": {
    "type": "Point",
    "coordinates": [
     115.70193786,
     -30.952889
    ]
   },
   "properties": {
    "name": "639 DANDARAGAN ROAD REGANS FORD 6507",
    "locID": "ChIJ6TLzGrGHzSsR9yYCTAOzr7M",
    "tech": "SATELLITE",
    "upgrade": "UNKNOWN",
    "gnaf_pid": "GAWA_163388271"
   }
  },
  {
   "type": "Feature",
   "geometry": {
    "type": "Point",
    "coordinates": [
     115.80307086,
     -30.92398376
    ]
   },
   "properties": {
    "name": "LOT 3583 GILLINGARRA ROAD REGANS FORD 6507",
    "locID": "LOC000071133787",
    "tech": "SATELLITE",
    "upgrade": "NULL_NA",
    "gnaf_pid": "GAWA_719648018"
   }
  },
  {
   "type": "Feature",
   "geometry": {
    "type": "Point",
    "coordinates": [
     115.78493401,
     -30.97433879
    ]
   },
   "properties": {
    "name": "915 WOODBINE ROAD REGANS FORD 6507",
    "locID": "ChIJM1Yku2uEzSsRYPnY5oybXf4",
    "tech": "SATELLITE",
    "upgrade": "UNKNOWN",
    "gnaf_pid": "GAWA_721084522"
   }
  },
  {
   "type": "Feature",
   "geometry": {
    "type": "Point",
    "coordinates": [
     115.80559271,
     -30.97069581
    ]
   },
   "properties": {
    "name": "2991 WOODBINE ROAD REGANS FORD 6507",
    "locID": "ChIJySoGEoqEzSsRR7vFKgltCUk",
    "tech": "SATELLITE",
    "upgrade": "UNKNOWN",
    "gnaf_pid": "GAWA_721105251"
   }
  },
  {
   "type": "Feature",
   "geometry": {
    "type": "Point",
    "coordinates": [
     115.80559271,
     -30.97069581
    ]
   },
   "properties": {
    "name": "2992 WOODBINE ROAD REGANS FORD 6507",
    "locID": "ChIJySoGEoqEzSsR9j9lEsLK55s",
    "tech": "SATELLITE",
    "upgrade": "UNKNOWN",
    "gnaf_pid": "GAWA_721105337"
   }
  },
  {
   "type": "Feature",
   "geometry": {
    "type": "Point",
    "coordinates": [
     115.80559271,
     -30.97069581
    ]
   },
   "properties": {
    "name": "LOT 7 WOODBINE ROAD REGANS FORD 6507",
    "locID": "LOC100079584295",
    "tech": "SATELLITE",
    "upgrade": "NULL_NA",
    "gnaf_pid": "GAWA_721105455"
   }
  },
  {
   "type": "Feature",
   "geometry": {
    "type": "Point",
    "coordinates": [
     115.80559271,
     -30.97069581
    ]
   },
   "properties": {
    "name": "LOT 8 WOODBINE ROAD REGANS FORD 6507",
    "locID": "LOC100079584295",
    "tech": "SATELLITE",
    "upgrade": "NULL_NA",
    "gnaf_pid": "GAWA_721105589"
   }
  }
 ]
}