{
 "type": "FeatureCollection",
 "generated": "2024-09-06T19:03:05.229448",
 "suburb": "ROSSMORE",
 "features": [
  {
   "type": "Feature",
   "geometry": {
    "type": "Point",
    "coordinates": [
     116.77994153,
     -31.41536402
    ]
   },
   "properties": {
    "name": "81 MCLEAN ROAD ROSSMORE 6401",
    "locID": "LOC000081437552",
    "tech": "NULL",
    "upgrade": "NULL_NA",
    "gnaf_pid": "GAWA_161924518",
    "tech_change_status": "Not Planned"
   }
  },
  {
   "type": "Feature",
   "geometry": {
    "type": "Point",
    "coordinates": [
     116.79003265,
     -31.38960556
    ]
   },
   "properties": {
    "name": "114 ROSSMORE ROAD ROSSMORE 6401",
    "locID": "LOC000023662208",
    "tech": "SATELLITE",
    "upgrade": "NULL_NA",
    "gnaf_pid": "GAWA_161925204",
    "tech_change_status": "Not Planned"
   }
  },
  {
   "type": "Feature",
   "geometry": {
    "type": "Point",
    "coordinates": [
     116.77902024,
     -31.39514441
    ]
   },
   "properties": {
    "name": "194 ROSSMORE ROAD ROSSMORE 6401",
    "locID": "LOC000080199970",
    "tech": "SATELLITE",
    "upgrade": "NULL_NA",
    "gnaf_pid": "GAWA_161925205",
    "tech_change_status": "Not Planned"
   }
  },
  {
   "type": "Feature",
   "geometry": {
    "type": "Point",
    "coordinates": [
     116.76155466,
     -31.41962098
    ]
   },
   "properties": {
    "name": "455 ROSSMORE ROAD ROSSMORE 6401",
    "locID": "LOC000055494850",
    "tech": "SATELLITE",
    "upgrade": "NULL_NA",
    "gnaf_pid": "GAWA_161925206",
    "tech_change_status": "Not Planned"
   }
  },
  {
   "type": "Feature",
   "geometry": {
    "type": "Point",
    "coordinates": [
     116.76321558,
     -31.39983556
    ]
   },
   "properties": {
    "name": "600 ROSSMORE ROAD ROSSMORE 6401",
    "locID": "LOC000022048745",
    "tech": "SATELLITE",
    "upgrade": "NULL_NA",
    "gnaf_pid": "GAWA_161925207",
    "tech_change_status": "Not Planned"
   }
  },
  {
   "type": "Feature",
   "geometry": {
    "type": "Point",
    "coordinates": [
     116.72884521,
     -31.42054431
    ]
   },
   "properties": {
    "name": "320 BEBAKINE ROAD ROSSMORE 6401",
    "locID": "LOC000098477936",
    "tech": "SATELLITE",
    "upgrade": "NULL_NA",
    "gnaf_pid": "GAWA_161989348",
    "tech_change_status": "Not Planned"
   }
  },
  {
   "type": "Feature",
   "geometry": {
    "type": "Point",
    "coordinates": [
     116.71331959,
     -31.39543991
    ]
   },
   "properties": {
    "name": "450 BEBAKINE ROAD ROSSMORE 6401",
    "locID": "LOC000059372220",
    "tech": "SATELLITE",
    "upgrade": "NULL_NA",
    "gnaf_pid": "GAWA_161989349",
    "tech_change_status": "Not Planned"
   }
  },
  {
   "type": "Feature",
   "geometry": {
    "type": "Point",
    "coordinates": [
     116.70683154,
     -31.39707861
    ]
   },
   "properties": {
    "name": "500 BEBAKINE ROAD ROSSMORE 6401",
    "locID": "LOC000133302628",
    "tech": "NULL",
    "upgrade": "NULL_NA",
    "gnaf_pid": "GAWA_161989350",
    "tech_change_status": "Not Planned"
   }
  },
  {
   "type": "Feature",
   "geometry": {
    "type": "Point",
    "coordinates": [
     116.75682005,
     -31.43636341
    ]
   },
   "properties": {
    "name": "507 JENNACUBBINE EAST ROAD ROSSMORE 6401",
    "locID": "LOC000105319798",
    "tech": "SATELLITE",
    "upgrade": "NULL_NA",
    "gnaf_pid": "GAWA_161992171",
    "tech_change_status": "Not Planned"
   }
  },
  {
   "type": "Feature",
   "geometry": {
    "type": "Point",
    "coordinates": [
     116.78787,
     -31.40566
    ]
   },
   "properties": {
    "name": "2861 NORTHAM-PITHARA ROAD ROSSMORE 6401",
    "locID": "LOC000072813580",
    "tech": "NULL",
    "upgrade": "NULL_NA",
    "gnaf_pid": "GAWA_161993604",
    "tech_change_status": "Not Planned"
   }
  },
  {
   "type": "Feature",
   "geometry": {
    "type": "Point",
    "coordinates": [
     116.80626854,
     -31.3966043
    ]
   },
   "properties": {
    "name": "3122 NORTHAM-PITHARA ROAD ROSSMORE 6401",
    "locID": "LOC000054492575",
    "tech": "SATELLITE",
    "upgrade": "NULL_NA",
    "gnaf_pid": "GAWA_161993605",
    "tech_change_status": "Not Planned"
   }
  },
  {
   "type": "Feature",
   "geometry": {
    "type": "Point",
    "coordinates": [
     116.81775735,
     -31.41498081
    ]
   },
   "properties": {
    "name": "413 PATTERSON ROAD ROSSMORE 6401",
    "locID": "LOC000059739438",
    "tech": "SATELLITE",
    "upgrade": "NULL_NA",
    "gnaf_pid": "GAWA_161993848",
    "tech_change_status": "Not Planned"
   }
  },
  {
   "type": "Feature",
   "geometry": {
    "type": "Point",
    "coordinates": [
     116.70683154,
     -31.39707861
    ]
   },
   "properties": {
    "name": "3094 GOOMALLING-TOODYAY ROAD ROSSMORE 6401",
    "locID": "LOC000071350657",
    "tech": "NULL",
    "upgrade": "NULL_NA",
    "gnaf_pid": "GAWA_161997314",
    "tech_change_status": "Not Planned"
   }
  }
 ]
}