{
 "type": "FeatureCollection",
 "generated": "2024-07-26T17:50:36.465228",
 "suburb": "SCOTT RIVER",
 "features": [
  {
   "type": "Feature",
   "geometry": {
    "type": "Point",
    "coordinates": [
     115.30903815,
     -34.21360219
    ]
   },
   "properties": {
    "name": "598 DENNIS ROAD SCOTT RIVER 6288",
    "locID": "LOC000057814770",
    "tech": "SATELLITE",
    "upgrade": "NULL_NA",
    "gnaf_pid": "GAWA_162684466",
    "tech_change_status": "Not Planned"
   }
  },
  {
   "type": "Feature",
   "geometry": {
    "type": "Point",
    "coordinates": [
     115.30350284,
     -34.24976351
    ]
   },
   "properties": {
    "name": "138 GOVERNOR BROOME ROAD SCOTT RIVER 6288",
    "locID": "LOC000178409641",
    "tech": "SATELLITE",
    "upgrade": "NULL_NA",
    "gnaf_pid": "GAWA_162685880",
    "tech_change_status": "Not Planned"
   }
  },
  {
   "type": "Feature",
   "geometry": {
    "type": "Point",
    "coordinates": [
     115.30271018,
     -34.23995139
    ]
   },
   "properties": {
    "name": "399 GOVERNOR BROOME ROAD SCOTT RIVER 6288",
    "locID": "LOC000059399931",
    "tech": "WIRELESS",
    "upgrade": "NULL_NA",
    "gnaf_pid": "GAWA_162685882",
    "tech_change_status": "Not Planned",
    "program_type": "Fixed Wireless and Satellite Upgrade Program",
    "target_eligibility_quarter": "NA"
   }
  },
  {
   "type": "Feature",
   "geometry": {
    "type": "Point",
    "coordinates": [
     115.22408283,
     -34.30505466
    ]
   },
   "properties": {
    "name": "117 JOHNSTON ROAD SCOTT RIVER 6288",
    "locID": "LOC000024550485",
    "tech": "WIRELESS",
    "upgrade": "NULL_NA",
    "gnaf_pid": "GAWA_162687689",
    "tech_change_status": "Not Planned",
    "program_type": "Fixed Wireless and Satellite Upgrade Program",
    "target_eligibility_quarter": "NA"
   }
  },
  {
   "type": "Feature",
   "geometry": {
    "type": "Point",
    "coordinates": [
     115.32498082,
     -34.2874763
    ]
   },
   "properties": {
    "name": "2820 MILYEANNUP COAST ROAD SCOTT RIVER 6288",
    "locID": "LOC000085549832",
    "tech": "SATELLITE",
    "upgrade": "NULL_NA",
    "gnaf_pid": "GAWA_162689194",
    "tech_change_status": "Not Planned"
   }
  },
  {
   "type": "Feature",
   "geometry": {
    "type": "Point",
    "coordinates": [
     115.24968743,
     -34.21801628
    ]
   },
   "properties": {
    "name": "181 PAYNE ROAD SCOTT RIVER 6288",
    "locID": "LOC000035231279",
    "tech": "SATELLITE",
    "upgrade": "NULL_NA",
    "gnaf_pid": "GAWA_162690404",
    "tech_change_status": "Not Planned"
   }
  },
  {
   "type": "Feature",
   "geometry": {
    "type": "Point",
    "coordinates": [
     115.23339524,
     -34.21563304
    ]
   },
   "properties": {
    "name": "361 PAYNE ROAD SCOTT RIVER 6288",
    "locID": "LOC000077532309",
    "tech": "SATELLITE",
    "upgrade": "NULL_NA",
    "gnaf_pid": "GAWA_162690405",
    "tech_change_status": "Not Planned"
   }
  },
  {
   "type": "Feature",
   "geometry": {
    "type": "Point",
    "coordinates": [
     115.2790627,
     -34.25746891
    ]
   },
   "properties": {
    "name": "1165 SCOTT RIVER ROAD SCOTT RIVER 6288",
    "locID": "LOC000040481787",
    "tech": "SATELLITE",
    "upgrade": "NULL_NA",
    "gnaf_pid": "GAWA_162691777",
    "tech_change_status": "Not Planned"
   }
  },
  {
   "type": "Feature",
   "geometry": {
    "type": "Point",
    "coordinates": [
     115.28236522,
     -34.27681312
    ]
   },
   "properties": {
    "name": "1181 SCOTT RIVER ROAD SCOTT RIVER 6288",
    "locID": "LOC000106638771",
    "tech": "SATELLITE",
    "upgrade": "NULL_NA",
    "gnaf_pid": "GAWA_162691778",
    "tech_change_status": "Not Planned"
   }
  },
  {
   "type": "Feature",
   "geometry": {
    "type": "Point",
    "coordinates": [
     115.26709359,
     -34.26351149
    ]
   },
   "properties": {
    "name": "1184 SCOTT RIVER ROAD SCOTT RIVER 6288",
    "locID": "LOC000079746726",
    "tech": "SATELLITE",
    "upgrade": "NULL_NA",
    "gnaf_pid": "GAWA_162691779",
    "tech_change_status": "Not Planned"
   }
  },
  {
   "type": "Feature",
   "geometry": {
    "type": "Point",
    "coordinates": [
     115.28230375,
     -34.21197685
    ]
   },
   "properties": {
    "name": "599 SCOTT RIVER ROAD SCOTT RIVER 6288",
    "locID": "LOC000003845433",
    "tech": "WIRELESS",
    "upgrade": "NULL_NA",
    "gnaf_pid": "GAWA_162691781",
    "tech_change_status": "Not Planned",
    "program_type": "Fixed Wireless and Satellite Upgrade Program",
    "target_eligibility_quarter": "NA"
   }
  },
  {
   "type": "Feature",
   "geometry": {
    "type": "Point",
    "coordinates": [
     115.27756735,
     -34.26104215
    ]
   },
   "properties": {
    "name": "50 COOSTIEN ROAD SCOTT RIVER 6288",
    "locID": "LOC000150798352",
    "tech": "SATELLITE",
    "upgrade": "NULL_NA",
    "gnaf_pid": "GAWA_718636070",
    "tech_change_status": "Not Planned"
   }
  }
 ]
}