{
 "type": "FeatureCollection",
 "generated": "2023-12-02T03:12:16.827953",
 "suburb": "SOUTH YUNA",
 "features": [
  {
   "type": "Feature",
   "geometry": {
    "type": "Point",
    "coordinates": [
     115.00548179,
     -28.32861849
    ]
   },
   "properties": {
    "name": "7058 CHAPMAN VALLEY ROAD SOUTH YUNA 6532",
    "locID": "LOC000068542500",
    "tech": "SATELLITE",
    "upgrade": "NULL_NA",
    "gnaf_pid": "GAWA_162000246"
   }
  },
  {
   "type": "Feature",
   "geometry": {
    "type": "Point",
    "coordinates": [
     115.005995,
     -28.328618
    ]
   },
   "properties": {
    "name": "7064 CHAPMAN VALLEY ROAD SOUTH YUNA 6532",
    "locID": "LOC000088694137",
    "tech": "SATELLITE",
    "upgrade": "NULL_NA",
    "gnaf_pid": "GAWA_162000247"
   }
  },
  {
   "type": "Feature",
   "geometry": {
    "type": "Point",
    "coordinates": [
     115.006405,
     -28.328617
    ]
   },
   "properties": {
    "name": "7068 CHAPMAN VALLEY ROAD SOUTH YUNA 6532",
    "locID": "LOC000044409884",
    "tech": "SATELLITE",
    "upgrade": "NULL_NA",
    "gnaf_pid": "GAWA_162000248"
   }
  },
  {
   "type": "Feature",
   "geometry": {
    "type": "Point",
    "coordinates": [
     115.006815,
     -28.328617
    ]
   },
   "properties": {
    "name": "7074 CHAPMAN VALLEY ROAD SOUTH YUNA 6532",
    "locID": "LOC000023662157",
    "tech": "SATELLITE",
    "upgrade": "NULL_NA",
    "gnaf_pid": "GAWA_162000249"
   }
  },
  {
   "type": "Feature",
   "geometry": {
    "type": "Point",
    "coordinates": [
     114.953814,
     -28.391254
    ]
   },
   "properties": {
    "name": "130 WHELARRA ROAD SOUTH SOUTH YUNA 6532",
    "locID": "LOC000033655947",
    "tech": "SATELLITE",
    "upgrade": "NULL_NA",
    "gnaf_pid": "GAWA_162003259"
   }
  },
  {
   "type": "Feature",
   "geometry": {
    "type": "Point",
    "coordinates": [
     114.951455,
     -28.377213
    ]
   },
   "properties": {
    "name": "236 WHELARRA ROAD SOUTH SOUTH YUNA 6532",
    "locID": "LOC000020342310",
    "tech": "SATELLITE",
    "upgrade": "NULL_NA",
    "gnaf_pid": "GAWA_162003260"
   }
  },
  {
   "type": "Feature",
   "geometry": {
    "type": "Point",
    "coordinates": [
     115.072657,
     -28.369489
    ]
   },
   "properties": {
    "name": "970 YUNA-TENINDEWA ROAD SOUTH YUNA 6532",
    "locID": "LOC000042158652",
    "tech": "SATELLITE",
    "upgrade": "NULL_NA",
    "gnaf_pid": "GAWA_162003465"
   }
  },
  {
   "type": "Feature",
   "geometry": {
    "type": "Point",
    "coordinates": [
     115.0224882,
     -28.35744465
    ]
   },
   "properties": {
    "name": "275 YUNA ROAD SOUTH SOUTH YUNA 6532",
    "locID": "LOC000058213385",
    "tech": "SATELLITE",
    "upgrade": "NULL_NA",
    "gnaf_pid": "GAWA_162003467"
   }
  },
  {
   "type": "Feature",
   "geometry": {
    "type": "Point",
    "coordinates": [
     115.0224882,
     -28.35744465
    ]
   },
   "properties": {
    "name": "363 YUNA ROAD SOUTH SOUTH YUNA 6532",
    "locID": "LOC000006217504",
    "tech": "SATELLITE",
    "upgrade": "NULL_NA",
    "gnaf_pid": "GAWA_162003468"
   }
  },
  {
   "type": "Feature",
   "geometry": {
    "type": "Point",
    "coordinates": [
     114.99053393,
     -28.34249456
    ]
   },
   "properties": {
    "name": "89 WARR ROAD SOUTH YUNA 6532",
    "locID": "LOC000098101442",
    "tech": "SATELLITE",
    "upgrade": "NULL_NA",
    "gnaf_pid": "GAWA_162647111"
   }
  },
  {
   "type": "Feature",
   "geometry": {
    "type": "Point",
    "coordinates": [
     114.97666554,
     -28.3419409
    ]
   },
   "properties": {
    "name": "94 WARR ROAD SOUTH YUNA 6532",
    "locID": "LOC000022862202",
    "tech": "SATELLITE",
    "upgrade": "NULL_NA",
    "gnaf_pid": "GAWA_162647112"
   }
  },
  {
   "type": "Feature",
   "geometry": {
    "type": "Point",
    "coordinates": [
     114.99053393,
     -28.34249456
    ]
   },
   "properties": {
    "name": "149 WARR ROAD SOUTH YUNA 6532",
    "locID": "ChIJIU9egX0G2ysRVSolo3AhWKE",
    "tech": "SATELLITE",
    "upgrade": "UNKNOWN",
    "gnaf_pid": "GAWA_163385850"
   }
  }
 ]
}