{
 "type": "FeatureCollection",
 "generated": "2024-03-02T00:02:31.998987",
 "suburb": "TAMBELLUP",
 "features": [
  {
   "type": "Feature",
   "geometry": {
    "type": "Point",
    "coordinates": [
     117.63798,
     -34.04093
    ]
   },
   "properties": {
    "name": "4 TAMBELLUP WEST ROAD TAMBELLUP 6320",
    "locID": "LOC000007440219",
    "tech": "WIRELESS",
    "upgrade": "NULL_NA",
    "gnaf_pid": "GAWA_146979021"
   }
  },
  {
   "type": "Feature",
   "geometry": {
    "type": "Point",
    "coordinates": [
     117.63913817,
     -34.03845978
    ]
   },
   "properties": {
    "name": "106 NORRISH STREET TAMBELLUP 6320",
    "locID": "LOC000004526472",
    "tech": "WIRELESS",
    "upgrade": "NULL_NA",
    "gnaf_pid": "GAWA_146982334"
   }
  },
  {
   "type": "Feature",
   "geometry": {
    "type": "Point",
    "coordinates": [
     117.63926,
     -34.03882
    ]
   },
   "properties": {
    "name": "102 NORRISH STREET TAMBELLUP 6320",
    "locID": "LOC000106551703",
    "tech": "WIRELESS",
    "upgrade": "NULL_NA",
    "gnaf_pid": "GAWA_146982336"
   }
  },
  {
   "type": "Feature",
   "geometry": {
    "type": "Point",
    "coordinates": [
     117.64694893,
     -34.04627932
    ]
   },
   "properties": {
    "name": "4 PARNELL STREET TAMBELLUP 6320",
    "locID": "LOC000042449702",
    "tech": "WIRELESS",
    "upgrade": "NULL_NA",
    "gnaf_pid": "GAWA_146997642"
   }
  },
  {
   "type": "Feature",
   "geometry": {
    "type": "Point",
    "coordinates": [
     117.64098944,
     -34.04004023
    ]
   },
   "properties": {
    "name": "4 NORTH TERRACE TAMBELLUP 6320",
    "locID": "LOC000029555992",
    "tech": "WIRELESS",
    "upgrade": "NULL_NA",
    "gnaf_pid": "GAWA_147011389"
   }
  },
  {
   "type": "Feature",
   "geometry": {
    "type": "Point",
    "coordinates": [
     117.63026,
     -34.04502
    ]
   },
   "properties": {
    "name": "3006 PAUL VALLEY ROAD TAMBELLUP 6320",
    "locID": "LOC000019002112",
    "tech": "WIRELESS",
    "upgrade": "NULL_NA",
    "gnaf_pid": "GAWA_160670049"
   }
  },
  {
   "type": "Feature",
   "geometry": {
    "type": "Point",
    "coordinates": [
     117.63128,
     -34.04372
    ]
   },
   "properties": {
    "name": "3008 PAUL VALLEY ROAD TAMBELLUP 6320",
    "locID": "LOC000009523678",
    "tech": "WIRELESS",
    "upgrade": "NULL_NA",
    "gnaf_pid": "GAWA_160670050"
   }
  }
 ]
}