{
 "type": "FeatureCollection",
 "generated": "2023-11-12T21:03:16.626336",
 "suburb": "TAMPU",
 "features": [
  {
   "type": "Feature",
   "geometry": {
    "type": "Point",
    "coordinates": [
     117.736383,
     -30.262325
    ]
   },
   "properties": {
    "name": "811 AYRES ROAD TAMPU 6472",
    "locID": "LOC000045915638",
    "tech": "SATELLITE",
    "upgrade": "NULL_NA",
    "gnaf_pid": "GAWA_162389820"
   }
  },
  {
   "type": "Feature",
   "geometry": {
    "type": "Point",
    "coordinates": [
     117.84998415,
     -30.19269879
    ]
   },
   "properties": {
    "name": "2850 BIMBIJY ROAD TAMPU 6472",
    "locID": "LOC000100938832",
    "tech": "SATELLITE",
    "upgrade": "NULL_NA",
    "gnaf_pid": "GAWA_162390036"
   }
  },
  {
   "type": "Feature",
   "geometry": {
    "type": "Point",
    "coordinates": [
     117.789471,
     -30.182497
    ]
   },
   "properties": {
    "name": "2941 BIMBIJY ROAD TAMPU 6472",
    "locID": "LOC000087505603",
    "tech": "SATELLITE",
    "upgrade": "NULL_NA",
    "gnaf_pid": "GAWA_162390037"
   }
  },
  {
   "type": "Feature",
   "geometry": {
    "type": "Point",
    "coordinates": [
     117.84998415,
     -30.19269879
    ]
   },
   "properties": {
    "name": "2944 BIMBIJY ROAD TAMPU 6472",
    "locID": "LOC000102090997",
    "tech": "SATELLITE",
    "upgrade": "NULL_NA",
    "gnaf_pid": "GAWA_162390038"
   }
  },
  {
   "type": "Feature",
   "geometry": {
    "type": "Point",
    "coordinates": [
     117.86038655,
     -30.16494584
    ]
   },
   "properties": {
    "name": "3168 BIMBIJY ROAD TAMPU 6472",
    "locID": "LOC000071698313",
    "tech": "SATELLITE",
    "upgrade": "NULL_NA",
    "gnaf_pid": "GAWA_162390039"
   }
  },
  {
   "type": "Feature",
   "geometry": {
    "type": "Point",
    "coordinates": [
     117.814456,
     -30.150977
    ]
   },
   "properties": {
    "name": "3313 BIMBIJY ROAD TAMPU 6472",
    "locID": "LOC000008656497",
    "tech": "SATELLITE",
    "upgrade": "NULL_NA",
    "gnaf_pid": "GAWA_162390040"
   }
  },
  {
   "type": "Feature",
   "geometry": {
    "type": "Point",
    "coordinates": [
     117.84856485,
     -30.11122723
    ]
   },
   "properties": {
    "name": "3544 BIMBIJY ROAD TAMPU 6472",
    "locID": "LOC000097372782",
    "tech": "SATELLITE",
    "upgrade": "NULL_NA",
    "gnaf_pid": "GAWA_162390041"
   }
  },
  {
   "type": "Feature",
   "geometry": {
    "type": "Point",
    "coordinates": [
     117.729096,
     -30.182913
    ]
   },
   "properties": {
    "name": "581 BUNCE ROAD TAMPU 6472",
    "locID": "LOC000094229851",
    "tech": "SATELLITE",
    "upgrade": "NULL_NA",
    "gnaf_pid": "GAWA_162390173"
   }
  },
  {
   "type": "Feature",
   "geometry": {
    "type": "Point",
    "coordinates": [
     117.675778,
     -30.18214
    ]
   },
   "properties": {
    "name": "83 BUNCE ROAD TAMPU 6472",
    "locID": "LOC000095848063",
    "tech": "SATELLITE",
    "upgrade": "NULL_NA",
    "gnaf_pid": "GAWA_162390174"
   }
  },
  {
   "type": "Feature",
   "geometry": {
    "type": "Point",
    "coordinates": [
     117.95636867,
     -30.19091087
    ]
   },
   "properties": {
    "name": "104 HUCKSTEP ROAD TAMPU 6472",
    "locID": "LOC000037005478",
    "tech": "SATELLITE",
    "upgrade": "NULL_NA",
    "gnaf_pid": "GAWA_162391206"
   }
  },
  {
   "type": "Feature",
   "geometry": {
    "type": "Point",
    "coordinates": [
     117.95636867,
     -30.19091087
    ]
   },
   "properties": {
    "name": "298 HUCKSTEP ROAD TAMPU 6472",
    "locID": "ChIJH74ezuw0yisRa81y02qIrDU",
    "tech": "SATELLITE",
    "upgrade": "UNKNOWN",
    "gnaf_pid": "GAWA_162391207"
   }
  },
  {
   "type": "Feature",
   "geometry": {
    "type": "Point",
    "coordinates": [
     117.874087,
     -30.252463
    ]
   },
   "properties": {
    "name": "2029 INGLETON ROAD TAMPU 6472",
    "locID": "LOC000065095578",
    "tech": "SATELLITE",
    "upgrade": "NULL_NA",
    "gnaf_pid": "GAWA_162391232"
   }
  },
  {
   "type": "Feature",
   "geometry": {
    "type": "Point",
    "coordinates": [
     117.914844,
     -30.261527
    ]
   },
   "properties": {
    "name": "2036 INGLETON ROAD TAMPU 6472",
    "locID": "LOC000057403212",
    "tech": "SATELLITE",
    "upgrade": "NULL_NA",
    "gnaf_pid": "GAWA_162391233"
   }
  },
  {
   "type": "Feature",
   "geometry": {
    "type": "Point",
    "coordinates": [
     117.917109,
     -30.224309
    ]
   },
   "properties": {
    "name": "2452 INGLETON ROAD TAMPU 6472",
    "locID": "LOC000057953767",
    "tech": "SATELLITE",
    "upgrade": "NULL_NA",
    "gnaf_pid": "GAWA_162391234"
   }
  },
  {
   "type": "Feature",
   "geometry": {
    "type": "Point",
    "coordinates": [
     117.684445,
     -30.227181
    ]
   },
   "properties": {
    "name": "119 LANCASTER ROAD TAMPU 6472",
    "locID": "LOC000020297012",
    "tech": "SATELLITE",
    "upgrade": "NULL_NA",
    "gnaf_pid": "GAWA_162391463"
   }
  },
  {
   "type": "Feature",
   "geometry": {
    "type": "Point",
    "coordinates": [
     117.748683,
     -30.216401
    ]
   },
   "properties": {
    "name": "827 LANCASTER ROAD TAMPU 6472",
    "locID": "LOC000008636790",
    "tech": "SATELLITE",
    "upgrade": "NULL_NA",
    "gnaf_pid": "GAWA_162391464"
   }
  },
  {
   "type": "Feature",
   "geometry": {
    "type": "Point",
    "coordinates": [
     117.96755,
     -30.277393
    ]
   },
   "properties": {
    "name": "268 MITCHELL ROAD TAMPU 6472",
    "locID": "LOC000069487623",
    "tech": "SATELLITE",
    "upgrade": "NULL_NA",
    "gnaf_pid": "GAWA_162391884"
   }
  },
  {
   "type": "Feature",
   "geometry": {
    "type": "Point",
    "coordinates": [
     117.79722583,
     -30.25658862
    ]
   },
   "properties": {
    "name": "LOT 3242 MITCHELL ROAD TAMPU 6472",
    "locID": "EiZNaXRjaGVsbCBSZCwgQmVhY29uIFdBIDY0NzIsIEF1c3RyYWxpYSIuKiwKFAoSCfnaXZmItcsrEZr-UrX1-K74EhQKEgkru4ccbbHLKxFg_3kkOPYABA",
    "tech": "SATELLITE",
    "upgrade": "UNKNOWN",
    "gnaf_pid": "GAWA_162391885"
   }
  },
  {
   "type": "Feature",
   "geometry": {
    "type": "Point",
    "coordinates": [
     117.67138,
     -30.26048
    ]
   },
   "properties": {
    "name": "1980 MOUROUBRA ROAD TAMPU 6472",
    "locID": "LOC000092708106",
    "tech": "SATELLITE",
    "upgrade": "NULL_NA",
    "gnaf_pid": "GAWA_162392098"
   }
  },
  {
   "type": "Feature",
   "geometry": {
    "type": "Point",
    "coordinates": [
     117.644115,
     -30.243322
    ]
   },
   "properties": {
    "name": "2159 MOUROUBRA ROAD TAMPU 6472",
    "locID": "LOC000070403416",
    "tech": "SATELLITE",
    "upgrade": "NULL_NA",
    "gnaf_pid": "GAWA_162392099"
   }
  },
  {
   "type": "Feature",
   "geometry": {
    "type": "Point",
    "coordinates": [
     117.744485,
     -30.105043
    ]
   },
   "properties": {
    "name": "980 STONE ROAD TAMPU 6472",
    "locID": "LOC000002147728",
    "tech": "SATELLITE",
    "upgrade": "NULL_NA",
    "gnaf_pid": "GAWA_162392870"
   }
  },
  {
   "type": "Feature",
   "geometry": {
    "type": "Point",
    "coordinates": [
     117.93263579,
     -30.1655929
    ]
   },
   "properties": {
    "name": "234 WHITE ROAD TAMPU 6472",
    "locID": "LOC000045391811",
    "tech": "SATELLITE",
    "upgrade": "NULL_NA",
    "gnaf_pid": "GAWA_162727005"
   }
  },
  {
   "type": "Feature",
   "geometry": {
    "type": "Point",
    "coordinates": [
     117.89797968,
     -30.14964893
    ]
   },
   "properties": {
    "name": "371 WHITE ROAD TAMPU 6472",
    "locID": "LOC000024558826",
    "tech": "SATELLITE",
    "upgrade": "NULL_NA",
    "gnaf_pid": "GAWA_162727006"
   }
  },
  {
   "type": "Feature",
   "geometry": {
    "type": "Point",
    "coordinates": [
     117.77018579,
     -30.25294772
    ]
   },
   "properties": {
    "name": "LOT 3243 MITCHELL ROAD TAMPU 6472",
    "locID": "EiZNaXRjaGVsbCBSZCwgQmVhY29uIFdBIDY0NzIsIEF1c3RyYWxpYSIuKiwKFAoSCfnaXZmItcsrEZr-UrX1-K74EhQKEgkru4ccbbHLKxFg_3kkOPYABA",
    "tech": "SATELLITE",
    "upgrade": "UNKNOWN",
    "gnaf_pid": "GAWA_162798307"
   }
  },
  {
   "type": "Feature",
   "geometry": {
    "type": "Point",
    "coordinates": [
     117.68445498,
     -30.24181645
    ]
   },
   "properties": {
    "name": "LOT 3261 LANCASTER ROAD TAMPU 6472",
    "locID": "LOC000020297012",
    "tech": "SATELLITE",
    "upgrade": "NULL_NA",
    "gnaf_pid": "GAWA_163049133"
   }
  },
  {
   "type": "Feature",
   "geometry": {
    "type": "Point",
    "coordinates": [
     117.78179528,
     -30.15614676
    ]
   },
   "properties": {
    "name": "4159 STONE ROAD TAMPU 6472",
    "locID": "ChIJTYFFgrLPyysRygqMcvfdvTU",
    "tech": "SATELLITE",
    "upgrade": "UNKNOWN",
    "gnaf_pid": "GAWA_163392738"
   }
  },
  {
   "type": "Feature",
   "geometry": {
    "type": "Point",
    "coordinates": [
     117.78179528,
     -30.15614676
    ]
   },
   "properties": {
    "name": "4160 STONE ROAD TAMPU 6472",
    "locID": "ChIJTYFFgrLPyysRJBVI3Z325IQ",
    "tech": "SATELLITE",
    "upgrade": "UNKNOWN",
    "gnaf_pid": "GAWA_163392739"
   }
  }
 ]
}