{
 "type": "FeatureCollection",
 "generated": "2024-09-25T06:08:46.934034",
 "suburb": "TOM PRICE",
 "features": [
  {
   "type": "Feature",
   "geometry": {
    "type": "Point",
    "coordinates": [
     117.79665476,
     -22.6928354
    ]
   },
   "properties": {
    "name": "3 STADIUM ROAD TOM PRICE 6751",
    "locID": "LOC000109795976",
    "tech": "FTTN",
    "upgrade": "NULL_NA",
    "gnaf_pid": "GAWA_147394676",
    "tech_change_status": "Not Planned"
   }
  },
  {
   "type": "Feature",
   "geometry": {
    "type": "Point",
    "coordinates": [
     117.78617975,
     -22.68998655
    ]
   },
   "properties": {
    "name": "41 BOONDEROO ROAD TOM PRICE 6751",
    "locID": "LOC000108516447",
    "tech": "FTTN",
    "upgrade": "NULL_NA",
    "gnaf_pid": "GAWA_147405638",
    "tech_change_status": "Not Planned"
   }
  },
  {
   "type": "Feature",
   "geometry": {
    "type": "Point",
    "coordinates": [
     117.77683435,
     -22.67924049
    ]
   },
   "properties": {
    "name": "65 KANBERRA DRIVE TOM PRICE 6751",
    "locID": "LOC000108045419",
    "tech": "FTTN",
    "upgrade": "NULL_NA",
    "gnaf_pid": "GAWA_147406518",
    "tech_change_status": "Not Planned"
   }
  },
  {
   "type": "Feature",
   "geometry": {
    "type": "Point",
    "coordinates": [
     117.78657978,
     -22.68724911
    ]
   },
   "properties": {
    "name": "28 BOONDEROO ROAD TOM PRICE 6751",
    "locID": "LOC000133480524",
    "tech": "FTTN",
    "upgrade": "NULL_NA",
    "gnaf_pid": "GAWA_147409605",
    "tech_change_status": "Not Planned"
   }
  },
  {
   "type": "Feature",
   "geometry": {
    "type": "Point",
    "coordinates": [
     117.78572,
     -22.67756
    ]
   },
   "properties": {
    "name": "6 MOONAH STREET TOM PRICE 6751",
    "locID": "LOC000108109443",
    "tech": "FTTN",
    "upgrade": "NULL_NA",
    "gnaf_pid": "GAWA_147414056",
    "tech_change_status": "Not Planned"
   }
  },
  {
   "type": "Feature",
   "geometry": {
    "type": "Point",
    "coordinates": [
     117.78558929,
     -22.69124149
    ]
   },
   "properties": {
    "name": "38 BOONDEROO ROAD TOM PRICE 6751",
    "locID": "LOC000108761301",
    "tech": "FTTN",
    "upgrade": "NULL_NA",
    "gnaf_pid": "GAWA_147419863",
    "tech_change_status": "Not Planned"
   }
  },
  {
   "type": "Feature",
   "geometry": {
    "type": "Point",
    "coordinates": [
     117.78516078,
     -22.68935319
    ]
   },
   "properties": {
    "name": "37 BOONDEROO ROAD TOM PRICE 6751",
    "locID": "LOC000169325602",
    "tech": "FTTN",
    "upgrade": "NULL_NA",
    "gnaf_pid": "GAWA_147422718",
    "tech_change_status": "Not Planned"
   }
  },
  {
   "type": "Feature",
   "geometry": {
    "type": "Point",
    "coordinates": [
     117.77968082,
     -22.68029941
    ]
   },
   "properties": {
    "name": "UNIT 1, 251 KANBERRA DRIVE TOM PRICE 6751",
    "locID": "LOC000108109277",
    "tech": "FTTN",
    "upgrade": "NULL_NA",
    "gnaf_pid": "GAWA_148128664",
    "tech_change_status": "Not Planned"
   }
  },
  {
   "type": "Feature",
   "geometry": {
    "type": "Point",
    "coordinates": [
     117.80064811,
     -22.69799776
    ]
   },
   "properties": {
    "name": "8 MUNDARRY COURT TOM PRICE 6751",
    "locID": "LOC000089004908",
    "tech": "FTTN",
    "upgrade": "NULL_NA",
    "gnaf_pid": "GAWA_148128666",
    "tech_change_status": "Not Planned"
   }
  },
  {
   "type": "Feature",
   "geometry": {
    "type": "Point",
    "coordinates": [
     117.80164099,
     -22.69764641
    ]
   },
   "properties": {
    "name": "UNIT 2, 384 TECOMA STREET TOM PRICE 6751",
    "locID": "LOC000097950175",
    "tech": "FTTN",
    "upgrade": "NULL_NA",
    "gnaf_pid": "GAWA_148128722",
    "tech_change_status": "Not Planned"
   }
  },
  {
   "type": "Feature",
   "geometry": {
    "type": "Point",
    "coordinates": [
     117.78172676,
     -22.67798129
    ]
   },
   "properties": {
    "name": "UNIT 5, 10 KANBERRA DRIVE TOM PRICE 6751",
    "locID": "LOC000109444038",
    "tech": "FTTN",
    "upgrade": "NULL_NA",
    "gnaf_pid": "GAWA_148136793",
    "tech_change_status": "Not Planned"
   }
  },
  {
   "type": "Feature",
   "geometry": {
    "type": "Point",
    "coordinates": [
     117.80164099,
     -22.69764641
    ]
   },
   "properties": {
    "name": "UNIT 3, 384 TECOMA STREET TOM PRICE 6751",
    "locID": "LOC000097957892",
    "tech": "FTTN",
    "upgrade": "NULL_NA",
    "gnaf_pid": "GAWA_148138291",
    "tech_change_status": "Not Planned"
   }
  },
  {
   "type": "Feature",
   "geometry": {
    "type": "Point",
    "coordinates": [
     117.77968082,
     -22.68029941
    ]
   },
   "properties": {
    "name": "UNIT 2, 251 KANBERRA DRIVE TOM PRICE 6751",
    "locID": "LOC000108205750",
    "tech": "FTTN",
    "upgrade": "NULL_NA",
    "gnaf_pid": "GAWA_148138293",
    "tech_change_status": "Not Planned"
   }
  },
  {
   "type": "Feature",
   "geometry": {
    "type": "Point",
    "coordinates": [
     117.80064811,
     -22.69799776
    ]
   },
   "properties": {
    "name": "14 MUNDARRY COURT TOM PRICE 6751",
    "locID": "LOC000013669916",
    "tech": "FTTN",
    "upgrade": "NULL_NA",
    "gnaf_pid": "GAWA_148138296",
    "tech_change_status": "Not Planned"
   }
  },
  {
   "type": "Feature",
   "geometry": {
    "type": "Point",
    "coordinates": [
     117.78172676,
     -22.67798129
    ]
   },
   "properties": {
    "name": "UNIT 3, 10 KANBERRA DRIVE TOM PRICE 6751",
    "locID": "LOC000109444038",
    "tech": "FTTN",
    "upgrade": "NULL_NA",
    "gnaf_pid": "GAWA_148144609",
    "tech_change_status": "Not Planned"
   }
  },
  {
   "type": "Feature",
   "geometry": {
    "type": "Point",
    "coordinates": [
     117.78225473,
     -22.67805346
    ]
   },
   "properties": {
    "name": "UNIT 1, 8 KANBERRA DRIVE TOM PRICE 6751",
    "locID": "LOC000108120347",
    "tech": "FTTN",
    "upgrade": "NULL_NA",
    "gnaf_pid": "GAWA_148145456",
    "tech_change_status": "Not Planned"
   }
  },
  {
   "type": "Feature",
   "geometry": {
    "type": "Point",
    "coordinates": [
     117.80064811,
     -22.69799776
    ]
   },
   "properties": {
    "name": "17 MUNDARRY COURT TOM PRICE 6751",
    "locID": "LOC000101058665",
    "tech": "FTTN",
    "upgrade": "NULL_NA",
    "gnaf_pid": "GAWA_148145463",
    "tech_change_status": "Not Planned"
   }
  },
  {
   "type": "Feature",
   "geometry": {
    "type": "Point",
    "coordinates": [
     117.80043248,
     -22.69764571
    ]
   },
   "properties": {
    "name": "14 WEELAMURRA COURT TOM PRICE 6751",
    "locID": "LOC000053982557",
    "tech": "FTTN",
    "upgrade": "NULL_NA",
    "gnaf_pid": "GAWA_148145472",
    "tech_change_status": "Not Planned"
   }
  },
  {
   "type": "Feature",
   "geometry": {
    "type": "Point",
    "coordinates": [
     117.80043248,
     -22.69764571
    ]
   },
   "properties": {
    "name": "6 WEELAMURRA COURT TOM PRICE 6751",
    "locID": "LOC000094502759",
    "tech": "FTTN",
    "upgrade": "NULL_NA",
    "gnaf_pid": "GAWA_148145474",
    "tech_change_status": "Not Planned"
   }
  },
  {
   "type": "Feature",
   "geometry": {
    "type": "Point",
    "coordinates": [
     117.80164099,
     -22.69764641
    ]
   },
   "properties": {
    "name": "UNIT 1, 384 TECOMA STREET TOM PRICE 6751",
    "locID": "LOC000098183748",
    "tech": "FTTN",
    "upgrade": "NULL_NA",
    "gnaf_pid": "GAWA_148145479",
    "tech_change_status": "Not Planned"
   }
  },
  {
   "type": "Feature",
   "geometry": {
    "type": "Point",
    "coordinates": [
     117.80064811,
     -22.69799776
    ]
   },
   "properties": {
    "name": "7 MUNDARRY COURT TOM PRICE 6751",
    "locID": "LOC000061231443",
    "tech": "FTTN",
    "upgrade": "NULL_NA",
    "gnaf_pid": "GAWA_148145579",
    "tech_change_status": "Not Planned"
   }
  },
  {
   "type": "Feature",
   "geometry": {
    "type": "Point",
    "coordinates": [
     117.80064811,
     -22.69799776
    ]
   },
   "properties": {
    "name": "20 MUNDARRY COURT TOM PRICE 6751",
    "locID": "LOC000033696880",
    "tech": "FTTN",
    "upgrade": "NULL_NA",
    "gnaf_pid": "GAWA_148145583",
    "tech_change_status": "Not Planned"
   }
  },
  {
   "type": "Feature",
   "geometry": {
    "type": "Point",
    "coordinates": [
     117.80064811,
     -22.69799776
    ]
   },
   "properties": {
    "name": "10 MUNDARRY COURT TOM PRICE 6751",
    "locID": "LOC000027885590",
    "tech": "FTTN",
    "upgrade": "NULL_NA",
    "gnaf_pid": "GAWA_148148388",
    "tech_change_status": "Not Planned"
   }
  },
  {
   "type": "Feature",
   "geometry": {
    "type": "Point",
    "coordinates": [
     117.80064811,
     -22.69799776
    ]
   },
   "properties": {
    "name": "11 MUNDARRY COURT TOM PRICE 6751",
    "locID": "LOC000087473758",
    "tech": "FTTN",
    "upgrade": "NULL_NA",
    "gnaf_pid": "GAWA_148151719",
    "tech_change_status": "Not Planned"
   }
  },
  {
   "type": "Feature",
   "geometry": {
    "type": "Point",
    "coordinates": [
     117.78225473,
     -22.67805346
    ]
   },
   "properties": {
    "name": "UNIT 2, 8 KANBERRA DRIVE TOM PRICE 6751",
    "locID": "LOC000108120334",
    "tech": "FTTN",
    "upgrade": "NULL_NA",
    "gnaf_pid": "GAWA_148154044",
    "tech_change_status": "Not Planned"
   }
  },
  {
   "type": "Feature",
   "geometry": {
    "type": "Point",
    "coordinates": [
     117.80064811,
     -22.69799776
    ]
   },
   "properties": {
    "name": "18 MUNDARRY COURT TOM PRICE 6751",
    "locID": "LOC000102067112",
    "tech": "FTTN",
    "upgrade": "NULL_NA",
    "gnaf_pid": "GAWA_148154313",
    "tech_change_status": "Not Planned"
   }
  },
  {
   "type": "Feature",
   "geometry": {
    "type": "Point",
    "coordinates": [
     117.80064811,
     -22.69799776
    ]
   },
   "properties": {
    "name": "16 MUNDARRY COURT TOM PRICE 6751",
    "locID": "LOC000075121168",
    "tech": "FTTN",
    "upgrade": "NULL_NA",
    "gnaf_pid": "GAWA_148154321",
    "tech_change_status": "Not Planned"
   }
  },
  {
   "type": "Feature",
   "geometry": {
    "type": "Point",
    "coordinates": [
     117.80043248,
     -22.69764571
    ]
   },
   "properties": {
    "name": "16 WEELAMURRA COURT TOM PRICE 6751",
    "locID": "LOC000101871565",
    "tech": "FTTN",
    "upgrade": "NULL_NA",
    "gnaf_pid": "GAWA_148154324",
    "tech_change_status": "Not Planned"
   }
  },
  {
   "type": "Feature",
   "geometry": {
    "type": "Point",
    "coordinates": [
     117.78366845,
     -22.67831469
    ]
   },
   "properties": {
    "name": "UNIT 3, 2 KANBERRA DRIVE TOM PRICE 6751",
    "locID": "LOC000169556938",
    "tech": "FTTN",
    "upgrade": "NULL_NA",
    "gnaf_pid": "GAWA_148154336",
    "tech_change_status": "Not Planned"
   }
  },
  {
   "type": "Feature",
   "geometry": {
    "type": "Point",
    "coordinates": [
     117.77735662,
     -22.67935006
    ]
   },
   "properties": {
    "name": "67B KANBERRA DRIVE TOM PRICE 6751",
    "locID": "LOC000133484879",
    "tech": "FTTN",
    "upgrade": "NULL_NA",
    "gnaf_pid": "GAWA_148154350",
    "tech_change_status": "Not Planned"
   }
  },
  {
   "type": "Feature",
   "geometry": {
    "type": "Point",
    "coordinates": [
     117.77735662,
     -22.67935006
    ]
   },
   "properties": {
    "name": "67A KANBERRA DRIVE TOM PRICE 6751",
    "locID": "LOC000108824785",
    "tech": "FTTN",
    "upgrade": "NULL_NA",
    "gnaf_pid": "GAWA_148154351",
    "tech_change_status": "Not Planned"
   }
  },
  {
   "type": "Feature",
   "geometry": {
    "type": "Point",
    "coordinates": [
     117.77729374,
     -22.6798541
    ]
   },
   "properties": {
    "name": "57A KANBERRA DRIVE TOM PRICE 6751",
    "locID": "LOC000182421246",
    "tech": "FTTN",
    "upgrade": "NULL_NA",
    "gnaf_pid": "GAWA_148154352",
    "tech_change_status": "Not Planned"
   }
  },
  {
   "type": "Feature",
   "geometry": {
    "type": "Point",
    "coordinates": [
     117.78320152,
     -22.67820587
    ]
   },
   "properties": {
    "name": "UNIT 4, 4 KANBERRA DRIVE TOM PRICE 6751",
    "locID": "LOC000107754290",
    "tech": "FTTN",
    "upgrade": "NULL_NA",
    "gnaf_pid": "GAWA_148154668",
    "tech_change_status": "Not Planned"
   }
  },
  {
   "type": "Feature",
   "geometry": {
    "type": "Point",
    "coordinates": [
     117.80043248,
     -22.69764571
    ]
   },
   "properties": {
    "name": "2 WEELAMURRA COURT TOM PRICE 6751",
    "locID": "LOC000017902418",
    "tech": "FTTN",
    "upgrade": "NULL_NA",
    "gnaf_pid": "GAWA_148156951",
    "tech_change_status": "Not Planned"
   }
  },
  {
   "type": "Feature",
   "geometry": {
    "type": "Point",
    "coordinates": [
     117.80064811,
     -22.69799776
    ]
   },
   "properties": {
    "name": "6 MUNDARRY COURT TOM PRICE 6751",
    "locID": "LOC000100482490",
    "tech": "FTTN",
    "upgrade": "NULL_NA",
    "gnaf_pid": "GAWA_148156952",
    "tech_change_status": "Not Planned"
   }
  },
  {
   "type": "Feature",
   "geometry": {
    "type": "Point",
    "coordinates": [
     117.80064811,
     -22.69799776
    ]
   },
   "properties": {
    "name": "4 MUNDARRY COURT TOM PRICE 6751",
    "locID": "LOC000104115717",
    "tech": "FTTN",
    "upgrade": "NULL_NA",
    "gnaf_pid": "GAWA_148156953",
    "tech_change_status": "Not Planned"
   }
  },
  {
   "type": "Feature",
   "geometry": {
    "type": "Point",
    "coordinates": [
     117.80064811,
     -22.69799776
    ]
   },
   "properties": {
    "name": "3 MUNDARRY COURT TOM PRICE 6751",
    "locID": "LOC000079907321",
    "tech": "FTTN",
    "upgrade": "NULL_NA",
    "gnaf_pid": "GAWA_148156987",
    "tech_change_status": "Not Planned"
   }
  },
  {
   "type": "Feature",
   "geometry": {
    "type": "Point",
    "coordinates": [
     117.80043248,
     -22.69764571
    ]
   },
   "properties": {
    "name": "3 WEELAMURRA COURT TOM PRICE 6751",
    "locID": "LOC000106432205",
    "tech": "FTTN",
    "upgrade": "NULL_NA",
    "gnaf_pid": "GAWA_148157173",
    "tech_change_status": "Not Planned"
   }
  },
  {
   "type": "Feature",
   "geometry": {
    "type": "Point",
    "coordinates": [
     117.78366845,
     -22.67831469
    ]
   },
   "properties": {
    "name": "UNIT 2, 2 KANBERRA DRIVE TOM PRICE 6751",
    "locID": "LOC000169556929",
    "tech": "FTTN",
    "upgrade": "NULL_NA",
    "gnaf_pid": "GAWA_148157611",
    "tech_change_status": "Not Planned"
   }
  },
  {
   "type": "Feature",
   "geometry": {
    "type": "Point",
    "coordinates": [
     117.80064811,
     -22.69799776
    ]
   },
   "properties": {
    "name": "2 MUNDARRY COURT TOM PRICE 6751",
    "locID": "LOC000107629688",
    "tech": "FTTN",
    "upgrade": "NULL_NA",
    "gnaf_pid": "GAWA_148158153",
    "tech_change_status": "Not Planned"
   }
  },
  {
   "type": "Feature",
   "geometry": {
    "type": "Point",
    "coordinates": [
     117.80043248,
     -22.69764571
    ]
   },
   "properties": {
    "name": "11 WEELAMURRA COURT TOM PRICE 6751",
    "locID": "LOC000099186810",
    "tech": "FTTN",
    "upgrade": "NULL_NA",
    "gnaf_pid": "GAWA_148158155",
    "tech_change_status": "Not Planned"
   }
  },
  {
   "type": "Feature",
   "geometry": {
    "type": "Point",
    "coordinates": [
     117.78273675,
     -22.67810785
    ]
   },
   "properties": {
    "name": "UNIT 1, 6 KANBERRA DRIVE TOM PRICE 6751",
    "locID": "LOC000108932692",
    "tech": "FTTN",
    "upgrade": "NULL_NA",
    "gnaf_pid": "GAWA_148158161",
    "tech_change_status": "Not Planned"
   }
  },
  {
   "type": "Feature",
   "geometry": {
    "type": "Point",
    "coordinates": [
     117.78225473,
     -22.67805346
    ]
   },
   "properties": {
    "name": "UNIT 4, 8 KANBERRA DRIVE TOM PRICE 6751",
    "locID": "LOC000108149740",
    "tech": "FTTN",
    "upgrade": "NULL_NA",
    "gnaf_pid": "GAWA_148158163",
    "tech_change_status": "Not Planned"
   }
  },
  {
   "type": "Feature",
   "geometry": {
    "type": "Point",
    "coordinates": [
     117.78225473,
     -22.67805346
    ]
   },
   "properties": {
    "name": "UNIT 3, 8 KANBERRA DRIVE TOM PRICE 6751",
    "locID": "LOC000108149740",
    "tech": "FTTN",
    "upgrade": "NULL_NA",
    "gnaf_pid": "GAWA_148161017",
    "tech_change_status": "Not Planned"
   }
  },
  {
   "type": "Feature",
   "geometry": {
    "type": "Point",
    "coordinates": [
     117.78320152,
     -22.67820587
    ]
   },
   "properties": {
    "name": "UNIT 2, 4 KANBERRA DRIVE TOM PRICE 6751",
    "locID": "LOC000107754316",
    "tech": "FTTN",
    "upgrade": "NULL_NA",
    "gnaf_pid": "GAWA_148161886",
    "tech_change_status": "Not Planned"
   }
  },
  {
   "type": "Feature",
   "geometry": {
    "type": "Point",
    "coordinates": [
     117.80043248,
     -22.69764571
    ]
   },
   "properties": {
    "name": "15 WEELAMURRA COURT TOM PRICE 6751",
    "locID": "LOC000067506304",
    "tech": "FTTN",
    "upgrade": "NULL_NA",
    "gnaf_pid": "GAWA_148161958",
    "tech_change_status": "Not Planned"
   }
  },
  {
   "type": "Feature",
   "geometry": {
    "type": "Point",
    "coordinates": [
     117.80043248,
     -22.69764571
    ]
   },
   "properties": {
    "name": "19 WEELAMURRA COURT TOM PRICE 6751",
    "locID": "LOC000098834518",
    "tech": "FTTN",
    "upgrade": "NULL_NA",
    "gnaf_pid": "GAWA_148161962",
    "tech_change_status": "Not Planned"
   }
  },
  {
   "type": "Feature",
   "geometry": {
    "type": "Point",
    "coordinates": [
     117.80043248,
     -22.69764571
    ]
   },
   "properties": {
    "name": "9 WEELAMURRA COURT TOM PRICE 6751",
    "locID": "LOC000017186019",
    "tech": "FTTN",
    "upgrade": "NULL_NA",
    "gnaf_pid": "GAWA_148161979",
    "tech_change_status": "Not Planned"
   }
  },
  {
   "type": "Feature",
   "geometry": {
    "type": "Point",
    "coordinates": [
     117.80043248,
     -22.69764571
    ]
   },
   "properties": {
    "name": "8 WEELAMURRA COURT TOM PRICE 6751",
    "locID": "LOC000098000064",
    "tech": "FTTN",
    "upgrade": "NULL_NA",
    "gnaf_pid": "GAWA_148161986",
    "tech_change_status": "Not Planned"
   }
  },
  {
   "type": "Feature",
   "geometry": {
    "type": "Point",
    "coordinates": [
     117.80064811,
     -22.69799776
    ]
   },
   "properties": {
    "name": "5 MUNDARRY COURT TOM PRICE 6751",
    "locID": "LOC000058075276",
    "tech": "FTTN",
    "upgrade": "NULL_NA",
    "gnaf_pid": "GAWA_148161989",
    "tech_change_status": "Not Planned"
   }
  },
  {
   "type": "Feature",
   "geometry": {
    "type": "Point",
    "coordinates": [
     117.80043248,
     -22.69764571
    ]
   },
   "properties": {
    "name": "12 WEELAMURRA COURT TOM PRICE 6751",
    "locID": "LOC000006571944",
    "tech": "FTTN",
    "upgrade": "NULL_NA",
    "gnaf_pid": "GAWA_148164474",
    "tech_change_status": "Not Planned"
   }
  },
  {
   "type": "Feature",
   "geometry": {
    "type": "Point",
    "coordinates": [
     117.80043248,
     -22.69764571
    ]
   },
   "properties": {
    "name": "7 WEELAMURRA COURT TOM PRICE 6751",
    "locID": "LOC000032540175",
    "tech": "FTTN",
    "upgrade": "NULL_NA",
    "gnaf_pid": "GAWA_148164475",
    "tech_change_status": "Not Planned"
   }
  },
  {
   "type": "Feature",
   "geometry": {
    "type": "Point",
    "coordinates": [
     117.80064811,
     -22.69799776
    ]
   },
   "properties": {
    "name": "12 MUNDARRY COURT TOM PRICE 6751",
    "locID": "LOC000059820594",
    "tech": "FTTN",
    "upgrade": "NULL_NA",
    "gnaf_pid": "GAWA_148165669",
    "tech_change_status": "Not Planned"
   }
  },
  {
   "type": "Feature",
   "geometry": {
    "type": "Point",
    "coordinates": [
     117.80064811,
     -22.69799776
    ]
   },
   "properties": {
    "name": "19 MUNDARRY COURT TOM PRICE 6751",
    "locID": "LOC000098665802",
    "tech": "FTTN",
    "upgrade": "NULL_NA",
    "gnaf_pid": "GAWA_148165672",
    "tech_change_status": "Not Planned"
   }
  },
  {
   "type": "Feature",
   "geometry": {
    "type": "Point",
    "coordinates": [
     117.80064811,
     -22.69799776
    ]
   },
   "properties": {
    "name": "13 MUNDARRY COURT TOM PRICE 6751",
    "locID": "LOC000079707944",
    "tech": "FTTN",
    "upgrade": "NULL_NA",
    "gnaf_pid": "GAWA_148165680",
    "tech_change_status": "Not Planned"
   }
  },
  {
   "type": "Feature",
   "geometry": {
    "type": "Point",
    "coordinates": [
     117.80064811,
     -22.69799776
    ]
   },
   "properties": {
    "name": "1 MUNDARRY COURT TOM PRICE 6751",
    "locID": "LOC000062953803",
    "tech": "FTTN",
    "upgrade": "NULL_NA",
    "gnaf_pid": "GAWA_148165682",
    "tech_change_status": "Not Planned"
   }
  },
  {
   "type": "Feature",
   "geometry": {
    "type": "Point",
    "coordinates": [
     117.78273675,
     -22.67810785
    ]
   },
   "properties": {
    "name": "UNIT 4, 6 KANBERRA DRIVE TOM PRICE 6751",
    "locID": "LOC000108932709",
    "tech": "FTTN",
    "upgrade": "NULL_NA",
    "gnaf_pid": "GAWA_148170250",
    "tech_change_status": "Not Planned"
   }
  },
  {
   "type": "Feature",
   "geometry": {
    "type": "Point",
    "coordinates": [
     117.80043248,
     -22.69764571
    ]
   },
   "properties": {
    "name": "18 WEELAMURRA COURT TOM PRICE 6751",
    "locID": "LOC000017096363",
    "tech": "FTTN",
    "upgrade": "NULL_NA",
    "gnaf_pid": "GAWA_148170285",
    "tech_change_status": "Not Planned"
   }
  },
  {
   "type": "Feature",
   "geometry": {
    "type": "Point",
    "coordinates": [
     117.78172676,
     -22.67798129
    ]
   },
   "properties": {
    "name": "UNIT 2, 10 KANBERRA DRIVE TOM PRICE 6751",
    "locID": "LOC000109444064",
    "tech": "FTTN",
    "upgrade": "NULL_NA",
    "gnaf_pid": "GAWA_148170514",
    "tech_change_status": "Not Planned"
   }
  },
  {
   "type": "Feature",
   "geometry": {
    "type": "Point",
    "coordinates": [
     117.78172676,
     -22.67798129
    ]
   },
   "properties": {
    "name": "UNIT 1, 10 KANBERRA DRIVE TOM PRICE 6751",
    "locID": "LOC000109444038",
    "tech": "FTTN",
    "upgrade": "NULL_NA",
    "gnaf_pid": "GAWA_148170516",
    "tech_change_status": "Not Planned"
   }
  },
  {
   "type": "Feature",
   "geometry": {
    "type": "Point",
    "coordinates": [
     117.80043248,
     -22.69764571
    ]
   },
   "properties": {
    "name": "1 WEELAMURRA COURT TOM PRICE 6751",
    "locID": "LOC000084233012",
    "tech": "FTTN",
    "upgrade": "NULL_NA",
    "gnaf_pid": "GAWA_148174222",
    "tech_change_status": "Not Planned"
   }
  },
  {
   "type": "Feature",
   "geometry": {
    "type": "Point",
    "coordinates": [
     117.80043248,
     -22.69764571
    ]
   },
   "properties": {
    "name": "13 WEELAMURRA COURT TOM PRICE 6751",
    "locID": "LOC000079694248",
    "tech": "FTTN",
    "upgrade": "NULL_NA",
    "gnaf_pid": "GAWA_148181264",
    "tech_change_status": "Not Planned"
   }
  },
  {
   "type": "Feature",
   "geometry": {
    "type": "Point",
    "coordinates": [
     117.78320152,
     -22.67820587
    ]
   },
   "properties": {
    "name": "UNIT 1, 4 KANBERRA DRIVE TOM PRICE 6751",
    "locID": "LOC000107754328",
    "tech": "FTTN",
    "upgrade": "NULL_NA",
    "gnaf_pid": "GAWA_148186054",
    "tech_change_status": "Not Planned"
   }
  },
  {
   "type": "Feature",
   "geometry": {
    "type": "Point",
    "coordinates": [
     117.78320152,
     -22.67820587
    ]
   },
   "properties": {
    "name": "UNIT 3, 4 KANBERRA DRIVE TOM PRICE 6751",
    "locID": "LOC000108149740",
    "tech": "FTTN",
    "upgrade": "NULL_NA",
    "gnaf_pid": "GAWA_148189621",
    "tech_change_status": "Not Planned"
   }
  },
  {
   "type": "Feature",
   "geometry": {
    "type": "Point",
    "coordinates": [
     117.80064811,
     -22.69799776
    ]
   },
   "properties": {
    "name": "9 MUNDARRY COURT TOM PRICE 6751",
    "locID": "LOC000027886848",
    "tech": "FTTN",
    "upgrade": "NULL_NA",
    "gnaf_pid": "GAWA_148189658",
    "tech_change_status": "Not Planned"
   }
  },
  {
   "type": "Feature",
   "geometry": {
    "type": "Point",
    "coordinates": [
     117.80064811,
     -22.69799776
    ]
   },
   "properties": {
    "name": "15 MUNDARRY COURT TOM PRICE 6751",
    "locID": "LOC000036310152",
    "tech": "FTTN",
    "upgrade": "NULL_NA",
    "gnaf_pid": "GAWA_148192646",
    "tech_change_status": "Not Planned"
   }
  },
  {
   "type": "Feature",
   "geometry": {
    "type": "Point",
    "coordinates": [
     117.77653406,
     -22.67966808
    ]
   },
   "properties": {
    "name": "60 KANBERRA DRIVE TOM PRICE 6751",
    "locID": "LOC000108764455",
    "tech": "FTTN",
    "upgrade": "NULL_NA",
    "gnaf_pid": "GAWA_160916610",
    "tech_change_status": "Not Planned"
   }
  },
  {
   "type": "Feature",
   "geometry": {
    "type": "Point",
    "coordinates": [
     117.77735662,
     -22.67935006
    ]
   },
   "properties": {
    "name": "67 KANBERRA DRIVE TOM PRICE 6751",
    "locID": "LOC000108824785",
    "tech": "FTTN",
    "upgrade": "NULL_NA",
    "gnaf_pid": "GAWA_160916615",
    "tech_change_status": "Not Planned"
   }
  },
  {
   "type": "Feature",
   "geometry": {
    "type": "Point",
    "coordinates": [
     117.7841,
     -22.68277
    ]
   },
   "properties": {
    "name": "LOT 282 MARRADONG PLACE TOM PRICE 6751",
    "locID": "LOC000194304024",
    "tech": "FTTN",
    "upgrade": "NULL_NA",
    "gnaf_pid": "GAWA_160936029",
    "tech_change_status": "Not Planned"
   }
  },
  {
   "type": "Feature",
   "geometry": {
    "type": "Point",
    "coordinates": [
     117.78617825,
     -22.68695647
    ]
   },
   "properties": {
    "name": "31 BOONDEROO ROAD TOM PRICE 6751",
    "locID": "LOC000133480480",
    "tech": "FTTN",
    "upgrade": "NULL_NA",
    "gnaf_pid": "GAWA_161034464",
    "tech_change_status": "Not Planned"
   }
  },
  {
   "type": "Feature",
   "geometry": {
    "type": "Point",
    "coordinates": [
     117.79357,
     -22.6849
    ]
   },
   "properties": {
    "name": "751 MUNGARRA STREET TOM PRICE 6751",
    "locID": "LOC000108235335",
    "tech": "FTTN",
    "upgrade": "NULL_NA",
    "gnaf_pid": "GAWA_161386539",
    "tech_change_status": "Not Planned"
   }
  },
  {
   "type": "Feature",
   "geometry": {
    "type": "Point",
    "coordinates": [
     117.77942,
     -22.68301
    ]
   },
   "properties": {
    "name": "1125 WARRINA PLACE TOM PRICE 6751",
    "locID": "LOC000108018951",
    "tech": "FTTN",
    "upgrade": "NULL_NA",
    "gnaf_pid": "GAWA_161386559",
    "tech_change_status": "Not Planned"
   }
  },
  {
   "type": "Feature",
   "geometry": {
    "type": "Point",
    "coordinates": [
     117.79328855,
     -22.6958218
    ]
   },
   "properties": {
    "name": "5 LILAC STREET TOM PRICE 6751",
    "locID": "LOC000050745586",
    "tech": "FTTN",
    "upgrade": "NULL_NA",
    "gnaf_pid": "GAWA_162395038",
    "tech_change_status": "Not Planned"
   }
  },
  {
   "type": "Feature",
   "geometry": {
    "type": "Point",
    "coordinates": [
     117.79045038,
     -22.68836148
    ]
   },
   "properties": {
    "name": "905 NORTH ROAD TOM PRICE 6751",
    "locID": "LOC000108817394",
    "tech": "FTTN",
    "upgrade": "NULL_NA",
    "gnaf_pid": "GAWA_162395378",
    "tech_change_status": "Not Planned"
   }
  },
  {
   "type": "Feature",
   "geometry": {
    "type": "Point",
    "coordinates": [
     117.78937332,
     -22.68901331
    ]
   },
   "properties": {
    "name": "911 MINHA STREET TOM PRICE 6751",
    "locID": "LOC000069617051",
    "tech": "FTTN",
    "upgrade": "NULL_NA",
    "gnaf_pid": "GAWA_162492086",
    "tech_change_status": "Not Planned"
   }
  },
  {
   "type": "Feature",
   "geometry": {
    "type": "Point",
    "coordinates": [
     117.7892019,
     -22.68913236
    ]
   },
   "properties": {
    "name": "912A MINHA STREET TOM PRICE 6751",
    "locID": "LOC000080938041",
    "tech": "FTTN",
    "upgrade": "NULL_NA",
    "gnaf_pid": "GAWA_162492087",
    "tech_change_status": "Not Planned"
   }
  },
  {
   "type": "Feature",
   "geometry": {
    "type": "Point",
    "coordinates": [
     117.7892019,
     -22.68913236
    ]
   },
   "properties": {
    "name": "912B MINHA STREET TOM PRICE 6751",
    "locID": "LOC000080749591",
    "tech": "FTTN",
    "upgrade": "NULL_NA",
    "gnaf_pid": "GAWA_162492088",
    "tech_change_status": "Not Planned"
   }
  },
  {
   "type": "Feature",
   "geometry": {
    "type": "Point",
    "coordinates": [
     117.78903046,
     -22.68925139
    ]
   },
   "properties": {
    "name": "913A MINHA STREET TOM PRICE 6751",
    "locID": "LOC000053849142",
    "tech": "FTTN",
    "upgrade": "NULL_NA",
    "gnaf_pid": "GAWA_162492089",
    "tech_change_status": "Not Planned"
   }
  },
  {
   "type": "Feature",
   "geometry": {
    "type": "Point",
    "coordinates": [
     117.78903046,
     -22.68925139
    ]
   },
   "properties": {
    "name": "913B MINHA STREET TOM PRICE 6751",
    "locID": "LOC000053849157",
    "tech": "FTTN",
    "upgrade": "NULL_NA",
    "gnaf_pid": "GAWA_162492090",
    "tech_change_status": "Not Planned"
   }
  },
  {
   "type": "Feature",
   "geometry": {
    "type": "Point",
    "coordinates": [
     117.78885903,
     -22.68937045
    ]
   },
   "properties": {
    "name": "914 MINHA STREET TOM PRICE 6751",
    "locID": "LOC000078463040",
    "tech": "FTTN",
    "upgrade": "NULL_NA",
    "gnaf_pid": "GAWA_162492091",
    "tech_change_status": "Not Planned"
   }
  },
  {
   "type": "Feature",
   "geometry": {
    "type": "Point",
    "coordinates": [
     117.78868351,
     -22.68949616
    ]
   },
   "properties": {
    "name": "915 MINHA STREET TOM PRICE 6751",
    "locID": "LOC000022941738",
    "tech": "FTTN",
    "upgrade": "NULL_NA",
    "gnaf_pid": "GAWA_162492092",
    "tech_change_status": "Not Planned"
   }
  },
  {
   "type": "Feature",
   "geometry": {
    "type": "Point",
    "coordinates": [
     117.78888362,
     -22.68974428
    ]
   },
   "properties": {
    "name": "916 MINHA STREET TOM PRICE 6751",
    "locID": "LOC000014666175",
    "tech": "FTTN",
    "upgrade": "NULL_NA",
    "gnaf_pid": "GAWA_162492093",
    "tech_change_status": "Not Planned"
   }
  },
  {
   "type": "Feature",
   "geometry": {
    "type": "Point",
    "coordinates": [
     117.78906312,
     -22.68962347
    ]
   },
   "properties": {
    "name": "917 MINHA STREET TOM PRICE 6751",
    "locID": "LOC000069617079",
    "tech": "FTTN",
    "upgrade": "NULL_NA",
    "gnaf_pid": "GAWA_162492094",
    "tech_change_status": "Not Planned"
   }
  },
  {
   "type": "Feature",
   "geometry": {
    "type": "Point",
    "coordinates": [
     117.78923455,
     -22.68950443
    ]
   },
   "properties": {
    "name": "918 MINHA STREET TOM PRICE 6751",
    "locID": "LOC000016344098",
    "tech": "FTTN",
    "upgrade": "NULL_NA",
    "gnaf_pid": "GAWA_162492095",
    "tech_change_status": "Not Planned"
   }
  },
  {
   "type": "Feature",
   "geometry": {
    "type": "Point",
    "coordinates": [
     117.78940598,
     -22.68938538
    ]
   },
   "properties": {
    "name": "919A MINHA STREET TOM PRICE 6751",
    "locID": "LOC000063842613",
    "tech": "FTTN",
    "upgrade": "NULL_NA",
    "gnaf_pid": "GAWA_162492096",
    "tech_change_status": "Not Planned"
   }
  },
  {
   "type": "Feature",
   "geometry": {
    "type": "Point",
    "coordinates": [
     117.78940598,
     -22.68938538
    ]
   },
   "properties": {
    "name": "919B MINHA STREET TOM PRICE 6751",
    "locID": "LOC000063863836",
    "tech": "FTTN",
    "upgrade": "NULL_NA",
    "gnaf_pid": "GAWA_162492097",
    "tech_change_status": "Not Planned"
   }
  },
  {
   "type": "Feature",
   "geometry": {
    "type": "Point",
    "coordinates": [
     117.78957741,
     -22.68926635
    ]
   },
   "properties": {
    "name": "920 MINHA STREET TOM PRICE 6751",
    "locID": "LOC000022907404",
    "tech": "FTTN",
    "upgrade": "NULL_NA",
    "gnaf_pid": "GAWA_162492098",
    "tech_change_status": "Not Planned"
   }
  },
  {
   "type": "Feature",
   "geometry": {
    "type": "Point",
    "coordinates": [
     117.78983424,
     -22.68938472
    ]
   },
   "properties": {
    "name": "921A MINHA STREET TOM PRICE 6751",
    "locID": "LOC000046394401",
    "tech": "FTTN",
    "upgrade": "NULL_NA",
    "gnaf_pid": "GAWA_162492099",
    "tech_change_status": "Not Planned"
   }
  },
  {
   "type": "Feature",
   "geometry": {
    "type": "Point",
    "coordinates": [
     117.78983424,
     -22.68938472
    ]
   },
   "properties": {
    "name": "921B MINHA STREET TOM PRICE 6751",
    "locID": "LOC000046336996",
    "tech": "FTTN",
    "upgrade": "NULL_NA",
    "gnaf_pid": "GAWA_162492100",
    "tech_change_status": "Not Planned"
   }
  },
  {
   "type": "Feature",
   "geometry": {
    "type": "Point",
    "coordinates": [
     117.78993213,
     -22.68904297
    ]
   },
   "properties": {
    "name": "922 MINHA STREET TOM PRICE 6751",
    "locID": "LOC000092012483",
    "tech": "FTTN",
    "upgrade": "NULL_NA",
    "gnaf_pid": "GAWA_162492101",
    "tech_change_status": "Not Planned"
   }
  },
  {
   "type": "Feature",
   "geometry": {
    "type": "Point",
    "coordinates": [
     117.79012757,
     -22.6889532
    ]
   },
   "properties": {
    "name": "923A MINHA STREET TOM PRICE 6751",
    "locID": "LOC000030423238",
    "tech": "FTTN",
    "upgrade": "NULL_NA",
    "gnaf_pid": "GAWA_162492102",
    "tech_change_status": "Not Planned"
   }
  },
  {
   "type": "Feature",
   "geometry": {
    "type": "Point",
    "coordinates": [
     117.79012757,
     -22.6889532
    ]
   },
   "properties": {
    "name": "923B MINHA STREET TOM PRICE 6751",
    "locID": "LOC000030271300",
    "tech": "FTTN",
    "upgrade": "NULL_NA",
    "gnaf_pid": "GAWA_162492103",
    "tech_change_status": "Not Planned"
   }
  },
  {
   "type": "Feature",
   "geometry": {
    "type": "Point",
    "coordinates": [
     117.79031115,
     -22.68884872
    ]
   },
   "properties": {
    "name": "924 MINHA STREET TOM PRICE 6751",
    "locID": "LOC000052891242",
    "tech": "FTTN",
    "upgrade": "NULL_NA",
    "gnaf_pid": "GAWA_162492104",
    "tech_change_status": "Not Planned"
   }
  },
  {
   "type": "Feature",
   "geometry": {
    "type": "Point",
    "coordinates": [
     117.79048256,
     -22.68872969
    ]
   },
   "properties": {
    "name": "925A MINHA STREET TOM PRICE 6751",
    "locID": "LOC000064905468",
    "tech": "FTTN",
    "upgrade": "NULL_NA",
    "gnaf_pid": "GAWA_162492105",
    "tech_change_status": "Not Planned"
   }
  },
  {
   "type": "Feature",
   "geometry": {
    "type": "Point",
    "coordinates": [
     117.79048256,
     -22.68872969
    ]
   },
   "properties": {
    "name": "925B MINHA STREET TOM PRICE 6751",
    "locID": "LOC000065250550",
    "tech": "FTTN",
    "upgrade": "NULL_NA",
    "gnaf_pid": "GAWA_162492106",
    "tech_change_status": "Not Planned"
   }
  },
  {
   "type": "Feature",
   "geometry": {
    "type": "Point",
    "coordinates": [
     117.79065012,
     -22.68860915
    ]
   },
   "properties": {
    "name": "926 MINHA STREET TOM PRICE 6751",
    "locID": "LOC000107928120",
    "tech": "FTTN",
    "upgrade": "NULL_NA",
    "gnaf_pid": "GAWA_162492107",
    "tech_change_status": "Not Planned"
   }
  },
  {
   "type": "Feature",
   "geometry": {
    "type": "Point",
    "coordinates": [
     117.78919811,
     -22.69015005
    ]
   },
   "properties": {
    "name": "930 MINHA STREET TOM PRICE 6751",
    "locID": "LOC000074548649",
    "tech": "FTTN",
    "upgrade": "NULL_NA",
    "gnaf_pid": "GAWA_162492109",
    "tech_change_status": "Not Planned"
   }
  },
  {
   "type": "Feature",
   "geometry": {
    "type": "Point",
    "coordinates": [
     117.78936952,
     -22.69003103
    ]
   },
   "properties": {
    "name": "931 MINHA STREET TOM PRICE 6751",
    "locID": "LOC000029603847",
    "tech": "FTTN",
    "upgrade": "NULL_NA",
    "gnaf_pid": "GAWA_162492110",
    "tech_change_status": "Not Planned"
   }
  },
  {
   "type": "Feature",
   "geometry": {
    "type": "Point",
    "coordinates": [
     117.78954093,
     -22.68991199
    ]
   },
   "properties": {
    "name": "932A MINHA STREET TOM PRICE 6751",
    "locID": "LOC000177930254",
    "tech": "FTTN",
    "upgrade": "NULL_NA",
    "gnaf_pid": "GAWA_162492111",
    "tech_change_status": "Not Planned"
   }
  },
  {
   "type": "Feature",
   "geometry": {
    "type": "Point",
    "coordinates": [
     117.78954093,
     -22.68991199
    ]
   },
   "properties": {
    "name": "932B MINHA STREET TOM PRICE 6751",
    "locID": "LOC000019930466",
    "tech": "FTTN",
    "upgrade": "NULL_NA",
    "gnaf_pid": "GAWA_162492112",
    "tech_change_status": "Not Planned"
   }
  },
  {
   "type": "Feature",
   "geometry": {
    "type": "Point",
    "coordinates": [
     117.78971235,
     -22.68979295
    ]
   },
   "properties": {
    "name": "933 MINHA STREET TOM PRICE 6751",
    "locID": "LOC000107928131",
    "tech": "FTTN",
    "upgrade": "NULL_NA",
    "gnaf_pid": "GAWA_162492113",
    "tech_change_status": "Not Planned"
   }
  },
  {
   "type": "Feature",
   "geometry": {
    "type": "Point",
    "coordinates": [
     117.78988376,
     -22.68967392
    ]
   },
   "properties": {
    "name": "934A MINHA STREET TOM PRICE 6751",
    "locID": "LOC000040186013",
    "tech": "FTTN",
    "upgrade": "NULL_NA",
    "gnaf_pid": "GAWA_162492114",
    "tech_change_status": "Not Planned"
   }
  },
  {
   "type": "Feature",
   "geometry": {
    "type": "Point",
    "coordinates": [
     117.78988376,
     -22.68967392
    ]
   },
   "properties": {
    "name": "934B MINHA STREET TOM PRICE 6751",
    "locID": "LOC000040262908",
    "tech": "FTTN",
    "upgrade": "NULL_NA",
    "gnaf_pid": "GAWA_162492115",
    "tech_change_status": "Not Planned"
   }
  },
  {
   "type": "Feature",
   "geometry": {
    "type": "Point",
    "coordinates": [
     117.79005519,
     -22.68955487
    ]
   },
   "properties": {
    "name": "935 MINHA STREET TOM PRICE 6751",
    "locID": "LOC000088759914",
    "tech": "FTTN",
    "upgrade": "NULL_NA",
    "gnaf_pid": "GAWA_162492116",
    "tech_change_status": "Not Planned"
   }
  },
  {
   "type": "Feature",
   "geometry": {
    "type": "Point",
    "coordinates": [
     117.79023903,
     -22.6894503
    ]
   },
   "properties": {
    "name": "936 MINHA STREET TOM PRICE 6751",
    "locID": "LOC000063807577",
    "tech": "FTTN",
    "upgrade": "NULL_NA",
    "gnaf_pid": "GAWA_162492117",
    "tech_change_status": "Not Planned"
   }
  },
  {
   "type": "Feature",
   "geometry": {
    "type": "Point",
    "coordinates": [
     117.79372062,
     -22.69401632
    ]
   },
   "properties": {
    "name": "1 CREEK ROAD TOM PRICE 6751",
    "locID": "LOC000133468643",
    "tech": "FTTN",
    "upgrade": "NULL_NA",
    "gnaf_pid": "GAWA_162561749",
    "tech_change_status": "Not Planned"
   }
  },
  {
   "type": "Feature",
   "geometry": {
    "type": "Point",
    "coordinates": [
     117.79334119,
     -22.69456112
    ]
   },
   "properties": {
    "name": "5 CREEK ROAD TOM PRICE 6751",
    "locID": "LOC000133476710",
    "tech": "FTTN",
    "upgrade": "NULL_NA",
    "gnaf_pid": "GAWA_162561751",
    "tech_change_status": "Not Planned"
   }
  },
  {
   "type": "Feature",
   "geometry": {
    "type": "Point",
    "coordinates": [
     117.80164099,
     -22.69764641
    ]
   },
   "properties": {
    "name": "384 TECOMA STREET TOM PRICE 6751",
    "locID": "LOC000097957892",
    "tech": "FTTN",
    "upgrade": "NULL_NA",
    "gnaf_pid": "GAWA_162588248",
    "tech_change_status": "Not Planned"
   }
  },
  {
   "type": "Feature",
   "geometry": {
    "type": "Point",
    "coordinates": [
     117.79121642,
     -22.68807068
    ]
   },
   "properties": {
    "name": "902 NORTH ROAD TOM PRICE 6751",
    "locID": "LOC000109309164",
    "tech": "FTTN",
    "upgrade": "NULL_NA",
    "gnaf_pid": "GAWA_162649503",
    "tech_change_status": "Not Planned"
   }
  },
  {
   "type": "Feature",
   "geometry": {
    "type": "Point",
    "coordinates": [
     117.78972946,
     -22.68879088
    ]
   },
   "properties": {
    "name": "909 NORTH ROAD TOM PRICE 6751",
    "locID": "LOC000108960058",
    "tech": "FTTN",
    "upgrade": "NULL_NA",
    "gnaf_pid": "GAWA_162649505",
    "tech_change_status": "Not Planned"
   }
  },
  {
   "type": "Feature",
   "geometry": {
    "type": "Point",
    "coordinates": [
     117.77658762,
     -22.67918864
    ]
   },
   "properties": {
    "name": "LOT 64 KANBERRA DRIVE TOM PRICE 6751",
    "locID": "LOC000107635544",
    "tech": "FTTN",
    "upgrade": "NULL_NA",
    "gnaf_pid": "GAWA_162791895",
    "tech_change_status": "Not Planned"
   }
  },
  {
   "type": "Feature",
   "geometry": {
    "type": "Point",
    "coordinates": [
     117.77857381,
     -22.72561735
    ]
   },
   "properties": {
    "name": "LOT 19 MINE ROAD TOM PRICE 6751",
    "locID": "LOC000182879244",
    "tech": "NULL",
    "upgrade": "NULL_NA",
    "gnaf_pid": "GAWA_162798107",
    "tech_change_status": "Not Planned"
   }
  },
  {
   "type": "Feature",
   "geometry": {
    "type": "Point",
    "coordinates": [
     117.79964647,
     -22.69806273
    ]
   },
   "properties": {
    "name": "LOT 373 POINSETTIA STREET TOM PRICE 6751",
    "locID": "LOC000108550950",
    "tech": "FTTN",
    "upgrade": "NULL_NA",
    "gnaf_pid": "GAWA_162803360",
    "tech_change_status": "Not Planned"
   }
  },
  {
   "type": "Feature",
   "geometry": {
    "type": "Point",
    "coordinates": [
     117.77983175,
     -22.68056219
    ]
   },
   "properties": {
    "name": "LOT 2 TARWONGA CIRCUIT TOM PRICE 6751",
    "locID": "LOC000108165177",
    "tech": "FTTN",
    "upgrade": "NULL_NA",
    "gnaf_pid": "GAWA_162810669",
    "tech_change_status": "Not Planned"
   }
  },
  {
   "type": "Feature",
   "geometry": {
    "type": "Point",
    "coordinates": [
     117.79369027,
     -22.69148326
    ]
   },
   "properties": {
    "name": "LOT 155 CASSIA STREET TOM PRICE 6751",
    "locID": "LOC000133480595",
    "tech": "FTTN",
    "upgrade": "NULL_NA",
    "gnaf_pid": "GAWA_162817518",
    "tech_change_status": "Not Planned"
   }
  },
  {
   "type": "Feature",
   "geometry": {
    "type": "Point",
    "coordinates": [
     117.79369418,
     -22.69227508
    ]
   },
   "properties": {
    "name": "LOT 123 CEDAR STREET TOM PRICE 6751",
    "locID": "LOC000182495493",
    "tech": "FTTN",
    "upgrade": "NULL_NA",
    "gnaf_pid": "GAWA_162817540",
    "tech_change_status": "Not Planned"
   }
  },
  {
   "type": "Feature",
   "geometry": {
    "type": "Point",
    "coordinates": [
     117.79369669,
     -22.69180478
    ]
   },
   "properties": {
    "name": "LOT 146 CEDAR STREET TOM PRICE 6751",
    "locID": "LOC000108652767",
    "tech": "FTTN",
    "upgrade": "NULL_NA",
    "gnaf_pid": "GAWA_162817541",
    "tech_change_status": "Not Planned"
   }
  },
  {
   "type": "Feature",
   "geometry": {
    "type": "Point",
    "coordinates": [
     117.79369738,
     -22.69259583
    ]
   },
   "properties": {
    "name": "LOT 114 OLEANDER STREET TOM PRICE 6751",
    "locID": "LOC000108720735",
    "tech": "FTTN",
    "upgrade": "NULL_NA",
    "gnaf_pid": "GAWA_162820324",
    "tech_change_status": "Not Planned"
   }
  },
  {
   "type": "Feature",
   "geometry": {
    "type": "Point",
    "coordinates": [
     117.79370885,
     -22.6930659
    ]
   },
   "properties": {
    "name": "LOT 91 OLEANDER STREET TOM PRICE 6751",
    "locID": "LOC000107692543",
    "tech": "FTTN",
    "upgrade": "NULL_NA",
    "gnaf_pid": "GAWA_162820325",
    "tech_change_status": "Not Planned"
   }
  },
  {
   "type": "Feature",
   "geometry": {
    "type": "Point",
    "coordinates": [
     117.79964647,
     -22.69806273
    ]
   },
   "properties": {
    "name": "LOT 373B POINSETTIA STREET TOM PRICE 6751",
    "locID": "LOC000109420003",
    "tech": "FTTN",
    "upgrade": "NULL_NA",
    "gnaf_pid": "GAWA_162820570",
    "tech_change_status": "Not Planned"
   }
  },
  {
   "type": "Feature",
   "geometry": {
    "type": "Point",
    "coordinates": [
     117.79371365,
     -22.6933751
    ]
   },
   "properties": {
    "name": "LOT 82 TAMARIND STREET TOM PRICE 6751",
    "locID": "LOC000109528620",
    "tech": "FTTN",
    "upgrade": "NULL_NA",
    "gnaf_pid": "GAWA_162821579",
    "tech_change_status": "Not Planned"
   }
  },
  {
   "type": "Feature",
   "geometry": {
    "type": "Point",
    "coordinates": [
     117.79964647,
     -22.69806273
    ]
   },
   "properties": {
    "name": "LOT 373A POINSETTIA STREET TOM PRICE 6751",
    "locID": "LOC000108550950",
    "tech": "FTTN",
    "upgrade": "NULL_NA",
    "gnaf_pid": "GAWA_162841122",
    "tech_change_status": "Not Planned"
   }
  },
  {
   "type": "Feature",
   "geometry": {
    "type": "Point",
    "coordinates": [
     117.77702605,
     -22.67977569
    ]
   },
   "properties": {
    "name": "58 KANBERRA DRIVE TOM PRICE 6751",
    "locID": "LOC000109418539",
    "tech": "FTTN",
    "upgrade": "NULL_NA",
    "gnaf_pid": "GAWA_162874354",
    "tech_change_status": "Not Planned"
   }
  },
  {
   "type": "Feature",
   "geometry": {
    "type": "Point",
    "coordinates": [
     117.77968082,
     -22.68029941
    ]
   },
   "properties": {
    "name": "251 KANBERRA DRIVE TOM PRICE 6751",
    "locID": "LOC000108205750",
    "tech": "FTTN",
    "upgrade": "NULL_NA",
    "gnaf_pid": "GAWA_162989950",
    "tech_change_status": "Not Planned"
   }
  },
  {
   "type": "Feature",
   "geometry": {
    "type": "Point",
    "coordinates": [
     117.7851669,
     -22.67943763
    ]
   },
   "properties": {
    "name": "4 KANBERRA DRIVE TOM PRICE 6751",
    "locID": "LOC000107754290",
    "tech": "FTTN",
    "upgrade": "NULL_NA",
    "gnaf_pid": "GAWA_162989951",
    "tech_change_status": "Not Planned"
   }
  },
  {
   "type": "Feature",
   "geometry": {
    "type": "Point",
    "coordinates": [
     117.78490313,
     -22.67939555
    ]
   },
   "properties": {
    "name": "6 KANBERRA DRIVE TOM PRICE 6751",
    "locID": "LOC000108947448",
    "tech": "FTTN",
    "upgrade": "NULL_NA",
    "gnaf_pid": "GAWA_162989952",
    "tech_change_status": "Not Planned"
   }
  },
  {
   "type": "Feature",
   "geometry": {
    "type": "Point",
    "coordinates": [
     117.78195785,
     -22.67922892
    ]
   },
   "properties": {
    "name": "34 ALLAMBI WAY TOM PRICE 6751",
    "locID": "LOC000108335407",
    "tech": "FTTN",
    "upgrade": "NULL_NA",
    "gnaf_pid": "GAWA_163005964",
    "tech_change_status": "Not Planned"
   }
  },
  {
   "type": "Feature",
   "geometry": {
    "type": "Point",
    "coordinates": [
     117.78508865,
     -22.67684429
    ]
   },
   "properties": {
    "name": "17 COGELUP WAY TOM PRICE 6751",
    "locID": "LOC000108579608",
    "tech": "FTTN",
    "upgrade": "NULL_NA",
    "gnaf_pid": "GAWA_163006217",
    "tech_change_status": "Not Planned"
   }
  },
  {
   "type": "Feature",
   "geometry": {
    "type": "Point",
    "coordinates": [
     117.79914398,
     -22.69806919
    ]
   },
   "properties": {
    "name": "9 POINSETTIA STREET TOM PRICE 6751",
    "locID": "LOC000108648060",
    "tech": "FTTN",
    "upgrade": "NULL_NA",
    "gnaf_pid": "GAWA_163006911",
    "tech_change_status": "Not Planned"
   }
  },
  {
   "type": "Feature",
   "geometry": {
    "type": "Point",
    "coordinates": [
     117.78536781,
     -22.6778396
    ]
   },
   "properties": {
    "name": "9 COGELUP WAY TOM PRICE 6751",
    "locID": "LOC000108947606",
    "tech": "FTTN",
    "upgrade": "NULL_NA",
    "gnaf_pid": "GAWA_163052254",
    "tech_change_status": "Not Planned"
   }
  },
  {
   "type": "Feature",
   "geometry": {
    "type": "Point",
    "coordinates": [
     117.78289684,
     -22.67885394
    ]
   },
   "properties": {
    "name": "10 ALLAMBI WAY TOM PRICE 6751",
    "locID": "LOC000177608118",
    "tech": "FTTN",
    "upgrade": "NULL_NA",
    "gnaf_pid": "GAWA_163156319",
    "tech_change_status": "Not Planned"
   }
  },
  {
   "type": "Feature",
   "geometry": {
    "type": "Point",
    "coordinates": [
     117.79043533,
     -22.68936193
    ]
   },
   "properties": {
    "name": "937 MINHA STREET TOM PRICE 6751",
    "locID": "LOC000074447769",
    "tech": "FTTN",
    "upgrade": "NULL_NA",
    "gnaf_pid": "GAWA_163206555",
    "tech_change_status": "Not Planned"
   }
  },
  {
   "type": "Feature",
   "geometry": {
    "type": "Point",
    "coordinates": [
     117.78437558,
     -22.6793114
    ]
   },
   "properties": {
    "name": "10 KANBERRA DRIVE TOM PRICE 6751",
    "locID": "LOC000109444038",
    "tech": "FTTN",
    "upgrade": "NULL_NA",
    "gnaf_pid": "GAWA_163236536",
    "tech_change_status": "Not Planned"
   }
  },
  {
   "type": "Feature",
   "geometry": {
    "type": "Point",
    "coordinates": [
     117.78542853,
     -22.67948296
    ]
   },
   "properties": {
    "name": "2 KANBERRA DRIVE TOM PRICE 6751",
    "locID": "LOC000169556929",
    "tech": "FTTN",
    "upgrade": "NULL_NA",
    "gnaf_pid": "GAWA_163236537",
    "tech_change_status": "Not Planned"
   }
  },
  {
   "type": "Feature",
   "geometry": {
    "type": "Point",
    "coordinates": [
     117.78463936,
     -22.67935348
    ]
   },
   "properties": {
    "name": "8 KANBERRA DRIVE TOM PRICE 6751",
    "locID": "LOC000108149740",
    "tech": "FTTN",
    "upgrade": "NULL_NA",
    "gnaf_pid": "GAWA_163236538",
    "tech_change_status": "Not Planned"
   }
  },
  {
   "type": "Feature",
   "geometry": {
    "type": "Point",
    "coordinates": [
     117.78565279,
     -22.67640556
    ]
   },
   "properties": {
    "name": "24 COGELUP WAY TOM PRICE 6751",
    "locID": "LOC000109574197",
    "tech": "FTTN",
    "upgrade": "NULL_NA",
    "gnaf_pid": "GAWA_163245340",
    "tech_change_status": "Not Planned"
   }
  },
  {
   "type": "Feature",
   "geometry": {
    "type": "Point",
    "coordinates": [
     117.79102578,
     -22.68844579
    ]
   },
   "properties": {
    "name": "927 NGARDI PLACE TOM PRICE 6751",
    "locID": "LOC000109740176",
    "tech": "FTTN",
    "upgrade": "NULL_NA",
    "gnaf_pid": "GAWA_163245740",
    "tech_change_status": "Not Planned"
   }
  },
  {
   "type": "Feature",
   "geometry": {
    "type": "Point",
    "coordinates": [
     117.79123082,
     -22.6883994
    ]
   },
   "properties": {
    "name": "928 NGARDI PLACE TOM PRICE 6751",
    "locID": "LOC000086303914",
    "tech": "FTTN",
    "upgrade": "NULL_NA",
    "gnaf_pid": "GAWA_163245741",
    "tech_change_status": "Not Planned"
   }
  },
  {
   "type": "Feature",
   "geometry": {
    "type": "Point",
    "coordinates": [
     117.7914278,
     -22.68832563
    ]
   },
   "properties": {
    "name": "929 NGARDI PLACE TOM PRICE 6751",
    "locID": "LOC000108022215",
    "tech": "FTTN",
    "upgrade": "NULL_NA",
    "gnaf_pid": "GAWA_163245742",
    "tech_change_status": "Not Planned"
   }
  },
  {
   "type": "Feature",
   "geometry": {
    "type": "Point",
    "coordinates": [
     117.78482915,
     -22.6768486
    ]
   },
   "properties": {
    "name": "15 COGELUP WAY TOM PRICE 6751",
    "locID": "LOC000108484298",
    "tech": "FTTN",
    "upgrade": "NULL_NA",
    "gnaf_pid": "GAWA_163346649",
    "tech_change_status": "Not Planned"
   }
  },
  {
   "type": "Feature",
   "geometry": {
    "type": "Point",
    "coordinates": [
     117.79635602,
     -22.68279388
    ]
   },
   "properties": {
    "name": "UNIT A, 1819 WARARA STREET TOM PRICE 6751",
    "locID": "LOC000107453003",
    "tech": "FTTN",
    "upgrade": "NULL_NA",
    "gnaf_pid": "GAWA_163348442",
    "tech_change_status": "Not Planned"
   }
  },
  {
   "type": "Feature",
   "geometry": {
    "type": "Point",
    "coordinates": [
     117.79635602,
     -22.68279388
    ]
   },
   "properties": {
    "name": "UNIT B, 1819 WARARA STREET TOM PRICE 6751",
    "locID": "LOC000107453003",
    "tech": "FTTN",
    "upgrade": "NULL_NA",
    "gnaf_pid": "GAWA_163348443",
    "tech_change_status": "Not Planned"
   }
  },
  {
   "type": "Feature",
   "geometry": {
    "type": "Point",
    "coordinates": [
     117.78332061,
     -22.67914312
    ]
   },
   "properties": {
    "name": "18 ALLAMBI WAY TOM PRICE 6751",
    "locID": "LOC000109290581",
    "tech": "FTTN",
    "upgrade": "NULL_NA",
    "gnaf_pid": "GAWA_163348559",
    "tech_change_status": "Not Planned"
   }
  },
  {
   "type": "Feature",
   "geometry": {
    "type": "Point",
    "coordinates": [
     117.79635602,
     -22.68279388
    ]
   },
   "properties": {
    "name": "1819 WARARA STREET TOM PRICE 6751",
    "locID": "LOC000107453003",
    "tech": "FTTN",
    "upgrade": "NULL_NA",
    "gnaf_pid": "GAWA_163348723",
    "tech_change_status": "Not Planned"
   }
  },
  {
   "type": "Feature",
   "geometry": {
    "type": "Point",
    "coordinates": [
     117.78484578,
     -22.67783655
    ]
   },
   "properties": {
    "name": "13 COGELUP WAY TOM PRICE 6751",
    "locID": "LOC000107622326",
    "tech": "FTTN",
    "upgrade": "NULL_NA",
    "gnaf_pid": "GAWA_718232104",
    "tech_change_status": "Not Planned"
   }
  },
  {
   "type": "Feature",
   "geometry": {
    "type": "Point",
    "coordinates": [
     117.7908187,
     -22.68818586
    ]
   },
   "properties": {
    "name": "904 NORTH ROAD TOM PRICE 6751",
    "locID": "LOC000109474740",
    "tech": "FTTN",
    "upgrade": "NULL_NA",
    "gnaf_pid": "GAWA_718302392",
    "tech_change_status": "Not Planned"
   }
  },
  {
   "type": "Feature",
   "geometry": {
    "type": "Point",
    "coordinates": [
     117.78954475,
     -22.68889427
    ]
   },
   "properties": {
    "name": "910 NORTH ROAD TOM PRICE 6751",
    "locID": "LOC000108560370",
    "tech": "FTTN",
    "upgrade": "NULL_NA",
    "gnaf_pid": "GAWA_718302393",
    "tech_change_status": "Not Planned"
   }
  },
  {
   "type": "Feature",
   "geometry": {
    "type": "Point",
    "coordinates": [
     117.7844168,
     -22.69084471
    ]
   },
   "properties": {
    "name": "12 EUCALYPTUS COURT TOM PRICE 6751",
    "locID": "LOC000169846690",
    "tech": "FTTN",
    "upgrade": "NULL_NA",
    "gnaf_pid": "GAWA_718388644",
    "tech_change_status": "Not Planned"
   }
  },
  {
   "type": "Feature",
   "geometry": {
    "type": "Point",
    "coordinates": [
     117.78495326,
     -22.69207424
    ]
   },
   "properties": {
    "name": "1 EUCALYPTUS COURT TOM PRICE 6751",
    "locID": "LOC000169846688",
    "tech": "FTTN",
    "upgrade": "NULL_NA",
    "gnaf_pid": "GAWA_718388645",
    "tech_change_status": "Not Planned"
   }
  },
  {
   "type": "Feature",
   "geometry": {
    "type": "Point",
    "coordinates": [
     117.78524648,
     -22.69130832
    ]
   },
   "properties": {
    "name": "2 EUCALYPTUS COURT TOM PRICE 6751",
    "locID": "LOC000185573756",
    "tech": "FTTN",
    "upgrade": "NULL_NA",
    "gnaf_pid": "GAWA_718388646",
    "tech_change_status": "Not Planned"
   }
  },
  {
   "type": "Feature",
   "geometry": {
    "type": "Point",
    "coordinates": [
     117.78289684,
     -22.67885394
    ]
   },
   "properties": {
    "name": "2 ALLAMBI WAY TOM PRICE 6751",
    "locID": "LOC100056144474",
    "tech": "FTTN",
    "upgrade": "NULL_NA",
    "gnaf_pid": "GAWA_718394485",
    "tech_change_status": "Not Planned"
   }
  },
  {
   "type": "Feature",
   "geometry": {
    "type": "Point",
    "coordinates": [
     117.78546215,
     -22.67827494
    ]
   },
   "properties": {
    "name": "10 COGELUP WAY TOM PRICE 6751",
    "locID": "LOC000109030692",
    "tech": "FTTN",
    "upgrade": "NULL_NA",
    "gnaf_pid": "GAWA_718394731",
    "tech_change_status": "Not Planned"
   }
  },
  {
   "type": "Feature",
   "geometry": {
    "type": "Point",
    "coordinates": [
     117.79472187,
     -22.69591814
    ]
   },
   "properties": {
    "name": "1 COURT ROAD TOM PRICE 6751",
    "locID": "LOC000169847548",
    "tech": "FTTN",
    "upgrade": "NULL_NA",
    "gnaf_pid": "GAWA_718483759",
    "tech_change_status": "Not Planned"
   }
  },
  {
   "type": "Feature",
   "geometry": {
    "type": "Point",
    "coordinates": [
     117.78562319,
     -22.67784115
    ]
   },
   "properties": {
    "name": "7 COGELUP WAY TOM PRICE 6751",
    "locID": "LOC000107691532",
    "tech": "FTTN",
    "upgrade": "NULL_NA",
    "gnaf_pid": "GAWA_718511190",
    "tech_change_status": "Not Planned"
   }
  },
  {
   "type": "Feature",
   "geometry": {
    "type": "Point",
    "coordinates": [
     117.77671238,
     -22.67891166
    ]
   },
   "properties": {
    "name": "4 MARRINUP WAY TOM PRICE 6751",
    "locID": "LOC000109497758",
    "tech": "FTTN",
    "upgrade": "NULL_NA",
    "gnaf_pid": "GAWA_718511870",
    "tech_change_status": "Not Planned"
   }
  },
  {
   "type": "Feature",
   "geometry": {
    "type": "Point",
    "coordinates": [
     117.79317373,
     -22.69779489
    ]
   },
   "properties": {
    "name": "22A POINCIANA STREET TOM PRICE 6751",
    "locID": "LOC000109768958",
    "tech": "FTTN",
    "upgrade": "NULL_NA",
    "gnaf_pid": "GAWA_718512086",
    "tech_change_status": "Not Planned"
   }
  },
  {
   "type": "Feature",
   "geometry": {
    "type": "Point",
    "coordinates": [
     117.79317373,
     -22.69779489
    ]
   },
   "properties": {
    "name": "22B POINCIANA STREET TOM PRICE 6751",
    "locID": "LOC000109768958",
    "tech": "FTTN",
    "upgrade": "NULL_NA",
    "gnaf_pid": "GAWA_718512087",
    "tech_change_status": "Not Planned"
   }
  },
  {
   "type": "Feature",
   "geometry": {
    "type": "Point",
    "coordinates": [
     117.78377183,
     -22.67871601
    ]
   },
   "properties": {
    "name": "UNIT 1, 17 ALLAMBI WAY TOM PRICE 6751",
    "locID": "LOC000109490803",
    "tech": "FTTN",
    "upgrade": "NULL_NA",
    "gnaf_pid": "GAWA_718569139",
    "tech_change_status": "Not Planned"
   }
  },
  {
   "type": "Feature",
   "geometry": {
    "type": "Point",
    "coordinates": [
     117.78329679,
     -22.67863794
    ]
   },
   "properties": {
    "name": "UNIT 1, 19 ALLAMBI WAY TOM PRICE 6751",
    "locID": "LOC000109709999",
    "tech": "FTTN",
    "upgrade": "NULL_NA",
    "gnaf_pid": "GAWA_718569140",
    "tech_change_status": "Not Planned"
   }
  },
  {
   "type": "Feature",
   "geometry": {
    "type": "Point",
    "coordinates": [
     117.78281866,
     -22.67854497
    ]
   },
   "properties": {
    "name": "UNIT 1, 21 ALLAMBI WAY TOM PRICE 6751",
    "locID": "LOC000108598520",
    "tech": "FTTN",
    "upgrade": "NULL_NA",
    "gnaf_pid": "GAWA_718569141",
    "tech_change_status": "Not Planned"
   }
  },
  {
   "type": "Feature",
   "geometry": {
    "type": "Point",
    "coordinates": [
     117.78235787,
     -22.6784743
    ]
   },
   "properties": {
    "name": "UNIT 1, 23 ALLAMBI WAY TOM PRICE 6751",
    "locID": "LOC000108060376",
    "tech": "FTTN",
    "upgrade": "NULL_NA",
    "gnaf_pid": "GAWA_718569142",
    "tech_change_status": "Not Planned"
   }
  },
  {
   "type": "Feature",
   "geometry": {
    "type": "Point",
    "coordinates": [
     117.78178316,
     -22.6783926
    ]
   },
   "properties": {
    "name": "UNIT 1, 25 ALLAMBI WAY TOM PRICE 6751",
    "locID": "LOC000108472037",
    "tech": "FTTN",
    "upgrade": "NULL_NA",
    "gnaf_pid": "GAWA_718569143",
    "tech_change_status": "Not Planned"
   }
  },
  {
   "type": "Feature",
   "geometry": {
    "type": "Point",
    "coordinates": [
     117.78377183,
     -22.67871601
    ]
   },
   "properties": {
    "name": "UNIT 2, 17 ALLAMBI WAY TOM PRICE 6751",
    "locID": "LOC000109490793",
    "tech": "FTTN",
    "upgrade": "NULL_NA",
    "gnaf_pid": "GAWA_718569144",
    "tech_change_status": "Not Planned"
   }
  },
  {
   "type": "Feature",
   "geometry": {
    "type": "Point",
    "coordinates": [
     117.78329679,
     -22.67863794
    ]
   },
   "properties": {
    "name": "UNIT 2, 19 ALLAMBI WAY TOM PRICE 6751",
    "locID": "LOC000109710007",
    "tech": "FTTN",
    "upgrade": "NULL_NA",
    "gnaf_pid": "GAWA_718569145",
    "tech_change_status": "Not Planned"
   }
  },
  {
   "type": "Feature",
   "geometry": {
    "type": "Point",
    "coordinates": [
     117.78281866,
     -22.67854497
    ]
   },
   "properties": {
    "name": "UNIT 2, 21 ALLAMBI WAY TOM PRICE 6751",
    "locID": "LOC000108598520",
    "tech": "FTTN",
    "upgrade": "NULL_NA",
    "gnaf_pid": "GAWA_718569146",
    "tech_change_status": "Not Planned"
   }
  },
  {
   "type": "Feature",
   "geometry": {
    "type": "Point",
    "coordinates": [
     117.78235787,
     -22.6784743
    ]
   },
   "properties": {
    "name": "UNIT 2, 23 ALLAMBI WAY TOM PRICE 6751",
    "locID": "LOC000108060353",
    "tech": "FTTN",
    "upgrade": "NULL_NA",
    "gnaf_pid": "GAWA_718569147",
    "tech_change_status": "Not Planned"
   }
  },
  {
   "type": "Feature",
   "geometry": {
    "type": "Point",
    "coordinates": [
     117.78178316,
     -22.6783926
    ]
   },
   "properties": {
    "name": "UNIT 2, 25 ALLAMBI WAY TOM PRICE 6751",
    "locID": "LOC000108472028",
    "tech": "FTTN",
    "upgrade": "NULL_NA",
    "gnaf_pid": "GAWA_718569148",
    "tech_change_status": "Not Planned"
   }
  },
  {
   "type": "Feature",
   "geometry": {
    "type": "Point",
    "coordinates": [
     117.78377183,
     -22.67871601
    ]
   },
   "properties": {
    "name": "UNIT 3, 17 ALLAMBI WAY TOM PRICE 6751",
    "locID": "LOC000109490786",
    "tech": "FTTN",
    "upgrade": "NULL_NA",
    "gnaf_pid": "GAWA_718569149",
    "tech_change_status": "Not Planned"
   }
  },
  {
   "type": "Feature",
   "geometry": {
    "type": "Point",
    "coordinates": [
     117.78329679,
     -22.67863794
    ]
   },
   "properties": {
    "name": "UNIT 3, 19 ALLAMBI WAY TOM PRICE 6751",
    "locID": "LOC000109709999",
    "tech": "FTTN",
    "upgrade": "NULL_NA",
    "gnaf_pid": "GAWA_718569150",
    "tech_change_status": "Not Planned"
   }
  },
  {
   "type": "Feature",
   "geometry": {
    "type": "Point",
    "coordinates": [
     117.78281866,
     -22.67854497
    ]
   },
   "properties": {
    "name": "UNIT 3, 21 ALLAMBI WAY TOM PRICE 6751",
    "locID": "LOC000108598531",
    "tech": "FTTN",
    "upgrade": "NULL_NA",
    "gnaf_pid": "GAWA_718569151",
    "tech_change_status": "Not Planned"
   }
  },
  {
   "type": "Feature",
   "geometry": {
    "type": "Point",
    "coordinates": [
     117.78235787,
     -22.6784743
    ]
   },
   "properties": {
    "name": "UNIT 3, 23 ALLAMBI WAY TOM PRICE 6751",
    "locID": "LOC000108060353",
    "tech": "FTTN",
    "upgrade": "NULL_NA",
    "gnaf_pid": "GAWA_718569152",
    "tech_change_status": "Not Planned"
   }
  },
  {
   "type": "Feature",
   "geometry": {
    "type": "Point",
    "coordinates": [
     117.78178316,
     -22.6783926
    ]
   },
   "properties": {
    "name": "UNIT 3, 25 ALLAMBI WAY TOM PRICE 6751",
    "locID": "LOC000108472063",
    "tech": "FTTN",
    "upgrade": "NULL_NA",
    "gnaf_pid": "GAWA_718569153",
    "tech_change_status": "Not Planned"
   }
  },
  {
   "type": "Feature",
   "geometry": {
    "type": "Point",
    "coordinates": [
     117.78329679,
     -22.67863794
    ]
   },
   "properties": {
    "name": "UNIT 4, 19 ALLAMBI WAY TOM PRICE 6751",
    "locID": "LOC000109709975",
    "tech": "FTTN",
    "upgrade": "NULL_NA",
    "gnaf_pid": "GAWA_718569154",
    "tech_change_status": "Not Planned"
   }
  },
  {
   "type": "Feature",
   "geometry": {
    "type": "Point",
    "coordinates": [
     117.78281866,
     -22.67854497
    ]
   },
   "properties": {
    "name": "UNIT 4, 21 ALLAMBI WAY TOM PRICE 6751",
    "locID": "LOC000108598508",
    "tech": "FTTN",
    "upgrade": "NULL_NA",
    "gnaf_pid": "GAWA_718569155",
    "tech_change_status": "Not Planned"
   }
  },
  {
   "type": "Feature",
   "geometry": {
    "type": "Point",
    "coordinates": [
     117.78235787,
     -22.6784743
    ]
   },
   "properties": {
    "name": "UNIT 4, 23 ALLAMBI WAY TOM PRICE 6751",
    "locID": "LOC000108060369",
    "tech": "FTTN",
    "upgrade": "NULL_NA",
    "gnaf_pid": "GAWA_718569156",
    "tech_change_status": "Not Planned"
   }
  },
  {
   "type": "Feature",
   "geometry": {
    "type": "Point",
    "coordinates": [
     117.78178316,
     -22.6783926
    ]
   },
   "properties": {
    "name": "UNIT 4, 25 ALLAMBI WAY TOM PRICE 6751",
    "locID": "LOC000108472028",
    "tech": "FTTN",
    "upgrade": "NULL_NA",
    "gnaf_pid": "GAWA_718569157",
    "tech_change_status": "Not Planned"
   }
  },
  {
   "type": "Feature",
   "geometry": {
    "type": "Point",
    "coordinates": [
     117.78178316,
     -22.6783926
    ]
   },
   "properties": {
    "name": "UNIT 5, 25 ALLAMBI WAY TOM PRICE 6751",
    "locID": "LOC000108472044",
    "tech": "FTTN",
    "upgrade": "NULL_NA",
    "gnaf_pid": "GAWA_718569158",
    "tech_change_status": "Not Planned"
   }
  },
  {
   "type": "Feature",
   "geometry": {
    "type": "Point",
    "coordinates": [
     117.78411181,
     -22.67926933
    ]
   },
   "properties": {
    "name": "12 ALLAMBI WAY TOM PRICE 6751",
    "locID": "LOC000108334294",
    "tech": "FTTN",
    "upgrade": "NULL_NA",
    "gnaf_pid": "GAWA_718569159",
    "tech_change_status": "Not Planned"
   }
  },
  {
   "type": "Feature",
   "geometry": {
    "type": "Point",
    "coordinates": [
     117.78384809,
     -22.67922726
    ]
   },
   "properties": {
    "name": "14 ALLAMBI WAY TOM PRICE 6751",
    "locID": "LOC000108564282",
    "tech": "FTTN",
    "upgrade": "NULL_NA",
    "gnaf_pid": "GAWA_718569160",
    "tech_change_status": "Not Planned"
   }
  },
  {
   "type": "Feature",
   "geometry": {
    "type": "Point",
    "coordinates": [
     117.78358435,
     -22.67918519
    ]
   },
   "properties": {
    "name": "16 ALLAMBI WAY TOM PRICE 6751",
    "locID": "LOC000109274568",
    "tech": "FTTN",
    "upgrade": "NULL_NA",
    "gnaf_pid": "GAWA_718569161",
    "tech_change_status": "Not Planned"
   }
  },
  {
   "type": "Feature",
   "geometry": {
    "type": "Point",
    "coordinates": [
     117.78305687,
     -22.67910105
    ]
   },
   "properties": {
    "name": "20 ALLAMBI WAY TOM PRICE 6751",
    "locID": "LOC000108649566",
    "tech": "FTTN",
    "upgrade": "NULL_NA",
    "gnaf_pid": "GAWA_718569162",
    "tech_change_status": "Not Planned"
   }
  },
  {
   "type": "Feature",
   "geometry": {
    "type": "Point",
    "coordinates": [
     117.78279312,
     -22.67905897
    ]
   },
   "properties": {
    "name": "22 ALLAMBI WAY TOM PRICE 6751",
    "locID": "LOC000110219065",
    "tech": "FTTN",
    "upgrade": "NULL_NA",
    "gnaf_pid": "GAWA_718569164",
    "tech_change_status": "Not Planned"
   }
  },
  {
   "type": "Feature",
   "geometry": {
    "type": "Point",
    "coordinates": [
     117.78252939,
     -22.6790169
    ]
   },
   "properties": {
    "name": "24 ALLAMBI WAY TOM PRICE 6751",
    "locID": "LOC000109015177",
    "tech": "FTTN",
    "upgrade": "NULL_NA",
    "gnaf_pid": "GAWA_718569165",
    "tech_change_status": "Not Planned"
   }
  },
  {
   "type": "Feature",
   "geometry": {
    "type": "Point",
    "coordinates": [
     117.7822656,
     -22.67897482
    ]
   },
   "properties": {
    "name": "26 ALLAMBI WAY TOM PRICE 6751",
    "locID": "LOC000109305566",
    "tech": "FTTN",
    "upgrade": "NULL_NA",
    "gnaf_pid": "GAWA_718569166",
    "tech_change_status": "Not Planned"
   }
  },
  {
   "type": "Feature",
   "geometry": {
    "type": "Point",
    "coordinates": [
     117.7819502,
     -22.67893432
    ]
   },
   "properties": {
    "name": "28 ALLAMBI WAY TOM PRICE 6751",
    "locID": "LOC000107605289",
    "tech": "FTTN",
    "upgrade": "NULL_NA",
    "gnaf_pid": "GAWA_718569167",
    "tech_change_status": "Not Planned"
   }
  },
  {
   "type": "Feature",
   "geometry": {
    "type": "Point",
    "coordinates": [
     117.78170398,
     -22.67891206
    ]
   },
   "properties": {
    "name": "30 ALLAMBI WAY TOM PRICE 6751",
    "locID": "LOC000108514198",
    "tech": "FTTN",
    "upgrade": "NULL_NA",
    "gnaf_pid": "GAWA_718569169",
    "tech_change_status": "Not Planned"
   }
  },
  {
   "type": "Feature",
   "geometry": {
    "type": "Point",
    "coordinates": [
     117.78170122,
     -22.67918879
    ]
   },
   "properties": {
    "name": "32 ALLAMBI WAY TOM PRICE 6751",
    "locID": "LOC000107614766",
    "tech": "FTTN",
    "upgrade": "NULL_NA",
    "gnaf_pid": "GAWA_718569171",
    "tech_change_status": "Not Planned"
   }
  },
  {
   "type": "Feature",
   "geometry": {
    "type": "Point",
    "coordinates": [
     117.78132124,
     -22.67960927
    ]
   },
   "properties": {
    "name": "35 ALLAMBI WAY TOM PRICE 6751",
    "locID": "LOC000107940359",
    "tech": "FTTN",
    "upgrade": "NULL_NA",
    "gnaf_pid": "GAWA_718569173",
    "tech_change_status": "Not Planned"
   }
  },
  {
   "type": "Feature",
   "geometry": {
    "type": "Point",
    "coordinates": [
     117.78161811,
     -22.67964908
    ]
   },
   "properties": {
    "name": "37 ALLAMBI WAY TOM PRICE 6751",
    "locID": "LOC000110184556",
    "tech": "FTTN",
    "upgrade": "NULL_NA",
    "gnaf_pid": "GAWA_718569175",
    "tech_change_status": "Not Planned"
   }
  },
  {
   "type": "Feature",
   "geometry": {
    "type": "Point",
    "coordinates": [
     117.78193002,
     -22.67970873
    ]
   },
   "properties": {
    "name": "39 ALLAMBI WAY TOM PRICE 6751",
    "locID": "LOC000110150586",
    "tech": "FTTN",
    "upgrade": "NULL_NA",
    "gnaf_pid": "GAWA_718569176",
    "tech_change_status": "Not Planned"
   }
  },
  {
   "type": "Feature",
   "geometry": {
    "type": "Point",
    "coordinates": [
     117.78289684,
     -22.67885394
    ]
   },
   "properties": {
    "name": "4 ALLAMBI WAY TOM PRICE 6751",
    "locID": "LOC100056144488",
    "tech": "FTTN",
    "upgrade": "NULL_NA",
    "gnaf_pid": "GAWA_718569177",
    "tech_change_status": "Not Planned"
   }
  },
  {
   "type": "Feature",
   "geometry": {
    "type": "Point",
    "coordinates": [
     117.78289684,
     -22.67885394
    ]
   },
   "properties": {
    "name": "6 ALLAMBI WAY TOM PRICE 6751",
    "locID": "LOC100056144490",
    "tech": "FTTN",
    "upgrade": "NULL_NA",
    "gnaf_pid": "GAWA_718569178",
    "tech_change_status": "Not Planned"
   }
  },
  {
   "type": "Feature",
   "geometry": {
    "type": "Point",
    "coordinates": [
     117.78289684,
     -22.67885394
    ]
   },
   "properties": {
    "name": "8 ALLAMBI WAY TOM PRICE 6751",
    "locID": "LOC100056144501",
    "tech": "FTTN",
    "upgrade": "NULL_NA",
    "gnaf_pid": "GAWA_718569179",
    "tech_change_status": "Not Planned"
   }
  },
  {
   "type": "Feature",
   "geometry": {
    "type": "Point",
    "coordinates": [
     117.78888699,
     -22.68600492
    ]
   },
   "properties": {
    "name": "UNIT 3, 909 PILKENA STREET TOM PRICE 6751",
    "locID": "LOC000169803266",
    "tech": "FTTN",
    "upgrade": "NULL_NA",
    "gnaf_pid": "GAWA_718570052",
    "tech_change_status": "Not Planned"
   }
  },
  {
   "type": "Feature",
   "geometry": {
    "type": "Point",
    "coordinates": [
     117.78888699,
     -22.68600492
    ]
   },
   "properties": {
    "name": "UNIT 4, 909 PILKENA STREET TOM PRICE 6751",
    "locID": "LOC000169803278",
    "tech": "FTTN",
    "upgrade": "NULL_NA",
    "gnaf_pid": "GAWA_718570053",
    "tech_change_status": "Not Planned"
   }
  },
  {
   "type": "Feature",
   "geometry": {
    "type": "Point",
    "coordinates": [
     117.80072069,
     -22.69394076
    ]
   },
   "properties": {
    "name": "16B PRIVET STREET TOM PRICE 6751",
    "locID": "LOC000177409426",
    "tech": "FTTN",
    "upgrade": "NULL_NA",
    "gnaf_pid": "GAWA_718570069",
    "tech_change_status": "Not Planned"
   }
  },
  {
   "type": "Feature",
   "geometry": {
    "type": "Point",
    "coordinates": [
     117.78377183,
     -22.67871601
    ]
   },
   "properties": {
    "name": "17 ALLAMBI WAY TOM PRICE 6751",
    "locID": "LOC000109490803",
    "tech": "FTTN",
    "upgrade": "NULL_NA",
    "gnaf_pid": "GAWA_718590066",
    "tech_change_status": "Not Planned"
   }
  },
  {
   "type": "Feature",
   "geometry": {
    "type": "Point",
    "coordinates": [
     117.78329679,
     -22.67863794
    ]
   },
   "properties": {
    "name": "19 ALLAMBI WAY TOM PRICE 6751",
    "locID": "LOC000109709999",
    "tech": "FTTN",
    "upgrade": "NULL_NA",
    "gnaf_pid": "GAWA_718590067",
    "tech_change_status": "Not Planned"
   }
  },
  {
   "type": "Feature",
   "geometry": {
    "type": "Point",
    "coordinates": [
     117.78281866,
     -22.67854497
    ]
   },
   "properties": {
    "name": "21 ALLAMBI WAY TOM PRICE 6751",
    "locID": "LOC000108598520",
    "tech": "FTTN",
    "upgrade": "NULL_NA",
    "gnaf_pid": "GAWA_718590068",
    "tech_change_status": "Not Planned"
   }
  },
  {
   "type": "Feature",
   "geometry": {
    "type": "Point",
    "coordinates": [
     117.78235787,
     -22.6784743
    ]
   },
   "properties": {
    "name": "23 ALLAMBI WAY TOM PRICE 6751",
    "locID": "LOC000108060353",
    "tech": "FTTN",
    "upgrade": "NULL_NA",
    "gnaf_pid": "GAWA_718590069",
    "tech_change_status": "Not Planned"
   }
  },
  {
   "type": "Feature",
   "geometry": {
    "type": "Point",
    "coordinates": [
     117.78178316,
     -22.6783926
    ]
   },
   "properties": {
    "name": "25 ALLAMBI WAY TOM PRICE 6751",
    "locID": "LOC000108472028",
    "tech": "FTTN",
    "upgrade": "NULL_NA",
    "gnaf_pid": "GAWA_718590070",
    "tech_change_status": "Not Planned"
   }
  },
  {
   "type": "Feature",
   "geometry": {
    "type": "Point",
    "coordinates": [
     117.78888699,
     -22.68600492
    ]
   },
   "properties": {
    "name": "909 PILKENA STREET TOM PRICE 6751",
    "locID": "LOC000169803232",
    "tech": "FTTN",
    "upgrade": "NULL_NA",
    "gnaf_pid": "GAWA_718590081",
    "tech_change_status": "Not Planned"
   }
  },
  {
   "type": "Feature",
   "geometry": {
    "type": "Point",
    "coordinates": [
     117.79446915,
     -22.68230193
    ]
   },
   "properties": {
    "name": "UNIT 1, 933 WARARA STREET TOM PRICE 6751",
    "locID": "LOC000169839390",
    "tech": "FTTN",
    "upgrade": "NULL_NA",
    "gnaf_pid": "GAWA_718632940",
    "tech_change_status": "Not Planned"
   }
  },
  {
   "type": "Feature",
   "geometry": {
    "type": "Point",
    "coordinates": [
     117.79446915,
     -22.68230193
    ]
   },
   "properties": {
    "name": "UNIT 2, 933 WARARA STREET TOM PRICE 6751",
    "locID": "LOC000169839405",
    "tech": "FTTN",
    "upgrade": "NULL_NA",
    "gnaf_pid": "GAWA_718632941",
    "tech_change_status": "Not Planned"
   }
  },
  {
   "type": "Feature",
   "geometry": {
    "type": "Point",
    "coordinates": [
     117.79446915,
     -22.68230193
    ]
   },
   "properties": {
    "name": "UNIT 3, 933 WARARA STREET TOM PRICE 6751",
    "locID": "LOC000169839414",
    "tech": "FTTN",
    "upgrade": "NULL_NA",
    "gnaf_pid": "GAWA_718632942",
    "tech_change_status": "Not Planned"
   }
  },
  {
   "type": "Feature",
   "geometry": {
    "type": "Point",
    "coordinates": [
     117.78515298,
     -22.67642546
    ]
   },
   "properties": {
    "name": "20 COGELUP WAY TOM PRICE 6751",
    "locID": "LOC000108126743",
    "tech": "FTTN",
    "upgrade": "NULL_NA",
    "gnaf_pid": "GAWA_718633549",
    "tech_change_status": "Not Planned"
   }
  },
  {
   "type": "Feature",
   "geometry": {
    "type": "Point",
    "coordinates": [
     117.79446915,
     -22.68230193
    ]
   },
   "properties": {
    "name": "933 WARARA STREET TOM PRICE 6751",
    "locID": "LOC000169839414",
    "tech": "FTTN",
    "upgrade": "NULL_NA",
    "gnaf_pid": "GAWA_718635010",
    "tech_change_status": "Not Planned"
   }
  },
  {
   "type": "Feature",
   "geometry": {
    "type": "Point",
    "coordinates": [
     117.78998819,
     -22.68565665
    ]
   },
   "properties": {
    "name": "914 YARUGA STREET TOM PRICE 6751",
    "locID": "LOC000186496125",
    "tech": "FTTN",
    "upgrade": "NULL_NA",
    "gnaf_pid": "GAWA_718641259",
    "tech_change_status": "Not Planned"
   }
  },
  {
   "type": "Feature",
   "geometry": {
    "type": "Point",
    "coordinates": [
     117.79000252,
     -22.68544247
    ]
   },
   "properties": {
    "name": "915 YARUGA STREET TOM PRICE 6751",
    "locID": "LOC000169801627",
    "tech": "FTTN",
    "upgrade": "NULL_NA",
    "gnaf_pid": "GAWA_718641260",
    "tech_change_status": "Not Planned"
   }
  },
  {
   "type": "Feature",
   "geometry": {
    "type": "Point",
    "coordinates": [
     117.78999679,
     -22.68511201
    ]
   },
   "properties": {
    "name": "917 YARUGA STREET TOM PRICE 6751",
    "locID": "LOC000169801615",
    "tech": "FTTN",
    "upgrade": "NULL_NA",
    "gnaf_pid": "GAWA_718641262",
    "tech_change_status": "Not Planned"
   }
  },
  {
   "type": "Feature",
   "geometry": {
    "type": "Point",
    "coordinates": [
     117.78999393,
     -22.68494679
    ]
   },
   "properties": {
    "name": "918 YARUGA STREET TOM PRICE 6751",
    "locID": "LOC000169801604",
    "tech": "FTTN",
    "upgrade": "NULL_NA",
    "gnaf_pid": "GAWA_718641263",
    "tech_change_status": "Not Planned"
   }
  },
  {
   "type": "Feature",
   "geometry": {
    "type": "Point",
    "coordinates": [
     117.78998821,
     -22.68461634
    ]
   },
   "properties": {
    "name": "920 YARUGA STREET TOM PRICE 6751",
    "locID": "LOC000184156972",
    "tech": "FTTN",
    "upgrade": "NULL_NA",
    "gnaf_pid": "GAWA_718641265",
    "tech_change_status": "Not Planned"
   }
  },
  {
   "type": "Feature",
   "geometry": {
    "type": "Point",
    "coordinates": [
     117.78998536,
     -22.68445108
    ]
   },
   "properties": {
    "name": "921 YARUGA STREET TOM PRICE 6751",
    "locID": "LOC000180194459",
    "tech": "FTTN",
    "upgrade": "NULL_NA",
    "gnaf_pid": "GAWA_718641266",
    "tech_change_status": "Not Planned"
   }
  },
  {
   "type": "Feature",
   "geometry": {
    "type": "Point",
    "coordinates": [
     117.78464165,
     -22.67639592
    ]
   },
   "properties": {
    "name": "16 COGELUP WAY TOM PRICE 6751",
    "locID": "LOC000109635105",
    "tech": "FTTN",
    "upgrade": "NULL_NA",
    "gnaf_pid": "GAWA_718681149",
    "tech_change_status": "Not Planned"
   }
  },
  {
   "type": "Feature",
   "geometry": {
    "type": "Point",
    "coordinates": [
     117.77695911,
     -22.67896351
    ]
   },
   "properties": {
    "name": "6 MARRINUP WAY TOM PRICE 6751",
    "locID": "LOC000108290732",
    "tech": "FTTN",
    "upgrade": "NULL_NA",
    "gnaf_pid": "GAWA_718681564",
    "tech_change_status": "Not Planned"
   }
  },
  {
   "type": "Feature",
   "geometry": {
    "type": "Point",
    "coordinates": [
     117.79462516,
     -22.68494398
    ]
   },
   "properties": {
    "name": "UNIT 2, 30 MUNGARRA STREET TOM PRICE 6751",
    "locID": "LOC000108136619",
    "tech": "FTTN",
    "upgrade": "NULL_NA",
    "gnaf_pid": "GAWA_718681591",
    "tech_change_status": "Not Planned"
   }
  },
  {
   "type": "Feature",
   "geometry": {
    "type": "Point",
    "coordinates": [
     117.79462516,
     -22.68494398
    ]
   },
   "properties": {
    "name": "30 MUNGARRA STREET TOM PRICE 6751",
    "locID": "LOC000108136626",
    "tech": "FTTN",
    "upgrade": "NULL_NA",
    "gnaf_pid": "GAWA_718709160",
    "tech_change_status": "Not Planned"
   }
  },
  {
   "type": "Feature",
   "geometry": {
    "type": "Point",
    "coordinates": [
     117.78540637,
     -22.67643579
    ]
   },
   "properties": {
    "name": "22 COGELUP WAY TOM PRICE 6751",
    "locID": "LOC000109780731",
    "tech": "FTTN",
    "upgrade": "NULL_NA",
    "gnaf_pid": "GAWA_718735295",
    "tech_change_status": "Not Planned"
   }
  },
  {
   "type": "Feature",
   "geometry": {
    "type": "Point",
    "coordinates": [
     117.77746541,
     -22.6790699
    ]
   },
   "properties": {
    "name": "10 MARRINUP WAY TOM PRICE 6751",
    "locID": "LOC000107923637",
    "tech": "FTTN",
    "upgrade": "NULL_NA",
    "gnaf_pid": "GAWA_718761151",
    "tech_change_status": "Not Planned"
   }
  },
  {
   "type": "Feature",
   "geometry": {
    "type": "Point",
    "coordinates": [
     117.77714228,
     -22.67829033
    ]
   },
   "properties": {
    "name": "11 MARRINUP WAY TOM PRICE 6751",
    "locID": "LOC000109577879",
    "tech": "FTTN",
    "upgrade": "NULL_NA",
    "gnaf_pid": "GAWA_718761152",
    "tech_change_status": "Not Planned"
   }
  },
  {
   "type": "Feature",
   "geometry": {
    "type": "Point",
    "coordinates": [
     117.7768487,
     -22.67819744
    ]
   },
   "properties": {
    "name": "13 MARRINUP WAY TOM PRICE 6751",
    "locID": "LOC000107982900",
    "tech": "FTTN",
    "upgrade": "NULL_NA",
    "gnaf_pid": "GAWA_718761153",
    "tech_change_status": "Not Planned"
   }
  },
  {
   "type": "Feature",
   "geometry": {
    "type": "Point",
    "coordinates": [
     117.77709242,
     -22.67804471
    ]
   },
   "properties": {
    "name": "16 MARRINUP WAY TOM PRICE 6751",
    "locID": "LOC000108527703",
    "tech": "FTTN",
    "upgrade": "NULL_NA",
    "gnaf_pid": "GAWA_718761154",
    "tech_change_status": "Not Planned"
   }
  },
  {
   "type": "Feature",
   "geometry": {
    "type": "Point",
    "coordinates": [
     117.77709242,
     -22.67804471
    ]
   },
   "properties": {
    "name": "1 MARRINUP WAY TOM PRICE 6751",
    "locID": "LOC000107982900",
    "tech": "FTTN",
    "upgrade": "NULL_NA",
    "gnaf_pid": "GAWA_718761155",
    "tech_change_status": "Not Planned"
   }
  },
  {
   "type": "Feature",
   "geometry": {
    "type": "Point",
    "coordinates": [
     117.77693604,
     -22.67851431
    ]
   },
   "properties": {
    "name": "3 MARRINUP WAY TOM PRICE 6751",
    "locID": "LOC000108659329",
    "tech": "FTTN",
    "upgrade": "NULL_NA",
    "gnaf_pid": "GAWA_718761156",
    "tech_change_status": "Not Planned"
   }
  },
  {
   "type": "Feature",
   "geometry": {
    "type": "Point",
    "coordinates": [
     117.77720586,
     -22.67901536
    ]
   },
   "properties": {
    "name": "8 MARRINUP WAY TOM PRICE 6751",
    "locID": "LOC000109420246",
    "tech": "FTTN",
    "upgrade": "NULL_NA",
    "gnaf_pid": "GAWA_718761158",
    "tech_change_status": "Not Planned"
   }
  },
  {
   "type": "Feature",
   "geometry": {
    "type": "Point",
    "coordinates": [
     117.80064811,
     -22.69799776
    ]
   },
   "properties": {
    "name": "26 WEELAMURRA COURT TOM PRICE 6751",
    "locID": "LOC000094502759",
    "tech": "FTTN",
    "upgrade": "NULL_NA",
    "gnaf_pid": "GAWA_718791040",
    "tech_change_status": "Not Planned"
   }
  },
  {
   "type": "Feature",
   "geometry": {
    "type": "Point",
    "coordinates": [
     117.79501514,
     -22.68211319
    ]
   },
   "properties": {
    "name": "UNIT 10, 327 WARARA STREET TOM PRICE 6751",
    "locID": "LOC000184513450",
    "tech": "FTTN",
    "upgrade": "NULL_NA",
    "gnaf_pid": "GAWA_718830118",
    "tech_change_status": "Not Planned"
   }
  },
  {
   "type": "Feature",
   "geometry": {
    "type": "Point",
    "coordinates": [
     117.79501514,
     -22.68211319
    ]
   },
   "properties": {
    "name": "UNIT 11, 327 WARARA STREET TOM PRICE 6751",
    "locID": "LOC100075466054",
    "tech": "FTTN",
    "upgrade": "NULL_NA",
    "gnaf_pid": "GAWA_718830119",
    "tech_change_status": "Not Planned"
   }
  },
  {
   "type": "Feature",
   "geometry": {
    "type": "Point",
    "coordinates": [
     117.79501514,
     -22.68211319
    ]
   },
   "properties": {
    "name": "UNIT 12, 327 WARARA STREET TOM PRICE 6751",
    "locID": "LOC000176619890",
    "tech": "FTTN",
    "upgrade": "NULL_NA",
    "gnaf_pid": "GAWA_718830120",
    "tech_change_status": "Not Planned"
   }
  },
  {
   "type": "Feature",
   "geometry": {
    "type": "Point",
    "coordinates": [
     117.79501514,
     -22.68211319
    ]
   },
   "properties": {
    "name": "UNIT 1, 327 WARARA STREET TOM PRICE 6751",
    "locID": "LOC100075466049",
    "tech": "FTTN",
    "upgrade": "NULL_NA",
    "gnaf_pid": "GAWA_718830123",
    "tech_change_status": "Not Planned"
   }
  },
  {
   "type": "Feature",
   "geometry": {
    "type": "Point",
    "coordinates": [
     117.79501514,
     -22.68211319
    ]
   },
   "properties": {
    "name": "UNIT 2, 327 WARARA STREET TOM PRICE 6751",
    "locID": "LOC000183312497",
    "tech": "FTTN",
    "upgrade": "NULL_NA",
    "gnaf_pid": "GAWA_718830124",
    "tech_change_status": "Not Planned"
   }
  },
  {
   "type": "Feature",
   "geometry": {
    "type": "Point",
    "coordinates": [
     117.79501514,
     -22.68211319
    ]
   },
   "properties": {
    "name": "UNIT 3, 327 WARARA STREET TOM PRICE 6751",
    "locID": "LOC100075466049",
    "tech": "FTTN",
    "upgrade": "NULL_NA",
    "gnaf_pid": "GAWA_718830125",
    "tech_change_status": "Not Planned"
   }
  },
  {
   "type": "Feature",
   "geometry": {
    "type": "Point",
    "coordinates": [
     117.79501514,
     -22.68211319
    ]
   },
   "properties": {
    "name": "UNIT 4, 327 WARARA STREET TOM PRICE 6751",
    "locID": "LOC000183004134",
    "tech": "FTTN",
    "upgrade": "NULL_NA",
    "gnaf_pid": "GAWA_718830126",
    "tech_change_status": "Not Planned"
   }
  },
  {
   "type": "Feature",
   "geometry": {
    "type": "Point",
    "coordinates": [
     117.79501514,
     -22.68211319
    ]
   },
   "properties": {
    "name": "UNIT 5, 327 WARARA STREET TOM PRICE 6751",
    "locID": "LOC100073823728",
    "tech": "FTTN",
    "upgrade": "NULL_NA",
    "gnaf_pid": "GAWA_718830127",
    "tech_change_status": "Not Planned"
   }
  },
  {
   "type": "Feature",
   "geometry": {
    "type": "Point",
    "coordinates": [
     117.79501514,
     -22.68211319
    ]
   },
   "properties": {
    "name": "UNIT 6, 327 WARARA STREET TOM PRICE 6751",
    "locID": "LOC100075466049",
    "tech": "FTTN",
    "upgrade": "NULL_NA",
    "gnaf_pid": "GAWA_718830128",
    "tech_change_status": "Not Planned"
   }
  },
  {
   "type": "Feature",
   "geometry": {
    "type": "Point",
    "coordinates": [
     117.79501514,
     -22.68211319
    ]
   },
   "properties": {
    "name": "UNIT 7, 327 WARARA STREET TOM PRICE 6751",
    "locID": "LOC100073823700",
    "tech": "FTTN",
    "upgrade": "NULL_NA",
    "gnaf_pid": "GAWA_718830129",
    "tech_change_status": "Not Planned"
   }
  },
  {
   "type": "Feature",
   "geometry": {
    "type": "Point",
    "coordinates": [
     117.79501514,
     -22.68211319
    ]
   },
   "properties": {
    "name": "UNIT 8, 327 WARARA STREET TOM PRICE 6751",
    "locID": "LOC100073823716",
    "tech": "FTTN",
    "upgrade": "NULL_NA",
    "gnaf_pid": "GAWA_718830130",
    "tech_change_status": "Not Planned"
   }
  },
  {
   "type": "Feature",
   "geometry": {
    "type": "Point",
    "coordinates": [
     117.79501514,
     -22.68211319
    ]
   },
   "properties": {
    "name": "UNIT 9, 327 WARARA STREET TOM PRICE 6751",
    "locID": "LOC100075466031",
    "tech": "FTTN",
    "upgrade": "NULL_NA",
    "gnaf_pid": "GAWA_718830131",
    "tech_change_status": "Not Planned"
   }
  },
  {
   "type": "Feature",
   "geometry": {
    "type": "Point",
    "coordinates": [
     117.79501514,
     -22.68211319
    ]
   },
   "properties": {
    "name": "327 WARARA STREET TOM PRICE 6751",
    "locID": "LOC100075466049",
    "tech": "FTTN",
    "upgrade": "NULL_NA",
    "gnaf_pid": "GAWA_718856511",
    "tech_change_status": "Not Planned"
   }
  },
  {
   "type": "Feature",
   "geometry": {
    "type": "Point",
    "coordinates": [
     117.79438003,
     -22.69305795
    ]
   },
   "properties": {
    "name": "88 OLEANDER STREET TOM PRICE 6751",
    "locID": "LOC000108075149",
    "tech": "FTTN",
    "upgrade": "NULL_NA",
    "gnaf_pid": "GAWA_718876120",
    "tech_change_status": "Not Planned"
   }
  },
  {
   "type": "Feature",
   "geometry": {
    "type": "Point",
    "coordinates": [
     117.7918086,
     -22.68982221
    ]
   },
   "properties": {
    "name": "524 ACACIA STREET TOM PRICE 6751",
    "locID": "LOC000108684499",
    "tech": "FTTN",
    "upgrade": "NULL_NA",
    "gnaf_pid": "GAWA_718910413",
    "tech_change_status": "Not Planned"
   }
  },
  {
   "type": "Feature",
   "geometry": {
    "type": "Point",
    "coordinates": [
     117.79203034,
     -22.68976934
    ]
   },
   "properties": {
    "name": "525 ACACIA STREET TOM PRICE 6751",
    "locID": "LOC000109155423",
    "tech": "FTTN",
    "upgrade": "NULL_NA",
    "gnaf_pid": "GAWA_718910414",
    "tech_change_status": "Not Planned"
   }
  },
  {
   "type": "Feature",
   "geometry": {
    "type": "Point",
    "coordinates": [
     117.79231535,
     -22.689704
    ]
   },
   "properties": {
    "name": "526 ACACIA STREET TOM PRICE 6751",
    "locID": "LOC000110050687",
    "tech": "FTTN",
    "upgrade": "NULL_NA",
    "gnaf_pid": "GAWA_718910415",
    "tech_change_status": "Not Planned"
   }
  },
  {
   "type": "Feature",
   "geometry": {
    "type": "Point",
    "coordinates": [
     117.79254636,
     -22.6896725
    ]
   },
   "properties": {
    "name": "527 ACACIA STREET TOM PRICE 6751",
    "locID": "LOC000108152692",
    "tech": "FTTN",
    "upgrade": "NULL_NA",
    "gnaf_pid": "GAWA_718910416",
    "tech_change_status": "Not Planned"
   }
  },
  {
   "type": "Feature",
   "geometry": {
    "type": "Point",
    "coordinates": [
     117.79276902,
     -22.68965116
    ]
   },
   "properties": {
    "name": "528 ACACIA STREET TOM PRICE 6751",
    "locID": "LOC000109689985",
    "tech": "FTTN",
    "upgrade": "NULL_NA",
    "gnaf_pid": "GAWA_718910417",
    "tech_change_status": "Not Planned"
   }
  },
  {
   "type": "Feature",
   "geometry": {
    "type": "Point",
    "coordinates": [
     117.79299092,
     -22.68968265
    ]
   },
   "properties": {
    "name": "529 ACACIA STREET TOM PRICE 6751",
    "locID": "LOC000108499821",
    "tech": "FTTN",
    "upgrade": "NULL_NA",
    "gnaf_pid": "GAWA_718910418",
    "tech_change_status": "Not Planned"
   }
  },
  {
   "type": "Feature",
   "geometry": {
    "type": "Point",
    "coordinates": [
     117.79321558,
     -22.68973309
    ]
   },
   "properties": {
    "name": "530 ACACIA STREET TOM PRICE 6751",
    "locID": "LOC000109751111",
    "tech": "FTTN",
    "upgrade": "NULL_NA",
    "gnaf_pid": "GAWA_718910419",
    "tech_change_status": "Not Planned"
   }
  },
  {
   "type": "Feature",
   "geometry": {
    "type": "Point",
    "coordinates": [
     117.79343702,
     -22.68977291
    ]
   },
   "properties": {
    "name": "531 ACACIA STREET TOM PRICE 6751",
    "locID": "LOC000108556454",
    "tech": "FTTN",
    "upgrade": "NULL_NA",
    "gnaf_pid": "GAWA_718910420",
    "tech_change_status": "Not Planned"
   }
  },
  {
   "type": "Feature",
   "geometry": {
    "type": "Point",
    "coordinates": [
     117.7936777,
     -22.6898159
    ]
   },
   "properties": {
    "name": "532 ACACIA STREET TOM PRICE 6751",
    "locID": "LOC000109596419",
    "tech": "FTTN",
    "upgrade": "NULL_NA",
    "gnaf_pid": "GAWA_718910421",
    "tech_change_status": "Not Planned"
   }
  },
  {
   "type": "Feature",
   "geometry": {
    "type": "Point",
    "coordinates": [
     117.80012189,
     -22.69667695
    ]
   },
   "properties": {
    "name": "394 ACALYPHA STREET TOM PRICE 6751",
    "locID": "LOC000108032776",
    "tech": "FTTN",
    "upgrade": "NULL_NA",
    "gnaf_pid": "GAWA_718910424",
    "tech_change_status": "Not Planned"
   }
  },
  {
   "type": "Feature",
   "geometry": {
    "type": "Point",
    "coordinates": [
     117.80034882,
     -22.69667262
    ]
   },
   "properties": {
    "name": "395 ACALYPHA STREET TOM PRICE 6751",
    "locID": "LOC000109454400",
    "tech": "FTTN",
    "upgrade": "NULL_NA",
    "gnaf_pid": "GAWA_718910425",
    "tech_change_status": "Not Planned"
   }
  },
  {
   "type": "Feature",
   "geometry": {
    "type": "Point",
    "coordinates": [
     117.80059799,
     -22.69666891
    ]
   },
   "properties": {
    "name": "396 ACALYPHA STREET TOM PRICE 6751",
    "locID": "LOC000109019345",
    "tech": "FTTN",
    "upgrade": "NULL_NA",
    "gnaf_pid": "GAWA_718910426",
    "tech_change_status": "Not Planned"
   }
  },
  {
   "type": "Feature",
   "geometry": {
    "type": "Point",
    "coordinates": [
     117.80092173,
     -22.69666081
    ]
   },
   "properties": {
    "name": "397 ACALYPHA STREET TOM PRICE 6751",
    "locID": "LOC000108755319",
    "tech": "FTTN",
    "upgrade": "NULL_NA",
    "gnaf_pid": "GAWA_718910427",
    "tech_change_status": "Not Planned"
   }
  },
  {
   "type": "Feature",
   "geometry": {
    "type": "Point",
    "coordinates": [
     117.80116695,
     -22.6966664
    ]
   },
   "properties": {
    "name": "398 ACALYPHA STREET TOM PRICE 6751",
    "locID": "LOC000109048014",
    "tech": "FTTN",
    "upgrade": "NULL_NA",
    "gnaf_pid": "GAWA_718910428",
    "tech_change_status": "Not Planned"
   }
  },
  {
   "type": "Feature",
   "geometry": {
    "type": "Point",
    "coordinates": [
     117.80139826,
     -22.69667947
    ]
   },
   "properties": {
    "name": "399 ACALYPHA STREET TOM PRICE 6751",
    "locID": "LOC000108828837",
    "tech": "FTTN",
    "upgrade": "NULL_NA",
    "gnaf_pid": "GAWA_718910429",
    "tech_change_status": "Not Planned"
   }
  },
  {
   "type": "Feature",
   "geometry": {
    "type": "Point",
    "coordinates": [
     117.80163103,
     -22.69670106
    ]
   },
   "properties": {
    "name": "400 ACALYPHA STREET TOM PRICE 6751",
    "locID": "LOC000108943389",
    "tech": "FTTN",
    "upgrade": "NULL_NA",
    "gnaf_pid": "GAWA_718910430",
    "tech_change_status": "Not Planned"
   }
  },
  {
   "type": "Feature",
   "geometry": {
    "type": "Point",
    "coordinates": [
     117.80185681,
     -22.69671871
    ]
   },
   "properties": {
    "name": "401 ACALYPHA STREET TOM PRICE 6751",
    "locID": "LOC000108819274",
    "tech": "FTTN",
    "upgrade": "NULL_NA",
    "gnaf_pid": "GAWA_718910431",
    "tech_change_status": "Not Planned"
   }
  },
  {
   "type": "Feature",
   "geometry": {
    "type": "Point",
    "coordinates": [
     117.80208524,
     -22.69673594
    ]
   },
   "properties": {
    "name": "402 ACALYPHA STREET TOM PRICE 6751",
    "locID": "LOC000109488147",
    "tech": "FTTN",
    "upgrade": "NULL_NA",
    "gnaf_pid": "GAWA_718910432",
    "tech_change_status": "Not Planned"
   }
  },
  {
   "type": "Feature",
   "geometry": {
    "type": "Point",
    "coordinates": [
     117.80234715,
     -22.69674859
    ]
   },
   "properties": {
    "name": "403 ACALYPHA STREET TOM PRICE 6751",
    "locID": "LOC000110125558",
    "tech": "FTTN",
    "upgrade": "NULL_NA",
    "gnaf_pid": "GAWA_718910433",
    "tech_change_status": "Not Planned"
   }
  },
  {
   "type": "Feature",
   "geometry": {
    "type": "Point",
    "coordinates": [
     117.80252598,
     -22.69630865
    ]
   },
   "properties": {
    "name": "406 ACALYPHA STREET TOM PRICE 6751",
    "locID": "LOC000109596529",
    "tech": "FTTN",
    "upgrade": "NULL_NA",
    "gnaf_pid": "GAWA_718910434",
    "tech_change_status": "Not Planned"
   }
  },
  {
   "type": "Feature",
   "geometry": {
    "type": "Point",
    "coordinates": [
     117.80226917,
     -22.6962719
    ]
   },
   "properties": {
    "name": "407 ACALYPHA STREET TOM PRICE 6751",
    "locID": "LOC000108119736",
    "tech": "FTTN",
    "upgrade": "NULL_NA",
    "gnaf_pid": "GAWA_718910435",
    "tech_change_status": "Not Planned"
   }
  },
  {
   "type": "Feature",
   "geometry": {
    "type": "Point",
    "coordinates": [
     117.8020244,
     -22.6962476
    ]
   },
   "properties": {
    "name": "408 ACALYPHA STREET TOM PRICE 6751",
    "locID": "LOC000108243639",
    "tech": "FTTN",
    "upgrade": "NULL_NA",
    "gnaf_pid": "GAWA_718910436",
    "tech_change_status": "Not Planned"
   }
  },
  {
   "type": "Feature",
   "geometry": {
    "type": "Point",
    "coordinates": [
     117.80178024,
     -22.69622845
    ]
   },
   "properties": {
    "name": "409 ACALYPHA STREET TOM PRICE 6751",
    "locID": "LOC000109615918",
    "tech": "FTTN",
    "upgrade": "NULL_NA",
    "gnaf_pid": "GAWA_718910437",
    "tech_change_status": "Not Planned"
   }
  },
  {
   "type": "Feature",
   "geometry": {
    "type": "Point",
    "coordinates": [
     117.8015476,
     -22.69620798
    ]
   },
   "properties": {
    "name": "410 ACALYPHA STREET TOM PRICE 6751",
    "locID": "LOC000108936192",
    "tech": "FTTN",
    "upgrade": "NULL_NA",
    "gnaf_pid": "GAWA_718910438",
    "tech_change_status": "Not Planned"
   }
  },
  {
   "type": "Feature",
   "geometry": {
    "type": "Point",
    "coordinates": [
     117.80132641,
     -22.69618954
    ]
   },
   "properties": {
    "name": "411 ACALYPHA STREET TOM PRICE 6751",
    "locID": "LOC000108769201",
    "tech": "FTTN",
    "upgrade": "NULL_NA",
    "gnaf_pid": "GAWA_718910439",
    "tech_change_status": "Not Planned"
   }
  },
  {
   "type": "Feature",
   "geometry": {
    "type": "Point",
    "coordinates": [
     117.80110149,
     -22.69618041
    ]
   },
   "properties": {
    "name": "412 ACALYPHA STREET TOM PRICE 6751",
    "locID": "LOC000109705342",
    "tech": "FTTN",
    "upgrade": "NULL_NA",
    "gnaf_pid": "GAWA_718910440",
    "tech_change_status": "Not Planned"
   }
  },
  {
   "type": "Feature",
   "geometry": {
    "type": "Point",
    "coordinates": [
     117.80087411,
     -22.69618196
    ]
   },
   "properties": {
    "name": "413 ACALYPHA STREET TOM PRICE 6751",
    "locID": "LOC000109310336",
    "tech": "FTTN",
    "upgrade": "NULL_NA",
    "gnaf_pid": "GAWA_718910441",
    "tech_change_status": "Not Planned"
   }
  },
  {
   "type": "Feature",
   "geometry": {
    "type": "Point",
    "coordinates": [
     117.80059267,
     -22.69618816
    ]
   },
   "properties": {
    "name": "414 ACALYPHA STREET TOM PRICE 6751",
    "locID": "LOC000108175342",
    "tech": "FTTN",
    "upgrade": "NULL_NA",
    "gnaf_pid": "GAWA_718910442",
    "tech_change_status": "Not Planned"
   }
  },
  {
   "type": "Feature",
   "geometry": {
    "type": "Point",
    "coordinates": [
     117.80037657,
     -22.69618862
    ]
   },
   "properties": {
    "name": "415 ACALYPHA STREET TOM PRICE 6751",
    "locID": "LOC000107614709",
    "tech": "FTTN",
    "upgrade": "NULL_NA",
    "gnaf_pid": "GAWA_718910443",
    "tech_change_status": "Not Planned"
   }
  },
  {
   "type": "Feature",
   "geometry": {
    "type": "Point",
    "coordinates": [
     117.80013302,
     -22.69618632
    ]
   },
   "properties": {
    "name": "416 ACALYPHA STREET TOM PRICE 6751",
    "locID": "LOC000109231452",
    "tech": "FTTN",
    "upgrade": "NULL_NA",
    "gnaf_pid": "GAWA_718910444",
    "tech_change_status": "Not Planned"
   }
  },
  {
   "type": "Feature",
   "geometry": {
    "type": "Point",
    "coordinates": [
     117.78806735,
     -22.68843173
    ]
   },
   "properties": {
    "name": "539 ALGONA STREET TOM PRICE 6751",
    "locID": "LOC000108767794",
    "tech": "FTTN",
    "upgrade": "NULL_NA",
    "gnaf_pid": "GAWA_718910475",
    "tech_change_status": "Not Planned"
   }
  },
  {
   "type": "Feature",
   "geometry": {
    "type": "Point",
    "coordinates": [
     117.78835175,
     -22.68829992
    ]
   },
   "properties": {
    "name": "540 ALGONA STREET TOM PRICE 6751",
    "locID": "LOC000109497506",
    "tech": "FTTN",
    "upgrade": "NULL_NA",
    "gnaf_pid": "GAWA_718910476",
    "tech_change_status": "Not Planned"
   }
  },
  {
   "type": "Feature",
   "geometry": {
    "type": "Point",
    "coordinates": [
     117.78858099,
     -22.68822395
    ]
   },
   "properties": {
    "name": "541 ALGONA STREET TOM PRICE 6751",
    "locID": "LOC000109311405",
    "tech": "FTTN",
    "upgrade": "NULL_NA",
    "gnaf_pid": "GAWA_718910477",
    "tech_change_status": "Not Planned"
   }
  },
  {
   "type": "Feature",
   "geometry": {
    "type": "Point",
    "coordinates": [
     117.78884625,
     -22.6881502
    ]
   },
   "properties": {
    "name": "542 ALGONA STREET TOM PRICE 6751",
    "locID": "LOC000109346540",
    "tech": "FTTN",
    "upgrade": "NULL_NA",
    "gnaf_pid": "GAWA_718910478",
    "tech_change_status": "Not Planned"
   }
  },