{
 "type": "FeatureCollection",
 "generated": "2024-07-26T19:08:43.612309",
 "suburb": "TONEBRIDGE",
 "features": [
  {
   "type": "Feature",
   "geometry": {
    "type": "Point",
    "coordinates": [
     116.70752056,
     -34.23328908
    ]
   },
   "properties": {
    "name": "LOT 16 BANDICOOT DRIVE TONEBRIDGE 6244",
    "locID": "LOC000108891701",
    "tech": "SATELLITE",
    "upgrade": "NULL_NA",
    "gnaf_pid": "GAWA_162772948",
    "tech_change_status": "Not Planned"
   }
  },
  {
   "type": "Feature",
   "geometry": {
    "type": "Point",
    "coordinates": [
     116.71012898,
     -34.23322198
    ]
   },
   "properties": {
    "name": "LOT 30 CHUDITCH CIRCLE TONEBRIDGE 6244",
    "locID": "LOC000108807601",
    "tech": "SATELLITE",
    "upgrade": "NULL_NA",
    "gnaf_pid": "GAWA_162778519",
    "tech_change_status": "Not Planned"
   }
  },
  {
   "type": "Feature",
   "geometry": {
    "type": "Point",
    "coordinates": [
     116.6940158,
     -34.21961647
    ]
   },
   "properties": {
    "name": "1661 BOYUP BROOK-CRANBROOK ROAD TONEBRIDGE 6244",
    "locID": "LOC000142463618",
    "tech": "SATELLITE",
    "upgrade": "NULL_NA",
    "gnaf_pid": "GAWA_163387181",
    "tech_change_status": "Not Planned"
   }
  },
  {
   "type": "Feature",
   "geometry": {
    "type": "Point",
    "coordinates": [
     116.64955255,
     -34.1990358
    ]
   },
   "properties": {
    "name": "4022 BOYUP BROOK-CRANBROOK ROAD TONEBRIDGE 6244",
    "locID": "LOC000148155830",
    "tech": "SATELLITE",
    "upgrade": "NULL_NA",
    "gnaf_pid": "GAWA_718672342",
    "tech_change_status": "Not Planned"
   }
  },
  {
   "type": "Feature",
   "geometry": {
    "type": "Point",
    "coordinates": [
     116.68372339,
     -34.21958048
    ]
   },
   "properties": {
    "name": "4464 BOYUP BROOK-CRANBROOK ROAD TONEBRIDGE 6244",
    "locID": "LOC000148156059",
    "tech": "SATELLITE",
    "upgrade": "NULL_NA",
    "gnaf_pid": "GAWA_718672343",
    "tech_change_status": "Not Planned"
   }
  },
  {
   "type": "Feature",
   "geometry": {
    "type": "Point",
    "coordinates": [
     116.70730508,
     -34.21792633
    ]
   },
   "properties": {
    "name": "4552 BOYUP BROOK-CRANBROOK ROAD TONEBRIDGE 6244",
    "locID": "LOC000142463618",
    "tech": "SATELLITE",
    "upgrade": "NULL_NA",
    "gnaf_pid": "GAWA_718672344",
    "tech_change_status": "Not Planned"
   }
  },
  {
   "type": "Feature",
   "geometry": {
    "type": "Point",
    "coordinates": [
     116.75867656,
     -34.23602748
    ]
   },
   "properties": {
    "name": "5115 BOYUP BROOK-CRANBROOK ROAD TONEBRIDGE 6244",
    "locID": "LOC000148156426",
    "tech": "SATELLITE",
    "upgrade": "NULL_NA",
    "gnaf_pid": "GAWA_718672346",
    "tech_change_status": "Not Planned"
   }
  },
  {
   "type": "Feature",
   "geometry": {
    "type": "Point",
    "coordinates": [
     116.8311681,
     -34.2085554
    ]
   },
   "properties": {
    "name": "1074 COOTAYERUP ROAD TONEBRIDGE 6244",
    "locID": "LOC100078095841",
    "tech": "SATELLITE",
    "upgrade": "NULL_NA",
    "gnaf_pid": "GAWA_718673454",
    "tech_change_status": "Not Planned"
   }
  },
  {
   "type": "Feature",
   "geometry": {
    "type": "Point",
    "coordinates": [
     116.68648622,
     -34.23784179
    ]
   },
   "properties": {
    "name": "213 DE LANDGRAFFT ROAD TONEBRIDGE 6244",
    "locID": "LOC000148376562",
    "tech": "SATELLITE",
    "upgrade": "NULL_NA",
    "gnaf_pid": "GAWA_718673660",
    "tech_change_status": "Not Planned"
   }
  },
  {
   "type": "Feature",
   "geometry": {
    "type": "Point",
    "coordinates": [
     116.77930805,
     -34.23111742
    ]
   },
   "properties": {
    "name": "328 TERRACE ROAD TONEBRIDGE 6244",
    "locID": "LOC000148382461",
    "tech": "SATELLITE",
    "upgrade": "NULL_NA",
    "gnaf_pid": "GAWA_718679780",
    "tech_change_status": "Not Planned"
   }
  },
  {
   "type": "Feature",
   "geometry": {
    "type": "Point",
    "coordinates": [
     116.77273707,
     -34.2112716
    ]
   },
   "properties": {
    "name": "482 TERRACE ROAD TONEBRIDGE 6244",
    "locID": "LOC000148382474",
    "tech": "SATELLITE",
    "upgrade": "NULL_NA",
    "gnaf_pid": "GAWA_718679781",
    "tech_change_status": "Not Planned"
   }
  },
  {
   "type": "Feature",
   "geometry": {
    "type": "Point",
    "coordinates": [
     116.72228156,
     -34.18404479
    ]
   },
   "properties": {
    "name": "428 TUCKETT ROAD TONEBRIDGE 6244",
    "locID": "LOC000148383165",
    "tech": "SATELLITE",
    "upgrade": "NULL_NA",
    "gnaf_pid": "GAWA_718680009",
    "tech_change_status": "Not Planned"
   }
  },
  {
   "type": "Feature",
   "geometry": {
    "type": "Point",
    "coordinates": [
     116.70810824,
     -34.23392876
    ]
   },
   "properties": {
    "name": "LOT 26 WOYLIE AVENUE TONEBRIDGE 6244",
    "locID": "LOC000158702105",
    "tech": "SATELLITE",
    "upgrade": "NULL_NA",
    "gnaf_pid": "GAWA_718792380",
    "tech_change_status": "Not Planned"
   }
  }
 ]
}