{
 "type": "FeatureCollection",
 "generated": "2024-09-25T06:09:30.118798",
 "suburb": "TOOMPUP",
 "features": [
  {
   "type": "Feature",
   "geometry": {
    "type": "Point",
    "coordinates": [
     118.40479152,
     -34.05162731
    ]
   },
   "properties": {
    "name": "60 GODFREY ROAD TOOMPUP 6336",
    "locID": "LOC000061552131",
    "tech": "NULL",
    "upgrade": "NULL_NA",
    "gnaf_pid": "GAWA_162244819",
    "tech_change_status": "Not Planned"
   }
  },
  {
   "type": "Feature",
   "geometry": {
    "type": "Point",
    "coordinates": [
     118.484886,
     -34.062447
    ]
   },
   "properties": {
    "name": "163 PINNACLE ROAD TOOMPUP 6336",
    "locID": "LOC000037269413",
    "tech": "NULL",
    "upgrade": "NULL_NA",
    "gnaf_pid": "GAWA_162248803",
    "tech_change_status": "Not Planned"
   }
  },
  {
   "type": "Feature",
   "geometry": {
    "type": "Point",
    "coordinates": [
     118.438552,
     -34.02185
    ]
   },
   "properties": {
    "name": "211 TOOMPUP ROAD SOUTH TOOMPUP 6336",
    "locID": "LOC000142453291",
    "tech": "NULL",
    "upgrade": "NULL_NA",
    "gnaf_pid": "GAWA_162250863",
    "tech_change_status": "Not Planned"
   }
  },
  {
   "type": "Feature",
   "geometry": {
    "type": "Point",
    "coordinates": [
     118.440705,
     -34.063942
    ]
   },
   "properties": {
    "name": "706 TOOMPUP ROAD SOUTH TOOMPUP 6336",
    "locID": "LOC000082991878",
    "tech": "SATELLITE",
    "upgrade": "NULL_NA",
    "gnaf_pid": "GAWA_162250864",
    "tech_change_status": "Not Planned"
   }
  },
  {
   "type": "Feature",
   "geometry": {
    "type": "Point",
    "coordinates": [
     118.503696,
     -33.9977
    ]
   },
   "properties": {
    "name": "5474 BOXWOOD HILL-ONGERUP ROAD TOOMPUP 6336",
    "locID": "LOC000084768410",
    "tech": "NULL",
    "upgrade": "NULL_NA",
    "gnaf_pid": "GAWA_162254719",
    "tech_change_status": "Not Planned"
   }
  },
  {
   "type": "Feature",
   "geometry": {
    "type": "Point",
    "coordinates": [
     118.511555,
     -33.977583
    ]
   },
   "properties": {
    "name": "5710 BOXWOOD HILL-ONGERUP ROAD TOOMPUP 6336",
    "locID": "LOC000073122383",
    "tech": "NULL",
    "upgrade": "NULL_NA",
    "gnaf_pid": "GAWA_162254720",
    "tech_change_status": "Not Planned"
   }
  },
  {
   "type": "Feature",
   "geometry": {
    "type": "Point",
    "coordinates": [
     118.287492,
     -34.049063
    ]
   },
   "properties": {
    "name": "12024 CHESTER PASS ROAD TOOMPUP 6336",
    "locID": "LOC000087349298",
    "tech": "SATELLITE",
    "upgrade": "NULL_NA",
    "gnaf_pid": "GAWA_162255000",
    "tech_change_status": "Not Planned"
   }
  },
  {
   "type": "Feature",
   "geometry": {
    "type": "Point",
    "coordinates": [
     118.336789,
     -34.040865
    ]
   },
   "properties": {
    "name": "12596 CHESTER PASS ROAD TOOMPUP 6336",
    "locID": "LOC000097910108",
    "tech": "SATELLITE",
    "upgrade": "NULL_NA",
    "gnaf_pid": "GAWA_162255001",
    "tech_change_status": "Not Planned"
   }
  },
  {
   "type": "Feature",
   "geometry": {
    "type": "Point",
    "coordinates": [
     118.35764303,
     -34.01440352
    ]
   },
   "properties": {
    "name": "3804 GNOWANGERUP-JERRAMUNGUP ROAD TOOMPUP 6336",
    "locID": "LOC000038753277",
    "tech": "NULL",
    "upgrade": "NULL_NA",
    "gnaf_pid": "GAWA_162255657",
    "tech_change_status": "Not Planned"
   }
  },
  {
   "type": "Feature",
   "geometry": {
    "type": "Point",
    "coordinates": [
     118.35764303,
     -34.01440352
    ]
   },
   "properties": {
    "name": "3852 GNOWANGERUP-JERRAMUNGUP ROAD TOOMPUP 6336",
    "locID": "LOC000061446669",
    "tech": "NULL",
    "upgrade": "NULL_NA",
    "gnaf_pid": "GAWA_162255658",
    "tech_change_status": "Not Planned"
   }
  },
  {
   "type": "Feature",
   "geometry": {
    "type": "Point",
    "coordinates": [
     118.40705,
     -34.091619
    ]
   },
   "properties": {
    "name": "750 GODFREY ROAD TOOMPUP 6336",
    "locID": "LOC000033767855",
    "tech": "NULL",
    "upgrade": "NULL_NA",
    "gnaf_pid": "GAWA_162255663",
    "tech_change_status": "Not Planned"
   }
  },
  {
   "type": "Feature",
   "geometry": {
    "type": "Point",
    "coordinates": [
     118.283315,
     -34.08571
    ]
   },
   "properties": {
    "name": "112 LAURIER ROAD TOOMPUP 6336",
    "locID": "LOC000081372607",
    "tech": "NULL",
    "upgrade": "NULL_NA",
    "gnaf_pid": "GAWA_162256338",
    "tech_change_status": "Not Planned"
   }
  },
  {
   "type": "Feature",
   "geometry": {
    "type": "Point",
    "coordinates": [
     118.265115,
     -34.079627
    ]
   },
   "properties": {
    "name": "54 LAURIER ROAD TOOMPUP 6336",
    "locID": "LOC000058107270",
    "tech": "NULL",
    "upgrade": "NULL_NA",
    "gnaf_pid": "GAWA_162256339",
    "tech_change_status": "Not Planned"
   }
  },
  {
   "type": "Feature",
   "geometry": {
    "type": "Point",
    "coordinates": [
     118.458271,
     -34.031424
    ]
   },
   "properties": {
    "name": "290 PENDALUP ROAD TOOMPUP 6336",
    "locID": "LOC000078004750",
    "tech": "SATELLITE",
    "upgrade": "NULL_NA",
    "gnaf_pid": "GAWA_162257085",
    "tech_change_status": "Not Planned"
   }
  },
  {
   "type": "Feature",
   "geometry": {
    "type": "Point",
    "coordinates": [
     118.490148,
     -34.003077
    ]
   },
   "properties": {
    "name": "721 PENDALUP ROAD TOOMPUP 6336",
    "locID": "LOC000063716138",
    "tech": "NULL",
    "upgrade": "NULL_NA",
    "gnaf_pid": "GAWA_162257086",
    "tech_change_status": "Not Planned"
   }
  },
  {
   "type": "Feature",
   "geometry": {
    "type": "Point",
    "coordinates": [
     118.519695,
     -34.069891
    ]
   },
   "properties": {
    "name": "473 PINNACLE ROAD TOOMPUP 6336",
    "locID": "LOC000063448231",
    "tech": "SATELLITE",
    "upgrade": "NULL_NA",
    "gnaf_pid": "GAWA_162257127",
    "tech_change_status": "Not Planned"
   }
  },
  {
   "type": "Feature",
   "geometry": {
    "type": "Point",
    "coordinates": [
     118.48739727,
     -33.97756983
    ]
   },
   "properties": {
    "name": "67 BUNCLE STREET TOOMPUP 6336",
    "locID": "LOC100071990758",
    "tech": "NULL",
    "upgrade": "NULL_NA",
    "gnaf_pid": "GAWA_720047357",
    "tech_change_status": "Not Planned"
   }
  }
 ]
}