{
 "type": "FeatureCollection",
 "generated": "2024-09-06T21:10:29.720246",
 "suburb": "UCARTY",
 "features": [
  {
   "type": "Feature",
   "geometry": {
    "type": "Point",
    "coordinates": [
     116.98983683,
     -31.33766983
    ]
   },
   "properties": {
    "name": "16636 NAMBLING SOUTH ROAD UCARTY 6462",
    "locID": "LOC000031447329",
    "tech": "NULL",
    "upgrade": "NULL_NA",
    "gnaf_pid": "GAWA_161606554",
    "tech_change_status": "Not Planned"
   }
  },
  {
   "type": "Feature",
   "geometry": {
    "type": "Point",
    "coordinates": [
     117.07051215,
     -31.36825412
    ]
   },
   "properties": {
    "name": "101 COUPER ROAD UCARTY 6462",
    "locID": "LOC000108854251",
    "tech": "NULL",
    "upgrade": "NULL_NA",
    "gnaf_pid": "GAWA_162261432",
    "tech_change_status": "Not Planned"
   }
  },
  {
   "type": "Feature",
   "geometry": {
    "type": "Point",
    "coordinates": [
     117.07051215,
     -31.36825412
    ]
   },
   "properties": {
    "name": "71 COUPER ROAD UCARTY 6462",
    "locID": "LOC000044872846",
    "tech": "NULL",
    "upgrade": "NULL_NA",
    "gnaf_pid": "GAWA_162261433",
    "tech_change_status": "Not Planned"
   }
  },
  {
   "type": "Feature",
   "geometry": {
    "type": "Point",
    "coordinates": [
     117.0636549,
     -31.30169687
    ]
   },
   "properties": {
    "name": "1279 DOWERIN-MECKERING ROAD UCARTY 6462",
    "locID": "LOC000057776050",
    "tech": "NULL",
    "upgrade": "NULL_NA",
    "gnaf_pid": "GAWA_162261922",
    "tech_change_status": "Not Planned"
   }
  },
  {
   "type": "Feature",
   "geometry": {
    "type": "Point",
    "coordinates": [
     117.04562547,
     -31.33655638
    ]
   },
   "properties": {
    "name": "1556 DOWERIN-MECKERING ROAD UCARTY 6462",
    "locID": "LOC000102360129",
    "tech": "NULL",
    "upgrade": "NULL_NA",
    "gnaf_pid": "GAWA_162261923",
    "tech_change_status": "Not Planned"
   }
  },
  {
   "type": "Feature",
   "geometry": {
    "type": "Point",
    "coordinates": [
     117.08722133,
     -31.35658305
    ]
   },
   "properties": {
    "name": "2273 DOWERIN-MECKERING ROAD UCARTY 6462",
    "locID": "LOC000038742011",
    "tech": "SATELLITE",
    "upgrade": "NULL_NA",
    "gnaf_pid": "GAWA_162261924",
    "tech_change_status": "Not Planned"
   }
  },
  {
   "type": "Feature",
   "geometry": {
    "type": "Point",
    "coordinates": [
     117.028005,
     -31.37105
    ]
   },
   "properties": {
    "name": "52 EATON SAND HOLE ROAD UCARTY 6462",
    "locID": "LOC000093856314",
    "tech": "SATELLITE",
    "upgrade": "NULL_NA",
    "gnaf_pid": "GAWA_162262060",
    "tech_change_status": "Not Planned"
   }
  },
  {
   "type": "Feature",
   "geometry": {
    "type": "Point",
    "coordinates": [
     116.95745435,
     -31.23044461
    ]
   },
   "properties": {
    "name": "1267 GOOMALLING-WYALKATCHEM ROAD UCARTY 6462",
    "locID": "LOC000143025770",
    "tech": "NULL",
    "upgrade": "NULL_NA",
    "gnaf_pid": "GAWA_162263338",
    "tech_change_status": "Not Planned"
   }
  },
  {
   "type": "Feature",
   "geometry": {
    "type": "Point",
    "coordinates": [
     117.03652709,
     -31.29885076
    ]
   },
   "properties": {
    "name": "158 HAGBOOM ROAD UCARTY 6462",
    "locID": "LOC000017246601",
    "tech": "SATELLITE",
    "upgrade": "NULL_NA",
    "gnaf_pid": "GAWA_162263734",
    "tech_change_status": "Not Planned"
   }
  },
  {
   "type": "Feature",
   "geometry": {
    "type": "Point",
    "coordinates": [
     117.036752,
     -31.31897
    ]
   },
   "properties": {
    "name": "105 MCMORRAN ROAD UCARTY 6462",
    "locID": "LOC000082959247",
    "tech": "NULL",
    "upgrade": "NULL_NA",
    "gnaf_pid": "GAWA_162266521",
    "tech_change_status": "Not Planned"
   }
  },
  {
   "type": "Feature",
   "geometry": {
    "type": "Point",
    "coordinates": [
     117.094231,
     -31.325629
    ]
   },
   "properties": {
    "name": "101 MELVIN ROAD UCARTY 6462",
    "locID": "LOC000086365757",
    "tech": "SATELLITE",
    "upgrade": "NULL_NA",
    "gnaf_pid": "GAWA_162266554",
    "tech_change_status": "Not Planned"
   }
  },
  {
   "type": "Feature",
   "geometry": {
    "type": "Point",
    "coordinates": [
     116.984902,
     -31.254742
    ]
   },
   "properties": {
    "name": "142 NAMBLING SOUTH ROAD UCARTY 6462",
    "locID": "LOC000025679718",
    "tech": "NULL",
    "upgrade": "NULL_NA",
    "gnaf_pid": "GAWA_162267213",
    "tech_change_status": "Not Planned"
   }
  },
  {
   "type": "Feature",
   "geometry": {
    "type": "Point",
    "coordinates": [
     116.99166,
     -31.379665
    ]
   },
   "properties": {
    "name": "1650 NAMBLING SOUTH ROAD UCARTY 6462",
    "locID": "LOC000002183912",
    "tech": "NULL",
    "upgrade": "NULL_NA",
    "gnaf_pid": "GAWA_162267214",
    "tech_change_status": "Not Planned"
   }
  },
  {
   "type": "Feature",
   "geometry": {
    "type": "Point",
    "coordinates": [
     116.992692,
     -31.398637
    ]
   },
   "properties": {
    "name": "1842 NAMBLING SOUTH ROAD UCARTY 6462",
    "locID": "LOC000082997688",
    "tech": "SATELLITE",
    "upgrade": "NULL_NA",
    "gnaf_pid": "GAWA_162267215",
    "tech_change_status": "Not Planned"
   }
  },
  {
   "type": "Feature",
   "geometry": {
    "type": "Point",
    "coordinates": [
     116.97154548,
     -31.2853195
    ]
   },
   "properties": {
    "name": "516 NAMBLING SOUTH ROAD UCARTY 6462",
    "locID": "LOC000031447329",
    "tech": "NULL",
    "upgrade": "NULL_NA",
    "gnaf_pid": "GAWA_162267216",
    "tech_change_status": "Not Planned"
   }
  },
  {
   "type": "Feature",
   "geometry": {
    "type": "Point",
    "coordinates": [
     116.9597584,
     -31.28282154
    ]
   },
   "properties": {
    "name": "532 NAMBLING SOUTH ROAD UCARTY 6462",
    "locID": "LOC000048290172",
    "tech": "NULL",
    "upgrade": "NULL_NA",
    "gnaf_pid": "GAWA_162267217",
    "tech_change_status": "Not Planned"
   }
  },
  {
   "type": "Feature",
   "geometry": {
    "type": "Point",
    "coordinates": [
     116.964496,
     -31.299858
    ]
   },
   "properties": {
    "name": "686 NAMBLING SOUTH ROAD UCARTY 6462",
    "locID": "LOC000012046587",
    "tech": "NULL",
    "upgrade": "NULL_NA",
    "gnaf_pid": "GAWA_162267218",
    "tech_change_status": "Not Planned"
   }
  },
  {
   "type": "Feature",
   "geometry": {
    "type": "Point",
    "coordinates": [
     116.971021,
     -31.316662
    ]
   },
   "properties": {
    "name": "898 NAMBLING SOUTH ROAD UCARTY 6462",
    "locID": "LOC000045042494",
    "tech": "SATELLITE",
    "upgrade": "NULL_NA",
    "gnaf_pid": "GAWA_162267219",
    "tech_change_status": "Not Planned"
   }
  },
  {
   "type": "Feature",
   "geometry": {
    "type": "Point",
    "coordinates": [
     117.006856,
     -31.245029
    ]
   },
   "properties": {
    "name": "453 SANDERS ROAD UCARTY 6462",
    "locID": "LOC100078053089",
    "tech": "NULL",
    "upgrade": "NULL_NA",
    "gnaf_pid": "GAWA_162269098",
    "tech_change_status": "Not Planned"
   }
  },
  {
   "type": "Feature",
   "geometry": {
    "type": "Point",
    "coordinates": [
     117.006855,
     -31.239538
    ]
   },
   "properties": {
    "name": "454 SANDERS ROAD UCARTY 6462",
    "locID": "LOC000045176816",
    "tech": "NULL",
    "upgrade": "NULL_NA",
    "gnaf_pid": "GAWA_162269099",
    "tech_change_status": "Not Planned"
   }
  },
  {
   "type": "Feature",
   "geometry": {
    "type": "Point",
    "coordinates": [
     117.107831,
     -31.308103
    ]
   },
   "properties": {
    "name": "483 THORNETT ROAD UCARTY 6462",
    "locID": "LOC000035374060",
    "tech": "SATELLITE",
    "upgrade": "NULL_NA",
    "gnaf_pid": "GAWA_162270572",
    "tech_change_status": "Not Planned"
   }
  },
  {
   "type": "Feature",
   "geometry": {
    "type": "Point",
    "coordinates": [
     116.983516,
     -31.342913
    ]
   },
   "properties": {
    "name": "84 UCARTY ROCK ROAD UCARTY 6462",
    "locID": "LOC000037286876",
    "tech": "SATELLITE",
    "upgrade": "NULL_NA",
    "gnaf_pid": "GAWA_162270878",
    "tech_change_status": "Not Planned"
   }
  },
  {
   "type": "Feature",
   "geometry": {
    "type": "Point",
    "coordinates": [
     117.042684,
     -31.355377
    ]
   },
   "properties": {
    "name": "1207 UCARTY SOUTH ROAD UCARTY 6462",
    "locID": "LOC000094585886",
    "tech": "NULL",
    "upgrade": "NULL_NA",
    "gnaf_pid": "GAWA_162270879",
    "tech_change_status": "Not Planned"
   }
  },
  {
   "type": "Feature",
   "geometry": {
    "type": "Point",
    "coordinates": [
     117.035179,
     -31.393722
    ]
   },
   "properties": {
    "name": "1644 UCARTY SOUTH ROAD UCARTY 6462",
    "locID": "LOC000091381088",
    "tech": "NULL",
    "upgrade": "NULL_NA",
    "gnaf_pid": "GAWA_162270880",
    "tech_change_status": "Not Planned"
   }
  },
  {
   "type": "Feature",
   "geometry": {
    "type": "Point",
    "coordinates": [
     117.011155,
     -31.292145
    ]
   },
   "properties": {
    "name": "424 UCARTY SOUTH ROAD UCARTY 6462",
    "locID": "LOC000027759024",
    "tech": "NULL",
    "upgrade": "NULL_NA",
    "gnaf_pid": "GAWA_162270881",
    "tech_change_status": "Not Planned"
   }
  },
  {
   "type": "Feature",
   "geometry": {
    "type": "Point",
    "coordinates": [
     117.029645,
     -31.311647
    ]
   },
   "properties": {
    "name": "677 UCARTY SOUTH ROAD UCARTY 6462",
    "locID": "LOC000016969780",
    "tech": "SATELLITE",
    "upgrade": "NULL_NA",
    "gnaf_pid": "GAWA_162270882",
    "tech_change_status": "Not Planned"
   }
  },
  {
   "type": "Feature",
   "geometry": {
    "type": "Point",
    "coordinates": [
     117.10773306,
     -31.34749664
    ]
   },
   "properties": {
    "name": "2377 DOWERIN-MECKERING ROAD UCARTY 6462",
    "locID": "LOC000089660774",
    "tech": "NULL",
    "upgrade": "NULL_NA",
    "gnaf_pid": "GAWA_162276901",
    "tech_change_status": "Not Planned"
   }
  },
  {
   "type": "Feature",
   "geometry": {
    "type": "Point",
    "coordinates": [
     117.05080733,
     -31.34305953
    ]
   },
   "properties": {
    "name": "52 EATON ROAD UCARTY 6462",
    "locID": "LOC000093856314",
    "tech": "SATELLITE",
    "upgrade": "NULL_NA",
    "gnaf_pid": "GAWA_162491524",
    "tech_change_status": "Not Planned"
   }
  },
  {
   "type": "Feature",
   "geometry": {
    "type": "Point",
    "coordinates": [
     116.97904581,
     -31.23837462
    ]
   },
   "properties": {
    "name": "LOT 92 NAMBLING ROAD UCARTY 6462",
    "locID": "LOC000031447329",
    "tech": "NULL",
    "upgrade": "NULL_NA",
    "gnaf_pid": "GAWA_162724158",
    "tech_change_status": "Not Planned"
   }
  },
  {
   "type": "Feature",
   "geometry": {
    "type": "Point",
    "coordinates": [
     116.97515978,
     -31.35932857
    ]
   },
   "properties": {
    "name": "84 UCARTY ROAD UCARTY 6462",
    "locID": "LOC000037286876",
    "tech": "SATELLITE",
    "upgrade": "NULL_NA",
    "gnaf_pid": "GAWA_718233957",
    "tech_change_status": "Not Planned"
   }
  },
  {
   "type": "Feature",
   "geometry": {
    "type": "Point",
    "coordinates": [
     116.99553004,
     -31.21140505
    ]
   },
   "properties": {
    "name": "1717 GOOMALLING-WYALKATCHEM ROAD UCARTY 6462",
    "locID": "LOC000149129955",
    "tech": "NULL",
    "upgrade": "NULL_NA",
    "gnaf_pid": "GAWA_718674684",
    "tech_change_status": "Not Planned"
   }
  }
 ]
}