{
 "type": "FeatureCollection",
 "generated": "2024-09-25T06:54:21.478186",
 "suburb": "WARRACHUPPIN",
 "features": [
  {
   "type": "Feature",
   "geometry": {
    "type": "Point",
    "coordinates": [
     118.67995689,
     -31.04701372
    ]
   },
   "properties": {
    "name": "LOT 326 DADDOW ROAD WARRACHUPPIN 6423",
    "locID": "LOC000133305140",
    "tech": "NULL",
    "upgrade": "NULL_NA",
    "gnaf_pid": "GAWA_161538076",
    "tech_change_status": "Not Planned"
   }
  },
  {
   "type": "Feature",
   "geometry": {
    "type": "Point",
    "coordinates": [
     118.74721712,
     -31.05001737
    ]
   },
   "properties": {
    "name": "LOT 329 DADDOW ROAD WARRACHUPPIN 6423",
    "locID": "LOC000133305140",
    "tech": "NULL",
    "upgrade": "NULL_NA",
    "gnaf_pid": "GAWA_162781176",
    "tech_change_status": "Not Planned"
   }
  },
  {
   "type": "Feature",
   "geometry": {
    "type": "Point",
    "coordinates": [
     118.7778198,
     -31.06733526
    ]
   },
   "properties": {
    "name": "LOT 330 DADDOW ROAD WARRACHUPPIN 6423",
    "locID": "LOC000133305140",
    "tech": "NULL",
    "upgrade": "NULL_NA",
    "gnaf_pid": "GAWA_162781177",
    "tech_change_status": "Not Planned"
   }
  },
  {
   "type": "Feature",
   "geometry": {
    "type": "Point",
    "coordinates": [
     118.67769779,
     -31.02563834
    ]
   },
   "properties": {
    "name": "LOT 339 DADDOW ROAD WARRACHUPPIN 6423",
    "locID": "LOC000133305140",
    "tech": "NULL",
    "upgrade": "NULL_NA",
    "gnaf_pid": "GAWA_162781179",
    "tech_change_status": "Not Planned"
   }
  },
  {
   "type": "Feature",
   "geometry": {
    "type": "Point",
    "coordinates": [
     118.78531578,
     -30.88789516
    ]
   },
   "properties": {
    "name": "1297 BOODAROCKIN NORTH ROAD WARRACHUPPIN 6423",
    "locID": "LOC000133301785",
    "tech": "NULL",
    "upgrade": "NULL_NA",
    "gnaf_pid": "GAWA_718295629",
    "tech_change_status": "Not Planned"
   }
  },
  {
   "type": "Feature",
   "geometry": {
    "type": "Point",
    "coordinates": [
     118.77447517,
     -31.04985692
    ]
   },
   "properties": {
    "name": "424 BOODAROCKIN ROAD WARRACHUPPIN 6423",
    "locID": "LOC000133311502",
    "tech": "NULL",
    "upgrade": "NULL_NA",
    "gnaf_pid": "GAWA_718295631",
    "tech_change_status": "Not Planned"
   }
  },
  {
   "type": "Feature",
   "geometry": {
    "type": "Point",
    "coordinates": [
     118.7143486,
     -31.05004831
    ]
   },
   "properties": {
    "name": "1607 DADDOW ROAD WARRACHUPPIN 6423",
    "locID": "LOC000133305140",
    "tech": "NULL",
    "upgrade": "NULL_NA",
    "gnaf_pid": "GAWA_718296447",
    "tech_change_status": "Not Planned"
   }
  },
  {
   "type": "Feature",
   "geometry": {
    "type": "Point",
    "coordinates": [
     118.72668669,
     -31.06436666
    ]
   },
   "properties": {
    "name": "1754 DADDOW ROAD WARRACHUPPIN 6423",
    "locID": "LOC000133305210",
    "tech": "NULL",
    "upgrade": "NULL_NA",
    "gnaf_pid": "GAWA_718296448",
    "tech_change_status": "Not Planned"
   }
  },
  {
   "type": "Feature",
   "geometry": {
    "type": "Point",
    "coordinates": [
     118.75472049,
     -30.82076459
    ]
   },
   "properties": {
    "name": "307 DUNCAN ROAD WARRACHUPPIN 6423",
    "locID": "LOC000133308485",
    "tech": "NULL",
    "upgrade": "NULL_NA",
    "gnaf_pid": "GAWA_718296586",
    "tech_change_status": "Not Planned"
   }
  },
  {
   "type": "Feature",
   "geometry": {
    "type": "Point",
    "coordinates": [
     118.71728793,
     -30.81984135
    ]
   },
   "properties": {
    "name": "1403 FARINA ROAD WARRACHUPPIN 6423",
    "locID": "LOC000133301856",
    "tech": "NULL",
    "upgrade": "NULL_NA",
    "gnaf_pid": "GAWA_718296772",
    "tech_change_status": "Not Planned"
   }
  },
  {
   "type": "Feature",
   "geometry": {
    "type": "Point",
    "coordinates": [
     118.6532766,
     -31.00802872
    ]
   },
   "properties": {
    "name": "12359 KOORDA-BULLFINCH ROAD WARRACHUPPIN 6423",
    "locID": "LOC000133301744",
    "tech": "NULL",
    "upgrade": "NULL_NA",
    "gnaf_pid": "GAWA_718297966",
    "tech_change_status": "Not Planned"
   }
  },
  {
   "type": "Feature",
   "geometry": {
    "type": "Point",
    "coordinates": [
     118.681943,
     -31.00252488
    ]
   },
   "properties": {
    "name": "12719 KOORDA-BULLFINCH ROAD WARRACHUPPIN 6423",
    "locID": "LOC000133301759",
    "tech": "NULL",
    "upgrade": "NULL_NA",
    "gnaf_pid": "GAWA_718297967",
    "tech_change_status": "Not Planned"
   }
  },
  {
   "type": "Feature",
   "geometry": {
    "type": "Point",
    "coordinates": [
     118.681943,
     -31.00252488
    ]
   },
   "properties": {
    "name": "12721 KOORDA-BULLFINCH ROAD WARRACHUPPIN 6423",
    "locID": "LOC000133301763",
    "tech": "NULL",
    "upgrade": "NULL_NA",
    "gnaf_pid": "GAWA_718297968",
    "tech_change_status": "Not Planned"
   }
  },
  {
   "type": "Feature",
   "geometry": {
    "type": "Point",
    "coordinates": [
     118.73889067,
     -30.98998055
    ]
   },
   "properties": {
    "name": "13181 KOORDA-BULLFINCH ROAD WARRACHUPPIN 6423",
    "locID": "LOC000133301802",
    "tech": "SATELLITE",
    "upgrade": "NULL_NA",
    "gnaf_pid": "GAWA_718297969",
    "tech_change_status": "Not Planned"
   }
  },
  {
   "type": "Feature",
   "geometry": {
    "type": "Point",
    "coordinates": [
     118.67249051,
     -31.1026489
    ]
   },
   "properties": {
    "name": "1882 MAXFIELD ROAD WARRACHUPPIN 6423",
    "locID": "LOC000133305252",
    "tech": "NULL",
    "upgrade": "NULL_NA",
    "gnaf_pid": "GAWA_718298328",
    "tech_change_status": "Not Planned"
   }
  },
  {
   "type": "Feature",
   "geometry": {
    "type": "Point",
    "coordinates": [
     118.66915763,
     -31.0753543
    ]
   },
   "properties": {
    "name": "2132 MAXFIELD ROAD WARRACHUPPIN 6423",
    "locID": "LOC000133305332",
    "tech": "NULL",
    "upgrade": "NULL_NA",
    "gnaf_pid": "GAWA_718298330",
    "tech_change_status": "Not Planned"
   }
  },
  {
   "type": "Feature",
   "geometry": {
    "type": "Point",
    "coordinates": [
     118.7175867,
     -30.99376686
    ]
   },
   "properties": {
    "name": "10 WARRACHUPPIN NORTH ROAD WARRACHUPPIN 6423",
    "locID": "LOC000133298362",
    "tech": "NULL",
    "upgrade": "NULL_NA",
    "gnaf_pid": "GAWA_718300723",
    "tech_change_status": "Not Planned"
   }
  },
  {
   "type": "Feature",
   "geometry": {
    "type": "Point",
    "coordinates": [
     118.73632357,
     -30.89884323
    ]
   },
   "properties": {
    "name": "1336 WARRACHUPPIN NORTH ROAD WARRACHUPPIN 6423",
    "locID": "LOC000133301825",
    "tech": "NULL",
    "upgrade": "NULL_NA",
    "gnaf_pid": "GAWA_718300724",
    "tech_change_status": "Not Planned"
   }
  },
  {
   "type": "Feature",
   "geometry": {
    "type": "Point",
    "coordinates": [
     118.67294616,
     -30.97073036
    ]
   },
   "properties": {
    "name": "543 WARRACHUPPIN NORTH ROAD WARRACHUPPIN 6423",
    "locID": "LOC000133314410",
    "tech": "NULL",
    "upgrade": "NULL_NA",
    "gnaf_pid": "GAWA_718300725",
    "tech_change_status": "Not Planned"
   }
  },
  {
   "type": "Feature",
   "geometry": {
    "type": "Point",
    "coordinates": [
     118.71736646,
     -31.10450381
    ]
   },
   "properties": {
    "name": "1213 WARRACHUPPIN ROAD WARRACHUPPIN 6423",
    "locID": "LOC000133301737",
    "tech": "SATELLITE",
    "upgrade": "NULL_NA",
    "gnaf_pid": "GAWA_718300728",
    "tech_change_status": "Not Planned"
   }
  },
  {
   "type": "Feature",
   "geometry": {
    "type": "Point",
    "coordinates": [
     118.78062959,
     -30.93178314
    ]
   },
   "properties": {
    "name": "829 WEBB ROAD WARRACHUPPIN 6423",
    "locID": "LOC000133314583",
    "tech": "SATELLITE",
    "upgrade": "NULL_NA",
    "gnaf_pid": "GAWA_718300777",
    "tech_change_status": "Not Planned"
   }
  },
  {
   "type": "Feature",
   "geometry": {
    "type": "Point",
    "coordinates": [
     118.76777196,
     -31.13322006
    ]
   },
   "properties": {
    "name": "1446 BOODAROCKIN ROAD WARRACHUPPIN 6423",
    "locID": "LOC000133301860",
    "tech": "NULL",
    "upgrade": "NULL_NA",
    "gnaf_pid": "GAWA_718301808",
    "tech_change_status": "Not Planned"
   }
  }
 ]
}