{
 "type": "FeatureCollection",
 "generated": "2024-09-06T22:06:59.265415",
 "suburb": "WELBUNGIN",
 "features": [
  {
   "type": "Feature",
   "geometry": {
    "type": "Point",
    "coordinates": [
     118.01210432,
     -30.81373342
    ]
   },
   "properties": {
    "name": "127 WHYTE ROAD WELBUNGIN 6477",
    "locID": "LOC000007049798",
    "tech": "NULL",
    "upgrade": "NULL_NA",
    "gnaf_pid": "GAWA_162271455",
    "tech_change_status": "Not Planned"
   }
  },
  {
   "type": "Feature",
   "geometry": {
    "type": "Point",
    "coordinates": [
     118.03907239,
     -30.72616859
    ]
   },
   "properties": {
    "name": "274 MATHEWS ROAD WELBUNGIN 6477",
    "locID": "LOC000024709405",
    "tech": "NULL",
    "upgrade": "NULL_NA",
    "gnaf_pid": "GAWA_162274086",
    "tech_change_status": "Not Planned"
   }
  },
  {
   "type": "Feature",
   "geometry": {
    "type": "Point",
    "coordinates": [
     118.07486396,
     -30.6700701
    ]
   },
   "properties": {
    "name": "448 AITKEN ROAD WELBUNGIN 6477",
    "locID": "LOC000142930428",
    "tech": "SATELLITE",
    "upgrade": "NULL_NA",
    "gnaf_pid": "GAWA_162275577",
    "tech_change_status": "Not Planned"
   }
  },
  {
   "type": "Feature",
   "geometry": {
    "type": "Point",
    "coordinates": [
     118.0809852,
     -30.72853015
    ]
   },
   "properties": {
    "name": "2644 BARBALIN-KOONKOOBING ROAD WELBUNGIN 6477",
    "locID": "LOC000058166281",
    "tech": "SATELLITE",
    "upgrade": "NULL_NA",
    "gnaf_pid": "GAWA_162275859",
    "tech_change_status": "Not Planned"
   }
  },
  {
   "type": "Feature",
   "geometry": {
    "type": "Point",
    "coordinates": [
     117.980385,
     -30.853438
    ]
   },
   "properties": {
    "name": "138 BELL ROAD WELBUNGIN 6477",
    "locID": "LOC000055917440",
    "tech": "NULL",
    "upgrade": "NULL_NA",
    "gnaf_pid": "GAWA_162276026",
    "tech_change_status": "Not Planned"
   }
  },
  {
   "type": "Feature",
   "geometry": {
    "type": "Point",
    "coordinates": [
     118.10575086,
     -30.72884286
    ]
   },
   "properties": {
    "name": "1001 FELBAR ROAD WELBUNGIN 6477",
    "locID": "LOC000020389015",
    "tech": "NULL",
    "upgrade": "NULL_NA",
    "gnaf_pid": "GAWA_162277021",
    "tech_change_status": "Not Planned"
   }
  },
  {
   "type": "Feature",
   "geometry": {
    "type": "Point",
    "coordinates": [
     117.96052,
     -30.656804
    ]
   },
   "properties": {
    "name": "2130 GILLETT ROAD WELBUNGIN 6477",
    "locID": "LOC000077386408",
    "tech": "NULL",
    "upgrade": "NULL_NA",
    "gnaf_pid": "GAWA_162277249",
    "tech_change_status": "Not Planned"
   }
  },
  {
   "type": "Feature",
   "geometry": {
    "type": "Point",
    "coordinates": [
     117.9605112,
     -30.62317075
    ]
   },
   "properties": {
    "name": "457 GRANT ROAD WELBUNGIN 6477",
    "locID": "LOC000054551709",
    "tech": "NULL",
    "upgrade": "NULL_NA",
    "gnaf_pid": "GAWA_162277301",
    "tech_change_status": "Not Planned"
   }
  },
  {
   "type": "Feature",
   "geometry": {
    "type": "Point",
    "coordinates": [
     118.02538886,
     -30.69303916
    ]
   },
   "properties": {
    "name": "405 MATHEWS ROAD WELBUNGIN 6477",
    "locID": "LOC000055364509",
    "tech": "SATELLITE",
    "upgrade": "NULL_NA",
    "gnaf_pid": "GAWA_162278247",
    "tech_change_status": "Not Planned"
   }
  },
  {
   "type": "Feature",
   "geometry": {
    "type": "Point",
    "coordinates": [
     118.05236833,
     -30.69010369
    ]
   },
   "properties": {
    "name": "435 MATHEWS ROAD WELBUNGIN 6477",
    "locID": "LOC000065560230",
    "tech": "NULL",
    "upgrade": "NULL_NA",
    "gnaf_pid": "GAWA_162278248",
    "tech_change_status": "Not Planned"
   }
  },
  {
   "type": "Feature",
   "geometry": {
    "type": "Point",
    "coordinates": [
     117.960437,
     -30.606553
    ]
   },
   "properties": {
    "name": "120 POTTS ROAD WELBUNGIN 6477",
    "locID": "LOC000040043113",
    "tech": "SATELLITE",
    "upgrade": "NULL_NA",
    "gnaf_pid": "GAWA_162278989",
    "tech_change_status": "Not Planned"
   }
  },
  {
   "type": "Feature",
   "geometry": {
    "type": "Point",
    "coordinates": [
     117.99063153,
     -30.77844656
    ]
   },
   "properties": {
    "name": "38 PROBERT ROAD WELBUNGIN 6477",
    "locID": "LOC000102079430",
    "tech": "NULL",
    "upgrade": "NULL_NA",
    "gnaf_pid": "GAWA_162278990",
    "tech_change_status": "Not Planned"
   }
  },
  {
   "type": "Feature",
   "geometry": {
    "type": "Point",
    "coordinates": [
     117.983397,
     -30.723718
    ]
   },
   "properties": {
    "name": "664 WALKER ROAD WELBUNGIN 6477",
    "locID": "LOC000065664101",
    "tech": "NULL",
    "upgrade": "NULL_NA",
    "gnaf_pid": "GAWA_162280005",
    "tech_change_status": "Not Planned"
   }
  },
  {
   "type": "Feature",
   "geometry": {
    "type": "Point",
    "coordinates": [
     117.99941585,
     -30.87445431
    ]
   },
   "properties": {
    "name": "1396 WELBUNGIN SOUTH ROAD WELBUNGIN 6477",
    "locID": "LOC000053666824",
    "tech": "SATELLITE",
    "upgrade": "NULL_NA",
    "gnaf_pid": "GAWA_162280060",
    "tech_change_status": "Not Planned"
   }
  },
  {
   "type": "Feature",
   "geometry": {
    "type": "Point",
    "coordinates": [
     118.00555257,
     -30.83510165
    ]
   },
   "properties": {
    "name": "1874 WELBUNGIN SOUTH ROAD WELBUNGIN 6477",
    "locID": "LOC000065045021",
    "tech": "NULL",
    "upgrade": "NULL_NA",
    "gnaf_pid": "GAWA_162280061",
    "tech_change_status": "Not Planned"
   }
  },
  {
   "type": "Feature",
   "geometry": {
    "type": "Point",
    "coordinates": [
     118.00555257,
     -30.83510165
    ]
   },
   "properties": {
    "name": "1940 WELBUNGIN SOUTH ROAD WELBUNGIN 6477",
    "locID": "LOC000090531884",
    "tech": "SATELLITE",
    "upgrade": "NULL_NA",
    "gnaf_pid": "GAWA_162280062",
    "tech_change_status": "Not Planned"
   }
  },
  {
   "type": "Feature",
   "geometry": {
    "type": "Point",
    "coordinates": [
     117.984306,
     -30.609646
    ]
   },
   "properties": {
    "name": "1726 WELBUNGIN-WIALKI ROAD WELBUNGIN 6477",
    "locID": "LOC000089190426",
    "tech": "NULL",
    "upgrade": "NULL_NA",
    "gnaf_pid": "GAWA_162280063",
    "tech_change_status": "Not Planned"
   }
  },
  {
   "type": "Feature",
   "geometry": {
    "type": "Point",
    "coordinates": [
     117.998974,
     -30.685312
    ]
   },
   "properties": {
    "name": "2549 WELBUNGIN-WIALKI ROAD WELBUNGIN 6477",
    "locID": "LOC000011611145",
    "tech": "SATELLITE",
    "upgrade": "NULL_NA",
    "gnaf_pid": "GAWA_162280064",
    "tech_change_status": "Not Planned"
   }
  },
  {
   "type": "Feature",
   "geometry": {
    "type": "Point",
    "coordinates": [
     118.00551,
     -30.72924
    ]
   },
   "properties": {
    "name": "3049 WELBUNGIN-WIALKI ROAD WELBUNGIN 6477",
    "locID": "LOC000031913027",
    "tech": "NULL",
    "upgrade": "NULL_NA",
    "gnaf_pid": "GAWA_162280065",
    "tech_change_status": "Not Planned"
   }
  },
  {
   "type": "Feature",
   "geometry": {
    "type": "Point",
    "coordinates": [
     118.00630897,
     -30.77486355
    ]
   },
   "properties": {
    "name": "3531 WELBUNGIN-WIALKI ROAD WELBUNGIN 6477",
    "locID": "LOC000024798857",
    "tech": "NULL",
    "upgrade": "NULL_NA",
    "gnaf_pid": "GAWA_162280066",
    "tech_change_status": "Not Planned"
   }
  },
  {
   "type": "Feature",
   "geometry": {
    "type": "Point",
    "coordinates": [
     118.01703684,
     -30.65594037
    ]
   },
   "properties": {
    "name": "166 WHITTLE ROAD WELBUNGIN 6477",
    "locID": "LOC000048411563",
    "tech": "NULL",
    "upgrade": "NULL_NA",
    "gnaf_pid": "GAWA_162280139",
    "tech_change_status": "Not Planned"
   }
  },
  {
   "type": "Feature",
   "geometry": {
    "type": "Point",
    "coordinates": [
     118.029535,
     -30.880168
    ]
   },
   "properties": {
    "name": "1585 WREN ROAD WELBUNGIN 6477",
    "locID": "LOC000036586110",
    "tech": "SATELLITE",
    "upgrade": "NULL_NA",
    "gnaf_pid": "GAWA_162280237",
    "tech_change_status": "Not Planned"
   }
  },
  {
   "type": "Feature",
   "geometry": {
    "type": "Point",
    "coordinates": [
     118.08192182,
     -30.68213937
    ]
   },
   "properties": {
    "name": "361 AITKEN ROAD WELBUNGIN 6477",
    "locID": "LOC000064347266",
    "tech": "NULL",
    "upgrade": "NULL_NA",
    "gnaf_pid": "GAWA_162337428",
    "tech_change_status": "Not Planned"
   }
  },
  {
   "type": "Feature",
   "geometry": {
    "type": "Point",
    "coordinates": [
     117.982057,
     -30.896703
    ]
   },
   "properties": {
    "name": "1103 WELBUNGIN SOUTH ROAD WELBUNGIN 6477",
    "locID": "LOC000052022743",
    "tech": "NULL",
    "upgrade": "NULL_NA",
    "gnaf_pid": "GAWA_162393122",
    "tech_change_status": "Not Planned"
   }
  },
  {
   "type": "Feature",
   "geometry": {
    "type": "Point",
    "coordinates": [
     118.00572435,
     -30.89785136
    ]
   },
   "properties": {
    "name": "1170 WELBUNGIN SOUTH ROAD WELBUNGIN 6477",
    "locID": "LOC000046321722",
    "tech": "NULL",
    "upgrade": "NULL_NA",
    "gnaf_pid": "GAWA_162393123",
    "tech_change_status": "Not Planned"
   }
  },
  {
   "type": "Feature",
   "geometry": {
    "type": "Point",
    "coordinates": [
     117.961217,
     -30.907523
    ]
   },
   "properties": {
    "name": "1004 WREN ROAD WELBUNGIN 6477",
    "locID": "LOC000082547112",
    "tech": "NULL",
    "upgrade": "NULL_NA",
    "gnaf_pid": "GAWA_162393295",
    "tech_change_status": "Not Planned"
   }
  },
  {
   "type": "Feature",
   "geometry": {
    "type": "Point",
    "coordinates": [
     118.05232,
     -30.900615
    ]
   },
   "properties": {
    "name": "1770 WREN ROAD WELBUNGIN 6477",
    "locID": "LOC000047750441",
    "tech": "NULL",
    "upgrade": "NULL_NA",
    "gnaf_pid": "GAWA_162393296",
    "tech_change_status": "Not Planned"
   }
  },
  {
   "type": "Feature",
   "geometry": {
    "type": "Point",
    "coordinates": [
     117.96464083,
     -30.93596516
    ]
   },
   "properties": {
    "name": "1014 GILHAM COOPER ROAD WELBUNGIN 6477",
    "locID": "LOC000082231169",
    "tech": "SATELLITE",
    "upgrade": "NULL_NA",
    "gnaf_pid": "GAWA_162566737",
    "tech_change_status": "Not Planned"
   }
  },
  {
   "type": "Feature",
   "geometry": {
    "type": "Point",
    "coordinates": [
     118.00555257,
     -30.83510165
    ]
   },
   "properties": {
    "name": "1966 WELBUNGIN SOUTH ROAD WELBUNGIN 6477",
    "locID": "LOC000052022743",
    "tech": "NULL",
    "upgrade": "NULL_NA",
    "gnaf_pid": "GAWA_720279161",
    "tech_change_status": "Not Planned"
   }
  }
 ]
}