{
 "type": "FeatureCollection",
 "generated": "2023-10-26T10:20:23.515480",
 "suburb": "WELBUNGIN",
 "features": [
  {
   "type": "Feature",
   "geometry": {
    "type": "Point",
    "coordinates": [
     118.01134,
     -30.814051
    ]
   },
   "properties": {
    "name": "127 WHYTE ROAD WELBUNGIN 6477",
    "locID": "LOC000007049798",
    "tech": "SATELLITE",
    "upgrade": "NULL_NA",
    "gnaf_pid": "GAWA_162271455"
   }
  },
  {
   "type": "Feature",
   "geometry": {
    "type": "Point",
    "coordinates": [
     118.03907239,
     -30.72616859
    ]
   },
   "properties": {
    "name": "274 MATHEWS ROAD WELBUNGIN 6477",
    "locID": "LOC000024709405",
    "tech": "SATELLITE",
    "upgrade": "NULL_NA",
    "gnaf_pid": "GAWA_162274086"
   }
  },
  {
   "type": "Feature",
   "geometry": {
    "type": "Point",
    "coordinates": [
     118.07486396,
     -30.6700701
    ]
   },
   "properties": {
    "name": "448 AITKEN ROAD WELBUNGIN 6477",
    "locID": "LOC000142930428",
    "tech": "SATELLITE",
    "upgrade": "NULL_NA",
    "gnaf_pid": "GAWA_162275577"
   }
  },
  {
   "type": "Feature",
   "geometry": {
    "type": "Point",
    "coordinates": [
     118.0809852,
     -30.72853015
    ]
   },
   "properties": {
    "name": "2644 BARBALIN-KOONKOOBING ROAD WELBUNGIN 6477",
    "locID": "LOC000058166281",
    "tech": "SATELLITE",
    "upgrade": "NULL_NA",
    "gnaf_pid": "GAWA_162275859"
   }
  },
  {
   "type": "Feature",
   "geometry": {
    "type": "Point",
    "coordinates": [
     117.980385,
     -30.853438
    ]
   },
   "properties": {
    "name": "138 BELL ROAD WELBUNGIN 6477",
    "locID": "LOC000055917440",
    "tech": "SATELLITE",
    "upgrade": "NULL_NA",
    "gnaf_pid": "GAWA_162276026"
   }
  },
  {
   "type": "Feature",
   "geometry": {
    "type": "Point",
    "coordinates": [
     118.10575086,
     -30.72884286
    ]
   },
   "properties": {
    "name": "1001 FELBAR ROAD WELBUNGIN 6477",
    "locID": "LOC000020389015",
    "tech": "SATELLITE",
    "upgrade": "NULL_NA",
    "gnaf_pid": "GAWA_162277021"
   }
  },
  {
   "type": "Feature",
   "geometry": {
    "type": "Point",
    "coordinates": [
     117.96052,
     -30.656804
    ]
   },
   "properties": {
    "name": "2130 GILLETT ROAD WELBUNGIN 6477",
    "locID": "LOC000077386408",
    "tech": "SATELLITE",
    "upgrade": "NULL_NA",
    "gnaf_pid": "GAWA_162277249"
   }
  },
  {
   "type": "Feature",
   "geometry": {
    "type": "Point",
    "coordinates": [
     117.97167122,
     -30.63145244
    ]
   },
   "properties": {
    "name": "280 GRANT ROAD WELBUNGIN 6477",
    "locID": "ChIJiTPmp6r_yisRMa6_Cn6Gc7g",
    "tech": "SATELLITE",
    "upgrade": "UNKNOWN",
    "gnaf_pid": "GAWA_162277299"
   }
  },
  {
   "type": "Feature",
   "geometry": {
    "type": "Point",
    "coordinates": [
     117.9605112,
     -30.62317075
    ]
   },
   "properties": {
    "name": "449 GRANT ROAD WELBUNGIN 6477",
    "locID": "ChIJSezKTqX_yisR-tfNfVj-VA8",
    "tech": "SATELLITE",
    "upgrade": "UNKNOWN",
    "gnaf_pid": "GAWA_162277300"
   }
  },
  {
   "type": "Feature",
   "geometry": {
    "type": "Point",
    "coordinates": [
     117.9605112,
     -30.62317075
    ]
   },
   "properties": {
    "name": "457 GRANT ROAD WELBUNGIN 6477",
    "locID": "LOC000054551709",
    "tech": "SATELLITE",
    "upgrade": "NULL_NA",
    "gnaf_pid": "GAWA_162277301"
   }
  },
  {
   "type": "Feature",
   "geometry": {
    "type": "Point",
    "coordinates": [
     118.00944922,
     -30.82937977
    ]
   },
   "properties": {
    "name": "3969 KOORDA-BULLFINCH ROAD WELBUNGIN 6477",
    "locID": "ChIJM_7XffvjyisRm2rS99Tu4Zk",
    "tech": "SATELLITE",
    "upgrade": "UNKNOWN",
    "gnaf_pid": "GAWA_162277948"
   }
  },
  {
   "type": "Feature",
   "geometry": {
    "type": "Point",
    "coordinates": [
     118.02538886,
     -30.69303916
    ]
   },
   "properties": {
    "name": "405 MATHEWS ROAD WELBUNGIN 6477",
    "locID": "LOC000055364509",
    "tech": "SATELLITE",
    "upgrade": "NULL_NA",
    "gnaf_pid": "GAWA_162278247"
   }
  },
  {
   "type": "Feature",
   "geometry": {
    "type": "Point",
    "coordinates": [
     118.05236833,
     -30.69010369
    ]
   },
   "properties": {
    "name": "435 MATHEWS ROAD WELBUNGIN 6477",
    "locID": "LOC000065560230",
    "tech": "SATELLITE",
    "upgrade": "NULL_NA",
    "gnaf_pid": "GAWA_162278248"
   }
  },
  {
   "type": "Feature",
   "geometry": {
    "type": "Point",
    "coordinates": [
     117.97176691,
     -30.68175436
    ]
   },
   "properties": {
    "name": "221 PERRY ROAD WELBUNGIN 6477",
    "locID": "ChIJB7Wt0iz8yisRJoo4AdYj-I4",
    "tech": "SATELLITE",
    "upgrade": "UNKNOWN",
    "gnaf_pid": "GAWA_162278908"
   }
  },
  {
   "type": "Feature",
   "geometry": {
    "type": "Point",
    "coordinates": [
     117.960437,
     -30.606553
    ]
   },
   "properties": {
    "name": "120 POTTS ROAD WELBUNGIN 6477",
    "locID": "LOC000040043113",
    "tech": "SATELLITE",
    "upgrade": "NULL_NA",
    "gnaf_pid": "GAWA_162278989"
   }
  },
  {
   "type": "Feature",
   "geometry": {
    "type": "Point",
    "coordinates": [
     117.99063153,
     -30.77844656
    ]
   },
   "properties": {
    "name": "38 PROBERT ROAD WELBUNGIN 6477",
    "locID": "LOC000102079430",
    "tech": "SATELLITE",
    "upgrade": "NULL_NA",
    "gnaf_pid": "GAWA_162278990"
   }
  },
  {
   "type": "Feature",
   "geometry": {
    "type": "Point",
    "coordinates": [
     117.983397,
     -30.723718
    ]
   },
   "properties": {
    "name": "664 WALKER ROAD WELBUNGIN 6477",
    "locID": "LOC000065664101",
    "tech": "SATELLITE",
    "upgrade": "NULL_NA",
    "gnaf_pid": "GAWA_162280005"
   }
  },
  {
   "type": "Feature",
   "geometry": {
    "type": "Point",
    "coordinates": [
     117.99941585,
     -30.87445431
    ]
   },
   "properties": {
    "name": "1396 WELBUNGIN SOUTH ROAD WELBUNGIN 6477",
    "locID": "LOC000053666824",
    "tech": "SATELLITE",
    "upgrade": "NULL_NA",
    "gnaf_pid": "GAWA_162280060"
   }
  },
  {
   "type": "Feature",
   "geometry": {
    "type": "Point",
    "coordinates": [
     118.00555257,
     -30.83510165
    ]
   },
   "properties": {
    "name": "1874 WELBUNGIN SOUTH ROAD WELBUNGIN 6477",
    "locID": "LOC000065045021",
    "tech": "SATELLITE",
    "upgrade": "NULL_NA",
    "gnaf_pid": "GAWA_162280061"
   }
  },
  {
   "type": "Feature",
   "geometry": {
    "type": "Point",
    "coordinates": [
     118.00555257,
     -30.83510165
    ]
   },
   "properties": {
    "name": "1940 WELBUNGIN SOUTH ROAD WELBUNGIN 6477",
    "locID": "LOC000090531884",
    "tech": "SATELLITE",
    "upgrade": "NULL_NA",
    "gnaf_pid": "GAWA_162280062"
   }
  },
  {
   "type": "Feature",
   "geometry": {
    "type": "Point",
    "coordinates": [
     117.984306,
     -30.609646
    ]
   },
   "properties": {
    "name": "1726 WELBUNGIN-WIALKI ROAD WELBUNGIN 6477",
    "locID": "LOC000089190426",
    "tech": "SATELLITE",
    "upgrade": "NULL_NA",
    "gnaf_pid": "GAWA_162280063"
   }
  },
  {
   "type": "Feature",
   "geometry": {
    "type": "Point",
    "coordinates": [
     117.998974,
     -30.685312
    ]
   },
   "properties": {
    "name": "2549 WELBUNGIN-WIALKI ROAD WELBUNGIN 6477",
    "locID": "LOC000011611145",
    "tech": "SATELLITE",
    "upgrade": "NULL_NA",
    "gnaf_pid": "GAWA_162280064"
   }
  },
  {
   "type": "Feature",
   "geometry": {
    "type": "Point",
    "coordinates": [
     118.00551,
     -30.72924
    ]
   },
   "properties": {
    "name": "3049 WELBUNGIN-WIALKI ROAD WELBUNGIN 6477",
    "locID": "LOC000031913027",
    "tech": "SATELLITE",
    "upgrade": "NULL_NA",
    "gnaf_pid": "GAWA_162280065"
   }
  },
  {
   "type": "Feature",
   "geometry": {
    "type": "Point",
    "coordinates": [
     118.00630897,
     -30.77486355
    ]
   },
   "properties": {
    "name": "3531 WELBUNGIN-WIALKI ROAD WELBUNGIN 6477",
    "locID": "LOC000024798857",
    "tech": "SATELLITE",
    "upgrade": "NULL_NA",
    "gnaf_pid": "GAWA_162280066"
   }
  },
  {
   "type": "Feature",
   "geometry": {
    "type": "Point",
    "coordinates": [
     118.01703684,
     -30.65594037
    ]
   },
   "properties": {
    "name": "166 WHITTLE ROAD WELBUNGIN 6477",
    "locID": "LOC000048411563",
    "tech": "SATELLITE",
    "upgrade": "NULL_NA",
    "gnaf_pid": "GAWA_162280139"
   }
  },
  {
   "type": "Feature",
   "geometry": {
    "type": "Point",
    "coordinates": [
     118.029535,
     -30.880168
    ]
   },
   "properties": {
    "name": "1585 WREN ROAD WELBUNGIN 6477",
    "locID": "LOC000036586110",
    "tech": "SATELLITE",
    "upgrade": "NULL_NA",
    "gnaf_pid": "GAWA_162280237"
   }
  },
  {
   "type": "Feature",
   "geometry": {
    "type": "Point",
    "coordinates": [
     118.08192182,
     -30.68213937
    ]
   },
   "properties": {
    "name": "361 AITKEN ROAD WELBUNGIN 6477",
    "locID": "LOC000064347266",
    "tech": "SATELLITE",
    "upgrade": "NULL_NA",
    "gnaf_pid": "GAWA_162337428"
   }
  },
  {
   "type": "Feature",
   "geometry": {
    "type": "Point",
    "coordinates": [
     117.982057,
     -30.896703
    ]
   },
   "properties": {
    "name": "1103 WELBUNGIN SOUTH ROAD WELBUNGIN 6477",
    "locID": "LOC000052022743",
    "tech": "SATELLITE",
    "upgrade": "NULL_NA",
    "gnaf_pid": "GAWA_162393122"
   }
  },
  {
   "type": "Feature",
   "geometry": {
    "type": "Point",
    "coordinates": [
     118.00572435,
     -30.89785136
    ]
   },
   "properties": {
    "name": "1170 WELBUNGIN SOUTH ROAD WELBUNGIN 6477",
    "locID": "LOC000046321722",
    "tech": "SATELLITE",
    "upgrade": "NULL_NA",
    "gnaf_pid": "GAWA_162393123"
   }
  },
  {
   "type": "Feature",
   "geometry": {
    "type": "Point",
    "coordinates": [
     117.961217,
     -30.907523
    ]
   },
   "properties": {
    "name": "1004 WREN ROAD WELBUNGIN 6477",
    "locID": "LOC000082547112",
    "tech": "SATELLITE",
    "upgrade": "NULL_NA",
    "gnaf_pid": "GAWA_162393295"
   }
  },
  {
   "type": "Feature",
   "geometry": {
    "type": "Point",
    "coordinates": [
     118.05232,
     -30.900615
    ]
   },
   "properties": {
    "name": "1770 WREN ROAD WELBUNGIN 6477",
    "locID": "LOC000047750441",
    "tech": "SATELLITE",
    "upgrade": "NULL_NA",
    "gnaf_pid": "GAWA_162393296"
   }
  },
  {
   "type": "Feature",
   "geometry": {
    "type": "Point",
    "coordinates": [
     117.96464083,
     -30.93596516
    ]
   },
   "properties": {
    "name": "1014 GILHAM COOPER ROAD WELBUNGIN 6477",
    "locID": "LOC000082231169",
    "tech": "SATELLITE",
    "upgrade": "NULL_NA",
    "gnaf_pid": "GAWA_162566737"
   }
  },
  {
   "type": "Feature",
   "geometry": {
    "type": "Point",
    "coordinates": [
     117.99320686,
     -30.82471235
    ]
   },
   "properties": {
    "name": "LOT 7 SOUTH STREET WELBUNGIN 6477",
    "locID": "EiZTb3V0aCBTdCwgV2VsYnVuZ2luIFdBIDY0NzcsIEF1c3RyYWxpYSIuKiwKFAoSCeMcqZbD48orEZLAcZGzvkwiEhQKEgnBO8rvbuPKKxHwB3okOPYABA",
    "tech": "SATELLITE",
    "upgrade": "UNKNOWN",
    "gnaf_pid": "GAWA_162808794"
   }
  },
  {
   "type": "Feature",
   "geometry": {
    "type": "Point",
    "coordinates": [
     117.94890219,
     -30.67236522
    ]
   },
   "properties": {
    "name": "944 GILLETT ROAD WELBUNGIN 6477",
    "locID": "ChIJ_--uL3P-yisRSWo29pPNYmc",
    "tech": "SATELLITE",
    "upgrade": "UNKNOWN",
    "gnaf_pid": "GAWA_162876092"
   }
  },
  {
   "type": "Feature",
   "geometry": {
    "type": "Point",
    "coordinates": [
     118.00944922,
     -30.82937977
    ]
   },
   "properties": {
    "name": "LOT 8 KOORDA-BULLFINCH ROAD WELBUNGIN 6477",
    "locID": "EjFLb29yZGEtQnVsbGZpbmNoIFJkLCBXZWxidW5naW4gV0EgNjQ3NywgQXVzdHJhbGlhIi4qLAoUChIJ3XRJ5sTnyisRkLEjV20Q58ISFAoSCcE7yu9u48orEfAHeiQ49gAE",
    "tech": "SATELLITE",
    "upgrade": "UNKNOWN",
    "gnaf_pid": "GAWA_719045404"
   }
  },
  {
   "type": "Feature",
   "geometry": {
    "type": "Point",
    "coordinates": [
     118.05558167,
     -30.79838344
    ]
   },
   "properties": {
    "name": "LOT 2097 BARBALIN-KOONKOOBING ROAD WELBUNGIN 6477",
    "locID": "LOC000058166281",
    "tech": "SATELLITE",
    "upgrade": "NULL_NA",
    "gnaf_pid": "GAWA_719223844"
   }
  },
  {
   "type": "Feature",
   "geometry": {
    "type": "Point",
    "coordinates": [
     118.00555257,
     -30.83510165
    ]
   },
   "properties": {
    "name": "1966 WELBUNGIN SOUTH ROAD WELBUNGIN 6477",
    "locID": "LOC000052022743",
    "tech": "SATELLITE",
    "upgrade": "NULL_NA",
    "gnaf_pid": "GAWA_720279161"
   }
  }
 ]
}