{
 "type": "FeatureCollection",
 "generated": "2024-07-26T20:10:24.093244",
 "suburb": "WELLINGTON FOREST",
 "features": [
  {
   "type": "Feature",
   "geometry": {
    "type": "Point",
    "coordinates": [
     115.96172,
     -33.44845
    ]
   },
   "properties": {
    "name": "624 KING TREE ROAD WELLINGTON FOREST 6236",
    "locID": "LOC000089447886",
    "tech": "SATELLITE",
    "upgrade": "NULL_NA",
    "gnaf_pid": "GAWA_161513099",
    "tech_change_status": "Not Planned"
   }
  },
  {
   "type": "Feature",
   "geometry": {
    "type": "Point",
    "coordinates": [
     115.97364162,
     -33.46748336
    ]
   },
   "properties": {
    "name": "86 NEWMANS ROAD WELLINGTON FOREST 6236",
    "locID": "LOC000064499029",
    "tech": "SATELLITE",
    "upgrade": "NULL_NA",
    "gnaf_pid": "GAWA_161513886",
    "tech_change_status": "Not Planned"
   }
  },
  {
   "type": "Feature",
   "geometry": {
    "type": "Point",
    "coordinates": [
     116.01558956,
     -33.4637516
    ]
   },
   "properties": {
    "name": "4 WIGHTS ROAD WELLINGTON FOREST 6236",
    "locID": "LOC000092623270",
    "tech": "SATELLITE",
    "upgrade": "NULL_NA",
    "gnaf_pid": "GAWA_161516137",
    "tech_change_status": "Not Planned"
   }
  },
  {
   "type": "Feature",
   "geometry": {
    "type": "Point",
    "coordinates": [
     116.0152674,
     -33.47141455
    ]
   },
   "properties": {
    "name": "874 YABBERUP ROAD WELLINGTON FOREST 6236",
    "locID": "LOC000074834813",
    "tech": "SATELLITE",
    "upgrade": "NULL_NA",
    "gnaf_pid": "GAWA_161516244",
    "tech_change_status": "Not Planned"
   }
  },
  {
   "type": "Feature",
   "geometry": {
    "type": "Point",
    "coordinates": [
     116.01712,
     -33.45893
    ]
   },
   "properties": {
    "name": "1708 MUNGALUP ROAD WELLINGTON FOREST 6236",
    "locID": "LOC000008652583",
    "tech": "SATELLITE",
    "upgrade": "NULL_NA",
    "gnaf_pid": "GAWA_161698872",
    "tech_change_status": "Not Planned"
   }
  },
  {
   "type": "Feature",
   "geometry": {
    "type": "Point",
    "coordinates": [
     115.93143964,
     -33.44929383
    ]
   },
   "properties": {
    "name": "LOT 1497 KING TREE ROAD WELLINGTON FOREST 6236",
    "locID": "LOC000142478149",
    "tech": "SATELLITE",
    "upgrade": "NULL_NA",
    "gnaf_pid": "GAWA_162767233",
    "tech_change_status": "Not Planned"
   }
  },
  {
   "type": "Feature",
   "geometry": {
    "type": "Point",
    "coordinates": [
     115.91401781,
     -33.43296111
    ]
   },
   "properties": {
    "name": "333 WELLINGTON FOREST ROAD WELLINGTON FOREST 6236",
    "locID": "LOC000012918367",
    "tech": "SATELLITE",
    "upgrade": "NULL_NA",
    "gnaf_pid": "GAWA_163246020",
    "tech_change_status": "Not Planned"
   }
  }
 ]
}