{
 "type": "FeatureCollection",
 "generated": "2023-10-26T10:21:00.413970",
 "suburb": "WELLINGTON FOREST",
 "features": [
  {
   "type": "Feature",
   "geometry": {
    "type": "Point",
    "coordinates": [
     115.93143964,
     -33.44929383
    ]
   },
   "properties": {
    "name": "4059 KING TREE ROAD WELLINGTON FOREST 6236",
    "locID": "ChIJc77KczHCMSoRm_F5tamn2hc",
    "tech": "SATELLITE",
    "upgrade": "UNKNOWN",
    "gnaf_pid": "GAWA_149033723"
   }
  },
  {
   "type": "Feature",
   "geometry": {
    "type": "Point",
    "coordinates": [
     115.93143964,
     -33.44929383
    ]
   },
   "properties": {
    "name": "4984 KING TREE ROAD WELLINGTON FOREST 6236",
    "locID": "ChIJc77KczHCMSoRvno3WxbMBCg",
    "tech": "SATELLITE",
    "upgrade": "UNKNOWN",
    "gnaf_pid": "GAWA_149033724"
   }
  },
  {
   "type": "Feature",
   "geometry": {
    "type": "Point",
    "coordinates": [
     115.93143964,
     -33.44929383
    ]
   },
   "properties": {
    "name": "2978 KING TREE ROAD WELLINGTON FOREST 6236",
    "locID": "ChIJc77KczHCMSoRdPCqEC5ixOA",
    "tech": "SATELLITE",
    "upgrade": "UNKNOWN",
    "gnaf_pid": "GAWA_149033725"
   }
  },
  {
   "type": "Feature",
   "geometry": {
    "type": "Point",
    "coordinates": [
     115.86373809,
     -33.48465506
    ]
   },
   "properties": {
    "name": "2058 RATCLIFFE ROAD WELLINGTON FOREST 6236",
    "locID": "ChIJZbpAnDDDMSoRlu-cqfahBzM",
    "tech": "SATELLITE",
    "upgrade": "UNKNOWN",
    "gnaf_pid": "GAWA_160662494"
   }
  },
  {
   "type": "Feature",
   "geometry": {
    "type": "Point",
    "coordinates": [
     115.86373809,
     -33.48465506
    ]
   },
   "properties": {
    "name": "661 RATCLIFFE ROAD WELLINGTON FOREST 6236",
    "locID": "ChIJZbpAnDDDMSoRwCmis3rraX4",
    "tech": "SATELLITE",
    "upgrade": "UNKNOWN",
    "gnaf_pid": "GAWA_160662495"
   }
  },
  {
   "type": "Feature",
   "geometry": {
    "type": "Point",
    "coordinates": [
     115.86373809,
     -33.48465506
    ]
   },
   "properties": {
    "name": "2848 RATCLIFFE ROAD WELLINGTON FOREST 6236",
    "locID": "ChIJZbpAnDDDMSoRSRbiKVo2qIs",
    "tech": "SATELLITE",
    "upgrade": "UNKNOWN",
    "gnaf_pid": "GAWA_160666564"
   }
  },
  {
   "type": "Feature",
   "geometry": {
    "type": "Point",
    "coordinates": [
     115.86373809,
     -33.48465506
    ]
   },
   "properties": {
    "name": "280 RATCLIFFE ROAD WELLINGTON FOREST 6236",
    "locID": "ChIJZbpAnDDDMSoRWvxwOTISlRU",
    "tech": "SATELLITE",
    "upgrade": "UNKNOWN",
    "gnaf_pid": "GAWA_160666565"
   }
  },
  {
   "type": "Feature",
   "geometry": {
    "type": "Point",
    "coordinates": [
     115.96172,
     -33.44845
    ]
   },
   "properties": {
    "name": "624 KING TREE ROAD WELLINGTON FOREST 6236",
    "locID": "LOC000089447886",
    "tech": "SATELLITE",
    "upgrade": "NULL_NA",
    "gnaf_pid": "GAWA_161513099"
   }
  },
  {
   "type": "Feature",
   "geometry": {
    "type": "Point",
    "coordinates": [
     115.97364162,
     -33.46748336
    ]
   },
   "properties": {
    "name": "86 NEWMANS ROAD WELLINGTON FOREST 6236",
    "locID": "LOC000064499029",
    "tech": "SATELLITE",
    "upgrade": "NULL_NA",
    "gnaf_pid": "GAWA_161513886"
   }
  },
  {
   "type": "Feature",
   "geometry": {
    "type": "Point",
    "coordinates": [
     115.95065,
     -33.47559
    ]
   },
   "properties": {
    "name": "333 SOUTH ROAD WELLINGTON FOREST 6236",
    "locID": "ChIJQZEftOHDMSoRhwnFae9Sg8c",
    "tech": "SATELLITE",
    "upgrade": "UNKNOWN",
    "gnaf_pid": "GAWA_161515450"
   }
  },
  {
   "type": "Feature",
   "geometry": {
    "type": "Point",
    "coordinates": [
     116.01558956,
     -33.4637516
    ]
   },
   "properties": {
    "name": "4 WIGHTS ROAD WELLINGTON FOREST 6236",
    "locID": "LOC000092623270",
    "tech": "SATELLITE",
    "upgrade": "NULL_NA",
    "gnaf_pid": "GAWA_161516137"
   }
  },
  {
   "type": "Feature",
   "geometry": {
    "type": "Point",
    "coordinates": [
     116.01972449,
     -33.48122503
    ]
   },
   "properties": {
    "name": "753 YABBERUP ROAD WELLINGTON FOREST 6236",
    "locID": "ChIJ90owCjbHMSoRDl2YMTtwYvY",
    "tech": "SATELLITE",
    "upgrade": "UNKNOWN",
    "gnaf_pid": "GAWA_161516243"
   }
  },
  {
   "type": "Feature",
   "geometry": {
    "type": "Point",
    "coordinates": [
     116.0152674,
     -33.47141455
    ]
   },
   "properties": {
    "name": "874 YABBERUP ROAD WELLINGTON FOREST 6236",
    "locID": "LOC000074834813",
    "tech": "SATELLITE",
    "upgrade": "NULL_NA",
    "gnaf_pid": "GAWA_161516244"
   }
  },
  {
   "type": "Feature",
   "geometry": {
    "type": "Point",
    "coordinates": [
     116.0152674,
     -33.47141455
    ]
   },
   "properties": {
    "name": "857 YABBERUP ROAD WELLINGTON FOREST 6236",
    "locID": "ChIJW7SNpcnAMSoRblJXoIxLUbQ",
    "tech": "SATELLITE",
    "upgrade": "UNKNOWN",
    "gnaf_pid": "GAWA_161614001"
   }
  },
  {
   "type": "Feature",
   "geometry": {
    "type": "Point",
    "coordinates": [
     116.01712,
     -33.45893
    ]
   },
   "properties": {
    "name": "1708 MUNGALUP ROAD WELLINGTON FOREST 6236",
    "locID": "LOC000008652583",
    "tech": "SATELLITE",
    "upgrade": "NULL_NA",
    "gnaf_pid": "GAWA_161698872"
   }
  },
  {
   "type": "Feature",
   "geometry": {
    "type": "Point",
    "coordinates": [
     116.00776471,
     -33.47867505
    ]
   },
   "properties": {
    "name": "775 YABBERUP ROAD WELLINGTON FOREST 6236",
    "locID": "ChIJPQZ4sM3AMSoRUTb0e-M-IRA",
    "tech": "SATELLITE",
    "upgrade": "UNKNOWN",
    "gnaf_pid": "GAWA_161925978"
   }
  },
  {
   "type": "Feature",
   "geometry": {
    "type": "Point",
    "coordinates": [
     115.93143964,
     -33.44929383
    ]
   },
   "properties": {
    "name": "LOT 1497 KING TREE ROAD WELLINGTON FOREST 6236",
    "locID": "LOC000142478149",
    "tech": "SATELLITE",
    "upgrade": "NULL_NA",
    "gnaf_pid": "GAWA_162767233"
   }
  },
  {
   "type": "Feature",
   "geometry": {
    "type": "Point",
    "coordinates": [
     115.91401781,
     -33.43296111
    ]
   },
   "properties": {
    "name": "333 WELLINGTON FOREST ROAD WELLINGTON FOREST 6236",
    "locID": "LOC000012918367",
    "tech": "SATELLITE",
    "upgrade": "NULL_NA",
    "gnaf_pid": "GAWA_163246020"
   }
  },
  {
   "type": "Feature",
   "geometry": {
    "type": "Point",
    "coordinates": [
     115.9840124,
     -33.45554673
    ]
   },
   "properties": {
    "name": "2443 MUNGALUP ROAD WELLINGTON FOREST 6236",
    "locID": "ChIJ0UvewRrBMSoRTpG_RrZXt4g",
    "tech": "SATELLITE",
    "upgrade": "UNKNOWN",
    "gnaf_pid": "GAWA_719502818"
   }
  },
  {
   "type": "Feature",
   "geometry": {
    "type": "Point",
    "coordinates": [
     116.00280937,
     -33.49734397
    ]
   },
   "properties": {
    "name": "642 YABBERUP ROAD WELLINGTON FOREST 6236",
    "locID": "ChIJdWmGgSPHMSoR-0jWqi1tRg8",
    "tech": "SATELLITE",
    "upgrade": "UNKNOWN",
    "gnaf_pid": "GAWA_720715907"
   }
  },
  {
   "type": "Feature",
   "geometry": {
    "type": "Point",
    "coordinates": [
     116.00280937,
     -33.49734397
    ]
   },
   "properties": {
    "name": "670 SOUTH ROAD WELLINGTON FOREST 6236",
    "locID": "Ei5Tb3V0aCBSZCwgV2VsbGluZ3RvbiBGb3Jlc3QgV0EgNjIzNiwgQXVzdHJhbGlhIi4qLAoUChIJSaSuLUPBMSoRnJuQ-I2lVlYSFAoSCfkvbGz26TEqEZDxeSQ49gAE",
    "tech": "SATELLITE",
    "upgrade": "UNKNOWN",
    "gnaf_pid": "GAWA_720716883"
   }
  },
  {
   "type": "Feature",
   "geometry": {
    "type": "Point",
    "coordinates": [
     116.00280937,
     -33.49734397
    ]
   },
   "properties": {
    "name": "928 SOUTH ROAD WELLINGTON FOREST 6236",
    "locID": "Ei5Tb3V0aCBSZCwgV2VsbGluZ3RvbiBGb3Jlc3QgV0EgNjIzNiwgQXVzdHJhbGlhIi4qLAoUChIJSaSuLUPBMSoRnJuQ-I2lVlYSFAoSCfkvbGz26TEqEZDxeSQ49gAE",
    "tech": "SATELLITE",
    "upgrade": "UNKNOWN",
    "gnaf_pid": "GAWA_720717047"
   }
  },
  {
   "type": "Feature",
   "geometry": {
    "type": "Point",
    "coordinates": [
     116.00280937,
     -33.49734397
    ]
   },
   "properties": {
    "name": "696 SOUTH ROAD WELLINGTON FOREST 6236",
    "locID": "Ei5Tb3V0aCBSZCwgV2VsbGluZ3RvbiBGb3Jlc3QgV0EgNjIzNiwgQXVzdHJhbGlhIi4qLAoUChIJSaSuLUPBMSoRnJuQ-I2lVlYSFAoSCfkvbGz26TEqEZDxeSQ49gAE",
    "tech": "SATELLITE",
    "upgrade": "UNKNOWN",
    "gnaf_pid": "GAWA_720718879"
   }
  },
  {
   "type": "Feature",
   "geometry": {
    "type": "Point",
    "coordinates": [
     116.00280937,
     -33.49734397
    ]
   },
   "properties": {
    "name": "45 SNELLING ROAD WELLINGTON FOREST 6236",
    "locID": "ChIJdWmGgSPHMSoRApKcCl0r2lc",
    "tech": "SATELLITE",
    "upgrade": "UNKNOWN",
    "gnaf_pid": "GAWA_720719308"
   }
  },
  {
   "type": "Feature",
   "geometry": {
    "type": "Point",
    "coordinates": [
     116.00280937,
     -33.49734397
    ]
   },
   "properties": {
    "name": "562 SOUTH ROAD WELLINGTON FOREST 6236",
    "locID": "ChIJdWmGgSPHMSoRyZ2VAyDymxQ",
    "tech": "SATELLITE",
    "upgrade": "UNKNOWN",
    "gnaf_pid": "GAWA_720719471"
   }
  },
  {
   "type": "Feature",
   "geometry": {
    "type": "Point",
    "coordinates": [
     116.00313137,
     -33.46056084
    ]
   },
   "properties": {
    "name": "645 MUNGALUP ROAD WELLINGTON FOREST 6236",
    "locID": "ChIJ6f5SX8PAMSoR8YCd8imSYJs",
    "tech": "SATELLITE",
    "upgrade": "UNKNOWN",
    "gnaf_pid": "GAWA_720889148"
   }
  }
 ]
}