{
 "type": "FeatureCollection",
 "generated": "2024-09-25T07:51:01.516087",
 "suburb": "WILBERFORCE",
 "features": [
  {
   "type": "Feature",
   "geometry": {
    "type": "Point",
    "coordinates": [
     116.77826352,
     -31.75718567
    ]
   },
   "properties": {
    "name": "LOT 3 KARABINE ROAD WILBERFORCE 6302",
    "locID": "LOC000086774546",
    "tech": "SATELLITE",
    "upgrade": "NULL_NA",
    "gnaf_pid": "GAWA_148295552",
    "tech_change_status": "Not Planned"
   }
  },
  {
   "type": "Feature",
   "geometry": {
    "type": "Point",
    "coordinates": [
     116.72722718,
     -31.7941073
    ]
   },
   "properties": {
    "name": "LOT 33 SPENCERS BROOK-YORK ROAD WILBERFORCE 6302",
    "locID": "LOC000093997134",
    "tech": "WIRELESS",
    "upgrade": "NULL_NA",
    "gnaf_pid": "GAWA_161582398",
    "tech_change_status": "Not Planned",
    "program_type": "Fixed Wireless and Satellite Upgrade Program",
    "target_eligibility_quarter": "NA"
   }
  },
  {
   "type": "Feature",
   "geometry": {
    "type": "Point",
    "coordinates": [
     116.639869,
     -31.840912
    ]
   },
   "properties": {
    "name": "447 BOYERCUTTY ROAD WILBERFORCE 6302",
    "locID": "LOC000021467424",
    "tech": "WIRELESS",
    "upgrade": "NULL_NA",
    "gnaf_pid": "GAWA_162485396",
    "tech_change_status": "Not Planned",
    "program_type": "Fixed Wireless and Satellite Upgrade Program",
    "target_eligibility_quarter": "NA"
   }
  },
  {
   "type": "Feature",
   "geometry": {
    "type": "Point",
    "coordinates": [
     116.710745,
     -31.783405
    ]
   },
   "properties": {
    "name": "13 HAMERSLEY SIDING ROAD WILBERFORCE 6302",
    "locID": "LOC000003092841",
    "tech": "SATELLITE",
    "upgrade": "NULL_NA",
    "gnaf_pid": "GAWA_162487120",
    "tech_change_status": "Not Planned"
   }
  },
  {
   "type": "Feature",
   "geometry": {
    "type": "Point",
    "coordinates": [
     116.71059177,
     -31.81560794
    ]
   },
   "properties": {
    "name": "381 HAMERSLEY SIDING ROAD WILBERFORCE 6302",
    "locID": "LOC000047767695",
    "tech": "WIRELESS",
    "upgrade": "NULL_NA",
    "gnaf_pid": "GAWA_162487121",
    "tech_change_status": "Not Planned",
    "program_type": "Fixed Wireless and Satellite Upgrade Program",
    "target_eligibility_quarter": "NA"
   }
  },
  {
   "type": "Feature",
   "geometry": {
    "type": "Point",
    "coordinates": [
     116.66866811,
     -31.83016274
    ]
   },
   "properties": {
    "name": "806 HAMERSLEY SIDING ROAD WILBERFORCE 6302",
    "locID": "LOC000004607830",
    "tech": "SATELLITE",
    "upgrade": "NULL_NA",
    "gnaf_pid": "GAWA_162487122",
    "tech_change_status": "Not Planned"
   }
  },
  {
   "type": "Feature",
   "geometry": {
    "type": "Point",
    "coordinates": [
     116.772603,
     -31.745524
    ]
   },
   "properties": {
    "name": "143 KARABINE ROAD WILBERFORCE 6302",
    "locID": "LOC000044893525",
    "tech": "WIRELESS",
    "upgrade": "NULL_NA",
    "gnaf_pid": "GAWA_162487489",
    "tech_change_status": "Not Planned",
    "program_type": "Fixed Wireless and Satellite Upgrade Program",
    "target_eligibility_quarter": "NA"
   }
  },
  {
   "type": "Feature",
   "geometry": {
    "type": "Point",
    "coordinates": [
     116.80626407,
     -31.74976328
    ]
   },
   "properties": {
    "name": "286 KARABINE ROAD WILBERFORCE 6302",
    "locID": "LOC000086774546",
    "tech": "SATELLITE",
    "upgrade": "NULL_NA",
    "gnaf_pid": "GAWA_162487490",
    "tech_change_status": "Not Planned"
   }
  },
  {
   "type": "Feature",
   "geometry": {
    "type": "Point",
    "coordinates": [
     116.802198,
     -31.743628
    ]
   },
   "properties": {
    "name": "287 KARABINE ROAD WILBERFORCE 6302",
    "locID": "LOC000094177167",
    "tech": "SATELLITE",
    "upgrade": "NULL_NA",
    "gnaf_pid": "GAWA_162487491",
    "tech_change_status": "Not Planned"
   }
  },
  {
   "type": "Feature",
   "geometry": {
    "type": "Point",
    "coordinates": [
     116.619154,
     -31.82065915
    ]
   },
   "properties": {
    "name": "1219 MOKINE ROAD WILBERFORCE 6302",
    "locID": "LOC000100697030",
    "tech": "SATELLITE",
    "upgrade": "NULL_NA",
    "gnaf_pid": "GAWA_162488261",
    "tech_change_status": "Not Planned"
   }
  },
  {
   "type": "Feature",
   "geometry": {
    "type": "Point",
    "coordinates": [
     116.619154,
     -31.82065915
    ]
   },
   "properties": {
    "name": "1401 MOKINE ROAD WILBERFORCE 6302",
    "locID": "LOC000033657226",
    "tech": "SATELLITE",
    "upgrade": "NULL_NA",
    "gnaf_pid": "GAWA_162488263",
    "tech_change_status": "Not Planned"
   }
  },
  {
   "type": "Feature",
   "geometry": {
    "type": "Point",
    "coordinates": [
     116.622613,
     -31.79043
    ]
   },
   "properties": {
    "name": "1665 MOKINE ROAD WILBERFORCE 6302",
    "locID": "LOC000092403435",
    "tech": "WIRELESS",
    "upgrade": "NULL_NA",
    "gnaf_pid": "GAWA_162488264",
    "tech_change_status": "Not Planned",
    "program_type": "Fixed Wireless and Satellite Upgrade Program",
    "target_eligibility_quarter": "NA"
   }
  },
  {
   "type": "Feature",
   "geometry": {
    "type": "Point",
    "coordinates": [
     116.781413,
     -31.766876
    ]
   },
   "properties": {
    "name": "1443 NORTHAM-YORK ROAD WILBERFORCE 6302",
    "locID": "LOC000031944716",
    "tech": "WIRELESS",
    "upgrade": "NULL_NA",
    "gnaf_pid": "GAWA_162488542",
    "tech_change_status": "Not Planned",
    "program_type": "Fixed Wireless and Satellite Upgrade Program",
    "target_eligibility_quarter": "NA"
   }
  },
  {
   "type": "Feature",
   "geometry": {
    "type": "Point",
    "coordinates": [
     116.672061,
     -31.772229
    ]
   },
   "properties": {
    "name": "2128 SPENCERS BROOK-YORK ROAD WILBERFORCE 6302",
    "locID": "LOC000077770820",
    "tech": "NULL",
    "upgrade": "NULL_NA",
    "gnaf_pid": "GAWA_162489975",
    "tech_change_status": "Not Planned"
   }
  },
  {
   "type": "Feature",
   "geometry": {
    "type": "Point",
    "coordinates": [
     116.71478419,
     -31.78671482
    ]
   },
   "properties": {
    "name": "2500 SPENCERS BROOK-YORK ROAD WILBERFORCE 6302",
    "locID": "LOC000019083968",
    "tech": "SATELLITE",
    "upgrade": "NULL_NA",
    "gnaf_pid": "GAWA_162489976",
    "tech_change_status": "Not Planned"
   }
  },
  {
   "type": "Feature",
   "geometry": {
    "type": "Point",
    "coordinates": [
     116.74733494,
     -31.79855036
    ]
   },
   "properties": {
    "name": "2946 SPENCERS BROOK-YORK ROAD WILBERFORCE 6302",
    "locID": "LOC000029503008",
    "tech": "WIRELESS",
    "upgrade": "NULL_NA",
    "gnaf_pid": "GAWA_162489977",
    "tech_change_status": "Not Planned",
    "program_type": "Fixed Wireless and Satellite Upgrade Program",
    "target_eligibility_quarter": "NA"
   }
  },
  {
   "type": "Feature",
   "geometry": {
    "type": "Point",
    "coordinates": [
     116.74733494,
     -31.79855036
    ]
   },
   "properties": {
    "name": "2952 SPENCERS BROOK-YORK ROAD WILBERFORCE 6302",
    "locID": "LOC000066433529",
    "tech": "WIRELESS",
    "upgrade": "NULL_NA",
    "gnaf_pid": "GAWA_162489978",
    "tech_change_status": "Not Planned",
    "program_type": "Fixed Wireless and Satellite Upgrade Program",
    "target_eligibility_quarter": "NA"
   }
  },
  {
   "type": "Feature",
   "geometry": {
    "type": "Point",
    "coordinates": [
     116.68263625,
     -31.78480491
    ]
   },
   "properties": {
    "name": "136 WATERFALL ROAD WILBERFORCE 6302",
    "locID": "LOC000092557764",
    "tech": "WIRELESS",
    "upgrade": "NULL_NA",
    "gnaf_pid": "GAWA_162490718",
    "tech_change_status": "Not Planned",
    "program_type": "Fixed Wireless and Satellite Upgrade Program",
    "target_eligibility_quarter": "NA"
   }
  },
  {
   "type": "Feature",
   "geometry": {
    "type": "Point",
    "coordinates": [
     116.67394715,
     -31.80752762
    ]
   },
   "properties": {
    "name": "501 WATERFALL ROAD WILBERFORCE 6302",
    "locID": "LOC000070436685",
    "tech": "WIRELESS",
    "upgrade": "NULL_NA",
    "gnaf_pid": "GAWA_162490720",
    "tech_change_status": "Not Planned",
    "program_type": "Fixed Wireless and Satellite Upgrade Program",
    "target_eligibility_quarter": "NA"
   }
  },
  {
   "type": "Feature",
   "geometry": {
    "type": "Point",
    "coordinates": [
     116.74474797,
     -31.76094077
    ]
   },
   "properties": {
    "name": "480 WILBERFORCE ROAD WILBERFORCE 6302",
    "locID": "LOC000055141795",
    "tech": "SATELLITE",
    "upgrade": "NULL_NA",
    "gnaf_pid": "GAWA_162490799",
    "tech_change_status": "Not Planned"
   }
  },
  {
   "type": "Feature",
   "geometry": {
    "type": "Point",
    "coordinates": [
     116.74474797,
     -31.76094077
    ]
   },
   "properties": {
    "name": "494 WILBERFORCE ROAD WILBERFORCE 6302",
    "locID": "LOC000089137603",
    "tech": "WIRELESS",
    "upgrade": "NULL_NA",
    "gnaf_pid": "GAWA_162490800",
    "tech_change_status": "Not Planned",
    "program_type": "Fixed Wireless and Satellite Upgrade Program",
    "target_eligibility_quarter": "NA"
   }
  },
  {
   "type": "Feature",
   "geometry": {
    "type": "Point",
    "coordinates": [
     116.724739,
     -31.74915025
    ]
   },
   "properties": {
    "name": "496 WILBERFORCE ROAD WILBERFORCE 6302",
    "locID": "LOC000094033192",
    "tech": "WIRELESS",
    "upgrade": "NULL_NA",
    "gnaf_pid": "GAWA_162490801",
    "tech_change_status": "Not Planned",
    "program_type": "Fixed Wireless and Satellite Upgrade Program",
    "target_eligibility_quarter": "NA"
   }
  },
  {
   "type": "Feature",
   "geometry": {
    "type": "Point",
    "coordinates": [
     116.68352879,
     -31.79570041
    ]
   },
   "properties": {
    "name": "148 WATERFALL ROAD WILBERFORCE 6302",
    "locID": "LOC000057165503",
    "tech": "WIRELESS",
    "upgrade": "NULL_NA",
    "gnaf_pid": "GAWA_163157082",
    "tech_change_status": "Not Planned"
   }
  }
 ]
}