{
 "type": "FeatureCollection",
 "generated": "2024-07-26T21:00:51.270559",
 "suburb": "WILGOYNE",
 "features": [
  {
   "type": "Feature",
   "geometry": {
    "type": "Point",
    "coordinates": [
     118.28396718,
     -30.66697596
    ]
   },
   "properties": {
    "name": "LOT 7011 MCINNES ROAD WILGOYNE 6479",
    "locID": "LOC000011189493",
    "tech": "SATELLITE",
    "upgrade": "NULL_NA",
    "gnaf_pid": "GAWA_161605630",
    "tech_change_status": "Not Planned"
   }
  },
  {
   "type": "Feature",
   "geometry": {
    "type": "Point",
    "coordinates": [
     118.384294,
     -30.684467
    ]
   },
   "properties": {
    "name": "1707 BONNIE ROCK-LAKE BROWN ROAD WILGOYNE 6479",
    "locID": "LOC000079099477",
    "tech": "SATELLITE",
    "upgrade": "NULL_NA",
    "gnaf_pid": "GAWA_162390073",
    "tech_change_status": "Not Planned"
   }
  },
  {
   "type": "Feature",
   "geometry": {
    "type": "Point",
    "coordinates": [
     118.38688834,
     -30.78294575
    ]
   },
   "properties": {
    "name": "2923 BONNIE ROCK-LAKE BROWN ROAD WILGOYNE 6479",
    "locID": "LOC000079137107",
    "tech": "SATELLITE",
    "upgrade": "NULL_NA",
    "gnaf_pid": "GAWA_162390074",
    "tech_change_status": "Not Planned"
   }
  },
  {
   "type": "Feature",
   "geometry": {
    "type": "Point",
    "coordinates": [
     118.374629,
     -30.811207
    ]
   },
   "properties": {
    "name": "3230 BONNIE ROCK-LAKE BROWN ROAD WILGOYNE 6479",
    "locID": "LOC000050014681",
    "tech": "SATELLITE",
    "upgrade": "NULL_NA",
    "gnaf_pid": "GAWA_162390075",
    "tech_change_status": "Not Planned"
   }
  },
  {
   "type": "Feature",
   "geometry": {
    "type": "Point",
    "coordinates": [
     118.283903,
     -30.808523
    ]
   },
   "properties": {
    "name": "682 CLAMP ROAD WILGOYNE 6479",
    "locID": "LOC000047987458",
    "tech": "WIRELESS",
    "upgrade": "NULL_NA",
    "gnaf_pid": "GAWA_162390403",
    "tech_change_status": "Not Planned",
    "program_type": "Fixed Wireless and Satellite Upgrade Program",
    "target_eligibility_quarter": "Dec 2024"
   }
  },
  {
   "type": "Feature",
   "geometry": {
    "type": "Point",
    "coordinates": [
     118.34322727,
     -30.68427421
    ]
   },
   "properties": {
    "name": "405 COMERFORD ROAD WILGOYNE 6479",
    "locID": "LOC000010679302",
    "tech": "SATELLITE",
    "upgrade": "NULL_NA",
    "gnaf_pid": "GAWA_162390480",
    "tech_change_status": "Not Planned"
   }
  },
  {
   "type": "Feature",
   "geometry": {
    "type": "Point",
    "coordinates": [
     118.496597,
     -30.729356
    ]
   },
   "properties": {
    "name": "935 FORTY SIX GATE ROAD WILGOYNE 6479",
    "locID": "LOC000070914762",
    "tech": "SATELLITE",
    "upgrade": "NULL_NA",
    "gnaf_pid": "GAWA_162390897",
    "tech_change_status": "Not Planned"
   }
  },
  {
   "type": "Feature",
   "geometry": {
    "type": "Point",
    "coordinates": [
     118.32078271,
     -30.65206817
    ]
   },
   "properties": {
    "name": "938 GRAHAM ROAD WILGOYNE 6479",
    "locID": "LOC000101135630",
    "tech": "SATELLITE",
    "upgrade": "NULL_NA",
    "gnaf_pid": "GAWA_162390985",
    "tech_change_status": "Not Planned"
   }
  },
  {
   "type": "Feature",
   "geometry": {
    "type": "Point",
    "coordinates": [
     118.361266,
     -30.719806
    ]
   },
   "properties": {
    "name": "1489 HARRY ROAD WILGOYNE 6479",
    "locID": "LOC000043414406",
    "tech": "SATELLITE",
    "upgrade": "NULL_NA",
    "gnaf_pid": "GAWA_162391094",
    "tech_change_status": "Not Planned"
   }
  },
  {
   "type": "Feature",
   "geometry": {
    "type": "Point",
    "coordinates": [
     118.288364,
     -30.654765
    ]
   },
   "properties": {
    "name": "340 MCINNES ROAD WILGOYNE 6479",
    "locID": "LOC000011189493",
    "tech": "SATELLITE",
    "upgrade": "NULL_NA",
    "gnaf_pid": "GAWA_162391753",
    "tech_change_status": "Not Planned"
   }
  },
  {
   "type": "Feature",
   "geometry": {
    "type": "Point",
    "coordinates": [
     118.45045755,
     -30.80930313
    ]
   },
   "properties": {
    "name": "516 MOTT ROAD WILGOYNE 6479",
    "locID": "LOC000142449447",
    "tech": "SATELLITE",
    "upgrade": "NULL_NA",
    "gnaf_pid": "GAWA_162391927",
    "tech_change_status": "Not Planned"
   }
  },
  {
   "type": "Feature",
   "geometry": {
    "type": "Point",
    "coordinates": [
     118.35351396,
     -30.8475127
    ]
   },
   "properties": {
    "name": "1369 MUKINBUDIN NORTH EAST ROAD WILGOYNE 6479",
    "locID": "LOC000017305344",
    "tech": "SATELLITE",
    "upgrade": "NULL_NA",
    "gnaf_pid": "GAWA_162392106",
    "tech_change_status": "Not Planned"
   }
  },
  {
   "type": "Feature",
   "geometry": {
    "type": "Point",
    "coordinates": [
     118.41985338,
     -30.7208028
    ]
   },
   "properties": {
    "name": "995 OGILVIE ROAD WILGOYNE 6479",
    "locID": "LOC000074548612",
    "tech": "SATELLITE",
    "upgrade": "NULL_NA",
    "gnaf_pid": "GAWA_162392222",
    "tech_change_status": "Not Planned"
   }
  },
  {
   "type": "Feature",
   "geometry": {
    "type": "Point",
    "coordinates": [
     118.436046,
     -30.830724
    ]
   },
   "properties": {
    "name": "244 QUANTA CUTTING NORTH ROAD WILGOYNE 6479",
    "locID": "LOC000077894760",
    "tech": "SATELLITE",
    "upgrade": "NULL_NA",
    "gnaf_pid": "GAWA_162392432",
    "tech_change_status": "Not Planned"
   }
  },
  {
   "type": "Feature",
   "geometry": {
    "type": "Point",
    "coordinates": [
     118.42837306,
     -30.76640912
    ]
   },
   "properties": {
    "name": "996 QUANTA CUTTING NORTH ROAD WILGOYNE 6479",
    "locID": "LOC000061317570",
    "tech": "SATELLITE",
    "upgrade": "NULL_NA",
    "gnaf_pid": "GAWA_162392433",
    "tech_change_status": "Not Planned"
   }
  },
  {
   "type": "Feature",
   "geometry": {
    "type": "Point",
    "coordinates": [
     118.317674,
     -30.762358
    ]
   },
   "properties": {
    "name": "1021 WILGOYNE ROAD WILGOYNE 6479",
    "locID": "LOC000069410586",
    "tech": "SATELLITE",
    "upgrade": "NULL_NA",
    "gnaf_pid": "GAWA_162393220",
    "tech_change_status": "Not Planned"
   }
  },
  {
   "type": "Feature",
   "geometry": {
    "type": "Point",
    "coordinates": [
     118.306834,
     -30.771359
    ]
   },
   "properties": {
    "name": "826 WILGOYNE ROAD WILGOYNE 6479",
    "locID": "LOC000061099599",
    "tech": "SATELLITE",
    "upgrade": "NULL_NA",
    "gnaf_pid": "GAWA_162393221",
    "tech_change_status": "Not Planned"
   }
  },
  {
   "type": "Feature",
   "geometry": {
    "type": "Point",
    "coordinates": [
     118.352317,
     -30.737137
    ]
   },
   "properties": {
    "name": "1296 WYMOND ROAD WILGOYNE 6479",
    "locID": "LOC000026966634",
    "tech": "SATELLITE",
    "upgrade": "NULL_NA",
    "gnaf_pid": "GAWA_162393299",
    "tech_change_status": "Not Planned"
   }
  },
  {
   "type": "Feature",
   "geometry": {
    "type": "Point",
    "coordinates": [
     118.353655,
     -30.774693
    ]
   },
   "properties": {
    "name": "958 WYMOND ROAD WILGOYNE 6479",
    "locID": "LOC000013818497",
    "tech": "SATELLITE",
    "upgrade": "NULL_NA",
    "gnaf_pid": "GAWA_162393300",
    "tech_change_status": "Not Planned"
   }
  },
  {
   "type": "Feature",
   "geometry": {
    "type": "Point",
    "coordinates": [
     118.35351396,
     -30.8475127
    ]
   },
   "properties": {
    "name": "1371 MUKINBUDIN NORTH EAST ROAD WILGOYNE 6479",
    "locID": "LOC000057106846",
    "tech": "SATELLITE",
    "upgrade": "NULL_NA",
    "gnaf_pid": "GAWA_162412191",
    "tech_change_status": "Not Planned"
   }
  }
 ]
}