{
 "type": "FeatureCollection",
 "generated": "2024-09-06T23:55:27.508066",
 "suburb": "WYENING",
 "features": [
  {
   "type": "Feature",
   "geometry": {
    "type": "Point",
    "coordinates": [
     116.489206,
     -31.189543
    ]
   },
   "properties": {
    "name": "8 LANDON STREET WYENING 6568",
    "locID": "LOC000090373285",
    "tech": "NULL",
    "upgrade": "NULL_NA",
    "gnaf_pid": "GAWA_146970676",
    "tech_change_status": "Not Planned"
   }
  },
  {
   "type": "Feature",
   "geometry": {
    "type": "Point",
    "coordinates": [
     116.543604,
     -31.161627
    ]
   },
   "properties": {
    "name": "1295 BEHANGING ROAD WYENING 6568",
    "locID": "LOC000081032081",
    "tech": "SATELLITE",
    "upgrade": "NULL_NA",
    "gnaf_pid": "GAWA_162259293",
    "tech_change_status": "Not Planned"
   }
  },
  {
   "type": "Feature",
   "geometry": {
    "type": "Point",
    "coordinates": [
     116.606362,
     -31.109757
    ]
   },
   "properties": {
    "name": "106 BIG SPRINGS ROAD WYENING 6568",
    "locID": "LOC000088380681",
    "tech": "SATELLITE",
    "upgrade": "NULL_NA",
    "gnaf_pid": "GAWA_162259405",
    "tech_change_status": "Not Planned"
   }
  },
  {
   "type": "Feature",
   "geometry": {
    "type": "Point",
    "coordinates": [
     116.47048521,
     -31.16873457
    ]
   },
   "properties": {
    "name": "4876 BINDI BINDI-TOODYAY ROAD WYENING 6568",
    "locID": "LOC000007885064",
    "tech": "SATELLITE",
    "upgrade": "NULL_NA",
    "gnaf_pid": "GAWA_162259457",
    "tech_change_status": "Not Planned"
   }
  },
  {
   "type": "Feature",
   "geometry": {
    "type": "Point",
    "coordinates": [
     116.46504,
     -31.146699
    ]
   },
   "properties": {
    "name": "5258 BINDI BINDI-TOODYAY ROAD WYENING 6568",
    "locID": "LOC000110144760",
    "tech": "WIRELESS",
    "upgrade": "NULL_NA",
    "gnaf_pid": "GAWA_162259458",
    "tech_change_status": "Not Planned",
    "program_type": "Fixed Wireless and Satellite Upgrade Program",
    "target_eligibility_quarter": "Dec 2024"
   }
  },
  {
   "type": "Feature",
   "geometry": {
    "type": "Point",
    "coordinates": [
     116.41853588,
     -31.15319193
    ]
   },
   "properties": {
    "name": "375 CALCARRA WEST ROAD WYENING 6568",
    "locID": "LOC000043251670",
    "tech": "WIRELESS",
    "upgrade": "NULL_NA",
    "gnaf_pid": "GAWA_162260132",
    "tech_change_status": "Not Planned",
    "program_type": "Fixed Wireless and Satellite Upgrade Program",
    "target_eligibility_quarter": "Dec 2024"
   }
  },
  {
   "type": "Feature",
   "geometry": {
    "type": "Point",
    "coordinates": [
     116.60795883,
     -31.1506277
    ]
   },
   "properties": {
    "name": "2036 CALINGIRI-GOOMALLING ROAD WYENING 6568",
    "locID": "LOC000019525029",
    "tech": "SATELLITE",
    "upgrade": "NULL_NA",
    "gnaf_pid": "GAWA_162260138",
    "tech_change_status": "Not Planned"
   }
  },
  {
   "type": "Feature",
   "geometry": {
    "type": "Point",
    "coordinates": [
     116.52091738,
     -31.12458637
    ]
   },
   "properties": {
    "name": "682 CALINGIRI-GOOMALLING ROAD WYENING 6568",
    "locID": "LOC000079887461",
    "tech": "SATELLITE",
    "upgrade": "NULL_NA",
    "gnaf_pid": "GAWA_162260139",
    "tech_change_status": "Not Planned"
   }
  },
  {
   "type": "Feature",
   "geometry": {
    "type": "Point",
    "coordinates": [
     116.45678891,
     -31.17309753
    ]
   },
   "properties": {
    "name": "101 DARRAGH ROAD WYENING 6568",
    "locID": "LOC000027861756",
    "tech": "SATELLITE",
    "upgrade": "NULL_NA",
    "gnaf_pid": "GAWA_162261662",
    "tech_change_status": "Not Planned"
   }
  },
  {
   "type": "Feature",
   "geometry": {
    "type": "Point",
    "coordinates": [
     116.44627,
     -31.18063
    ]
   },
   "properties": {
    "name": "293 DARRAGH ROAD WYENING 6568",
    "locID": "LOC000016483303",
    "tech": "WIRELESS",
    "upgrade": "NULL_NA",
    "gnaf_pid": "GAWA_162261663",
    "tech_change_status": "Not Planned",
    "program_type": "Fixed Wireless and Satellite Upgrade Program",
    "target_eligibility_quarter": "Dec 2024"
   }
  },
  {
   "type": "Feature",
   "geometry": {
    "type": "Point",
    "coordinates": [
     116.55733674,
     -31.11993187
    ]
   },
   "properties": {
    "name": "370 EDMONDS ROAD WYENING 6568",
    "locID": "LOC000073249414",
    "tech": "SATELLITE",
    "upgrade": "NULL_NA",
    "gnaf_pid": "GAWA_162262093",
    "tech_change_status": "Not Planned"
   }
  },
  {
   "type": "Feature",
   "geometry": {
    "type": "Point",
    "coordinates": [
     116.47827,
     -31.168136
    ]
   },
   "properties": {
    "name": "291 FORDHAM ROAD WYENING 6568",
    "locID": "LOC000100832922",
    "tech": "WIRELESS",
    "upgrade": "NULL_NA",
    "gnaf_pid": "GAWA_162262710",
    "tech_change_status": "Not Planned",
    "program_type": "Fixed Wireless and Satellite Upgrade Program",
    "target_eligibility_quarter": "Dec 2024"
   }
  },
  {
   "type": "Feature",
   "geometry": {
    "type": "Point",
    "coordinates": [
     116.49295317,
     -31.15336319
    ]
   },
   "properties": {
    "name": "394 FORDHAM ROAD WYENING 6568",
    "locID": "LOC000068102850",
    "tech": "SATELLITE",
    "upgrade": "NULL_NA",
    "gnaf_pid": "GAWA_162262711",
    "tech_change_status": "Not Planned"
   }
  },
  {
   "type": "Feature",
   "geometry": {
    "type": "Point",
    "coordinates": [
     116.44970887,
     -31.20587119
    ]
   },
   "properties": {
    "name": "4705 WYENING WEST ROAD WYENING 6568",
    "locID": "LOC000058335945",
    "tech": "NULL",
    "upgrade": "NULL_NA",
    "gnaf_pid": "GAWA_162271837",
    "tech_change_status": "Not Planned"
   }
  },
  {
   "type": "Feature",
   "geometry": {
    "type": "Point",
    "coordinates": [
     116.45914308,
     -31.1850316
    ]
   },
   "properties": {
    "name": "4705 BINDI BINDI-TOODYAY ROAD WYENING 6568",
    "locID": "LOC000058335945",
    "tech": "NULL",
    "upgrade": "NULL_NA",
    "gnaf_pid": "GAWA_162276118",
    "tech_change_status": "Not Planned"
   }
  },
  {
   "type": "Feature",
   "geometry": {
    "type": "Point",
    "coordinates": [
     116.55733674,
     -31.11993187
    ]
   },
   "properties": {
    "name": "412 EDMONDS ROAD WYENING 6568",
    "locID": "LOC000045887556",
    "tech": "SATELLITE",
    "upgrade": "NULL_NA",
    "gnaf_pid": "GAWA_162276963",
    "tech_change_status": "Not Planned"
   }
  },
  {
   "type": "Feature",
   "geometry": {
    "type": "Point",
    "coordinates": [
     116.488193,
     -31.188205
    ]
   },
   "properties": {
    "name": "38 LANDON STREET WYENING 6568",
    "locID": "LOC000030540503",
    "tech": "NULL",
    "upgrade": "NULL_NA",
    "gnaf_pid": "GAWA_162278017",
    "tech_change_status": "Not Planned"
   }
  },
  {
   "type": "Feature",
   "geometry": {
    "type": "Point",
    "coordinates": [
     116.42709485,
     -31.20446952
    ]
   },
   "properties": {
    "name": "428 WYENING WEST ROAD WYENING 6568",
    "locID": "LOC000013798664",
    "tech": "NULL",
    "upgrade": "NULL_NA",
    "gnaf_pid": "GAWA_162280240",
    "tech_change_status": "Not Planned"
   }
  }
 ]
}