{
 "type": "FeatureCollection",
 "generated": "2024-01-23T11:17:44.872619",
 "suburb": "WYENING",
 "features": [
  {
   "type": "Feature",
   "geometry": {
    "type": "Point",
    "coordinates": [
     116.489206,
     -31.189543
    ]
   },
   "properties": {
    "name": "8 LANDON STREET WYENING 6568",
    "locID": "LOC000090373285",
    "tech": "SATELLITE",
    "upgrade": "NULL_NA",
    "gnaf_pid": "GAWA_146970676"
   }
  },
  {
   "type": "Feature",
   "geometry": {
    "type": "Point",
    "coordinates": [
     116.543604,
     -31.161627
    ]
   },
   "properties": {
    "name": "1295 BEHANGING ROAD WYENING 6568",
    "locID": "LOC000081032081",
    "tech": "SATELLITE",
    "upgrade": "NULL_NA",
    "gnaf_pid": "GAWA_162259293"
   }
  },
  {
   "type": "Feature",
   "geometry": {
    "type": "Point",
    "coordinates": [
     116.606362,
     -31.109757
    ]
   },
   "properties": {
    "name": "106 BIG SPRINGS ROAD WYENING 6568",
    "locID": "LOC000088380681",
    "tech": "SATELLITE",
    "upgrade": "NULL_NA",
    "gnaf_pid": "GAWA_162259405"
   }
  },
  {
   "type": "Feature",
   "geometry": {
    "type": "Point",
    "coordinates": [
     116.47048521,
     -31.16873457
    ]
   },
   "properties": {
    "name": "4876 BINDI BINDI-TOODYAY ROAD WYENING 6568",
    "locID": "LOC000007885064",
    "tech": "SATELLITE",
    "upgrade": "NULL_NA",
    "gnaf_pid": "GAWA_162259457"
   }
  },
  {
   "type": "Feature",
   "geometry": {
    "type": "Point",
    "coordinates": [
     116.46504,
     -31.146699
    ]
   },
   "properties": {
    "name": "5258 BINDI BINDI-TOODYAY ROAD WYENING 6568",
    "locID": "LOC000110144760",
    "tech": "WIRELESS",
    "upgrade": "NULL_NA",
    "gnaf_pid": "GAWA_162259458"
   }
  },
  {
   "type": "Feature",
   "geometry": {
    "type": "Point",
    "coordinates": [
     116.41853588,
     -31.15319193
    ]
   },
   "properties": {
    "name": "375 CALCARRA WEST ROAD WYENING 6568",
    "locID": "LOC000043251670",
    "tech": "WIRELESS",
    "upgrade": "NULL_NA",
    "gnaf_pid": "GAWA_162260132"
   }
  },
  {
   "type": "Feature",
   "geometry": {
    "type": "Point",
    "coordinates": [
     116.60795883,
     -31.1506277
    ]
   },
   "properties": {
    "name": "2036 CALINGIRI-GOOMALLING ROAD WYENING 6568",
    "locID": "LOC000019525029",
    "tech": "SATELLITE",
    "upgrade": "NULL_NA",
    "gnaf_pid": "GAWA_162260138"
   }
  },
  {
   "type": "Feature",
   "geometry": {
    "type": "Point",
    "coordinates": [
     116.52091738,
     -31.12458637
    ]
   },
   "properties": {
    "name": "682 CALINGIRI-GOOMALLING ROAD WYENING 6568",
    "locID": "LOC000079887461",
    "tech": "SATELLITE",
    "upgrade": "NULL_NA",
    "gnaf_pid": "GAWA_162260139"
   }
  },
  {
   "type": "Feature",
   "geometry": {
    "type": "Point",
    "coordinates": [
     116.45678891,
     -31.17309753
    ]
   },
   "properties": {
    "name": "101 DARRAGH ROAD WYENING 6568",
    "locID": "LOC000027861756",
    "tech": "SATELLITE",
    "upgrade": "NULL_NA",
    "gnaf_pid": "GAWA_162261662"
   }
  },
  {
   "type": "Feature",
   "geometry": {
    "type": "Point",
    "coordinates": [
     116.44627,
     -31.18063
    ]
   },
   "properties": {
    "name": "293 DARRAGH ROAD WYENING 6568",
    "locID": "LOC000016483303",
    "tech": "WIRELESS",
    "upgrade": "NULL_NA",
    "gnaf_pid": "GAWA_162261663"
   }
  },
  {
   "type": "Feature",
   "geometry": {
    "type": "Point",
    "coordinates": [
     116.55733674,
     -31.11993187
    ]
   },
   "properties": {
    "name": "370 EDMONDS ROAD WYENING 6568",
    "locID": "LOC000073249414",
    "tech": "SATELLITE",
    "upgrade": "NULL_NA",
    "gnaf_pid": "GAWA_162262093"
   }
  },
  {
   "type": "Feature",
   "geometry": {
    "type": "Point",
    "coordinates": [
     116.47827,
     -31.168136
    ]
   },
   "properties": {
    "name": "291 FORDHAM ROAD WYENING 6568",
    "locID": "LOC000100832922",
    "tech": "WIRELESS",
    "upgrade": "NULL_NA",
    "gnaf_pid": "GAWA_162262710"
   }
  },
  {
   "type": "Feature",
   "geometry": {
    "type": "Point",
    "coordinates": [
     116.49295317,
     -31.15336319
    ]
   },
   "properties": {
    "name": "394 FORDHAM ROAD WYENING 6568",
    "locID": "LOC000068102850",
    "tech": "SATELLITE",
    "upgrade": "NULL_NA",
    "gnaf_pid": "GAWA_162262711"
   }
  },
  {
   "type": "Feature",
   "geometry": {
    "type": "Point",
    "coordinates": [
     116.44970887,
     -31.20587119
    ]
   },
   "properties": {
    "name": "4705 WYENING WEST ROAD WYENING 6568",
    "locID": "LOC000058335945",
    "tech": "SATELLITE",
    "upgrade": "NULL_NA",
    "gnaf_pid": "GAWA_162271837"
   }
  },
  {
   "type": "Feature",
   "geometry": {
    "type": "Point",
    "coordinates": [
     116.45914308,
     -31.1850316
    ]
   },
   "properties": {
    "name": "4705 BINDI BINDI-TOODYAY ROAD WYENING 6568",
    "locID": "LOC000058335945",
    "tech": "SATELLITE",
    "upgrade": "NULL_NA",
    "gnaf_pid": "GAWA_162276118"
   }
  },
  {
   "type": "Feature",
   "geometry": {
    "type": "Point",
    "coordinates": [
     116.55733674,
     -31.11993187
    ]
   },
   "properties": {
    "name": "412 EDMONDS ROAD WYENING 6568",
    "locID": "LOC000045887556",
    "tech": "SATELLITE",
    "upgrade": "NULL_NA",
    "gnaf_pid": "GAWA_162276963"
   }
  },
  {
   "type": "Feature",
   "geometry": {
    "type": "Point",
    "coordinates": [
     116.488193,
     -31.188205
    ]
   },
   "properties": {
    "name": "38 LANDON STREET WYENING 6568",
    "locID": "LOC000030540503",
    "tech": "SATELLITE",
    "upgrade": "NULL_NA",
    "gnaf_pid": "GAWA_162278017"
   }
  },
  {
   "type": "Feature",
   "geometry": {
    "type": "Point",
    "coordinates": [
     116.42709485,
     -31.20446952
    ]
   },
   "properties": {
    "name": "428 WYENING WEST ROAD WYENING 6568",
    "locID": "LOC000013798664",
    "tech": "SATELLITE",
    "upgrade": "NULL_NA",
    "gnaf_pid": "GAWA_162280240"
   }
  },
  {
   "type": "Feature",
   "geometry": {
    "type": "Point",
    "coordinates": [
     116.48897513,
     -31.18867649
    ]
   },
   "properties": {
    "name": "LOT 20 LANDON STREET WYENING 6568",
    "locID": "EigyMCBMYW5kb24gU3QsIEJvbGdhcnQgV0EgNjU2OCwgQXVzdHJhbGlhIjASLgoUChIJ8RPkBGfhzCsRBPCbmEPXiEUQFCoUChIJ8RPkBGfhzCsRcVf3nJsIy8E",
    "tech": "SATELLITE",
    "upgrade": "UNKNOWN",
    "gnaf_pid": "GAWA_162819375"
   }
  },
  {
   "type": "Feature",
   "geometry": {
    "type": "Point",
    "coordinates": [
     116.43882826,
     -31.17305317
    ]
   },
   "properties": {
    "name": "7619 DARRAGH ROAD WYENING 6568",
    "locID": "ChIJf3NoXxTizCsR49DTZClcsME",
    "tech": "SATELLITE",
    "upgrade": "UNKNOWN",
    "gnaf_pid": "GAWA_163388303"
   }
  },
  {
   "type": "Feature",
   "geometry": {
    "type": "Point",
    "coordinates": [
     116.5484436,
     -31.15862964
    ]
   },
   "properties": {
    "name": "LOT 25 CORONDEEN ROAD WYENING 6568",
    "locID": "EihDb3JvbmRlZW4gUmQsIFd5ZW5pbmcgV0EgNjU2OCwgQXVzdHJhbGlhIi4qLAoUChIJH0HvY0bkzCsROQjWUeHuck0SFAoSCau4MGt748wrEXAIeiQ49gAE",
    "tech": "SATELLITE",
    "upgrade": "UNKNOWN",
    "gnaf_pid": "GAWA_718388092"
   }
  },
  {
   "type": "Feature",
   "geometry": {
    "type": "Point",
    "coordinates": [
     116.42727792,
     -31.17610743
    ]
   },
   "properties": {
    "name": "LOT 7619 DARRAGH ROAD WYENING 6568",
    "locID": "ChIJf3NoXxTizCsR49DTZClcsME",
    "tech": "SATELLITE",
    "upgrade": "UNKNOWN",
    "gnaf_pid": "GAWA_718626168"
   }
  }
 ]
}