{
 "type": "FeatureCollection",
 "generated": "2024-09-07T00:22:51.021020",
 "suburb": "YUNA",
 "features": [
  {
   "type": "Feature",
   "geometry": {
    "type": "Point",
    "coordinates": [
     115.01482233,
     -28.22569703
    ]
   },
   "properties": {
    "name": "LOT 1 DARTMOOR ROAD YUNA 6532",
    "locID": "LOC000054633422",
    "tech": "SATELLITE",
    "upgrade": "NULL_NA",
    "gnaf_pid": "GAWA_160932890",
    "tech_change_status": "Not Planned"
   }
  },
  {
   "type": "Feature",
   "geometry": {
    "type": "Point",
    "coordinates": [
     114.958701,
     -28.316328
    ]
   },
   "properties": {
    "name": "6539 CHAPMAN VALLEY ROAD YUNA 6532",
    "locID": "LOC000080433268",
    "tech": "SATELLITE",
    "upgrade": "NULL_NA",
    "gnaf_pid": "GAWA_162000266",
    "tech_change_status": "Not Planned"
   }
  },
  {
   "type": "Feature",
   "geometry": {
    "type": "Point",
    "coordinates": [
     115.001137,
     -28.328033
    ]
   },
   "properties": {
    "name": "6951 CHAPMAN VALLEY ROAD YUNA 6532",
    "locID": "LOC000054557297",
    "tech": "SATELLITE",
    "upgrade": "NULL_NA",
    "gnaf_pid": "GAWA_162000267",
    "tech_change_status": "Not Planned"
   }
  },
  {
   "type": "Feature",
   "geometry": {
    "type": "Point",
    "coordinates": [
     115.001548,
     -28.328033
    ]
   },
   "properties": {
    "name": "6955 CHAPMAN VALLEY ROAD YUNA 6532",
    "locID": "LOC000010417264",
    "tech": "SATELLITE",
    "upgrade": "NULL_NA",
    "gnaf_pid": "GAWA_162000268",
    "tech_change_status": "Not Planned"
   }
  },
  {
   "type": "Feature",
   "geometry": {
    "type": "Point",
    "coordinates": [
     115.00206,
     -28.328032
    ]
   },
   "properties": {
    "name": "6959 CHAPMAN VALLEY ROAD YUNA 6532",
    "locID": "LOC000054310234",
    "tech": "NULL",
    "upgrade": "NULL_NA",
    "gnaf_pid": "GAWA_162000269",
    "tech_change_status": "Not Planned"
   }
  },
  {
   "type": "Feature",
   "geometry": {
    "type": "Point",
    "coordinates": [
     115.002648,
     -28.326566
    ]
   },
   "properties": {
    "name": "6961 CHAPMAN VALLEY ROAD YUNA 6532",
    "locID": "LOC000066052931",
    "tech": "NULL",
    "upgrade": "NULL_NA",
    "gnaf_pid": "GAWA_162000270",
    "tech_change_status": "Not Planned"
   }
  },
  {
   "type": "Feature",
   "geometry": {
    "type": "Point",
    "coordinates": [
     115.003497,
     -28.328031
    ]
   },
   "properties": {
    "name": "6973 CHAPMAN VALLEY ROAD YUNA 6532",
    "locID": "LOC000097919925",
    "tech": "SATELLITE",
    "upgrade": "NULL_NA",
    "gnaf_pid": "GAWA_162000271",
    "tech_change_status": "Not Planned"
   }
  },
  {
   "type": "Feature",
   "geometry": {
    "type": "Point",
    "coordinates": [
     115.014917,
     -28.324627
    ]
   },
   "properties": {
    "name": "7145 CHAPMAN VALLEY ROAD YUNA 6532",
    "locID": "LOC000036602458",
    "tech": "NULL",
    "upgrade": "NULL_NA",
    "gnaf_pid": "GAWA_162000272",
    "tech_change_status": "Not Planned"
   }
  },
  {
   "type": "Feature",
   "geometry": {
    "type": "Point",
    "coordinates": [
     115.027475,
     -28.303723
    ]
   },
   "properties": {
    "name": "260 DARTMOOR ROAD YUNA 6532",
    "locID": "LOC000054633422",
    "tech": "SATELLITE",
    "upgrade": "NULL_NA",
    "gnaf_pid": "GAWA_162000457",
    "tech_change_status": "Not Planned"
   }
  },
  {
   "type": "Feature",
   "geometry": {
    "type": "Point",
    "coordinates": [
     115.113594,
     -28.263953
    ]
   },
   "properties": {
    "name": "438 DARTMOOR ROAD EAST YUNA 6532",
    "locID": "LOC000036356333",
    "tech": "NULL",
    "upgrade": "NULL_NA",
    "gnaf_pid": "GAWA_162000458",
    "tech_change_status": "Not Planned"
   }
  },
  {
   "type": "Feature",
   "geometry": {
    "type": "Point",
    "coordinates": [
     115.143607,
     -28.283418
    ]
   },
   "properties": {
    "name": "520 FARRELLS BACK ROAD YUNA 6532",
    "locID": "LOC000092794459",
    "tech": "NULL",
    "upgrade": "NULL_NA",
    "gnaf_pid": "GAWA_162000689",
    "tech_change_status": "Not Planned"
   }
  },
  {
   "type": "Feature",
   "geometry": {
    "type": "Point",
    "coordinates": [
     114.991309,
     -28.294243
    ]
   },
   "properties": {
    "name": "408 FORRESTER BROOKS ROAD YUNA 6532",
    "locID": "LOC000010427999",
    "tech": "SATELLITE",
    "upgrade": "NULL_NA",
    "gnaf_pid": "GAWA_162000744",
    "tech_change_status": "Not Planned"
   }
  },
  {
   "type": "Feature",
   "geometry": {
    "type": "Point",
    "coordinates": [
     114.979659,
     -28.265309
    ]
   },
   "properties": {
    "name": "717 FORRESTER BROOKS ROAD YUNA 6532",
    "locID": "LOC000045223465",
    "tech": "SATELLITE",
    "upgrade": "NULL_NA",
    "gnaf_pid": "GAWA_162000745",
    "tech_change_status": "Not Planned"
   }
  },
  {
   "type": "Feature",
   "geometry": {
    "type": "Point",
    "coordinates": [
     115.15495538,
     -28.28419848
    ]
   },
   "properties": {
    "name": "1107 WANDANA ROAD YUNA 6532",
    "locID": "LOC000025539858",
    "tech": "NULL",
    "upgrade": "NULL_NA",
    "gnaf_pid": "GAWA_162003152",
    "tech_change_status": "Not Planned"
   }
  },
  {
   "type": "Feature",
   "geometry": {
    "type": "Point",
    "coordinates": [
     115.09963292,
     -28.31628372
    ]
   },
   "properties": {
    "name": "308 WANDANA ROAD YUNA 6532",
    "locID": "LOC000024643915",
    "tech": "NULL",
    "upgrade": "NULL_NA",
    "gnaf_pid": "GAWA_162003153",
    "tech_change_status": "Not Planned"
   }
  },
  {
   "type": "Feature",
   "geometry": {
    "type": "Point",
    "coordinates": [
     115.043956,
     -28.325295
    ]
   },
   "properties": {
    "name": "269 YUNA-TENINDEWA ROAD YUNA 6532",
    "locID": "LOC000010647982",
    "tech": "NULL",
    "upgrade": "NULL_NA",
    "gnaf_pid": "GAWA_162003466",
    "tech_change_status": "Not Planned"
   }
  },
  {
   "type": "Feature",
   "geometry": {
    "type": "Point",
    "coordinates": [
     115.10464548,
     -28.16609871
    ]
   },
   "properties": {
    "name": "637 BROOKS ROAD YUNA 6532",
    "locID": "LOC000046168417",
    "tech": "SATELLITE",
    "upgrade": "NULL_NA",
    "gnaf_pid": "GAWA_162242243",
    "tech_change_status": "Not Planned"
   }
  },
  {
   "type": "Feature",
   "geometry": {
    "type": "Point",
    "coordinates": [
     115.00082956,
     -28.32801089
    ]
   },
   "properties": {
    "name": "6949 CHAPMAN VALLEY ROAD YUNA 6532",
    "locID": "LOC000112946526",
    "tech": "NULL",
    "upgrade": "NULL_NA",
    "gnaf_pid": "GAWA_163278513",
    "tech_change_status": "Not Planned"
   }
  }
 ]
}