{
 "type": "FeatureCollection",
 "generated": "2024-09-20T18:39:17.763419",
 "suburb": "BARNA",
 "features": [
  {
   "type": "Feature",
   "geometry": {
    "type": "Point",
    "coordinates": [
     136.60085712,
     -33.12885584
    ]
   },
   "properties": {
    "name": "LOT 20 SECTUS TANKS ROAD BARNA 5641",
    "locID": "LOC000131564079",
    "tech": "NULL",
    "upgrade": "NULL_NA",
    "gnaf_pid": "GASA_424331560",
    "tech_change_status": "Not Planned"
   }
  },
  {
   "type": "Feature",
   "geometry": {
    "type": "Point",
    "coordinates": [
     136.65111205,
     -33.15855594
    ]
   },
   "properties": {
    "name": "LOT 13 SECTUS TANKS ROAD BARNA 5641",
    "locID": "LOC000131564079",
    "tech": "NULL",
    "upgrade": "NULL_NA",
    "gnaf_pid": "GASA_424951407",
    "tech_change_status": "Not Planned"
   }
  },
  {
   "type": "Feature",
   "geometry": {
    "type": "Point",
    "coordinates": [
     136.6167587,
     -33.15993053
    ]
   },
   "properties": {
    "name": "LOT 14 SECTUS TANKS ROAD BARNA 5641",
    "locID": "LOC000131564079",
    "tech": "NULL",
    "upgrade": "NULL_NA",
    "gnaf_pid": "GASA_424951408",
    "tech_change_status": "Not Planned"
   }
  },
  {
   "type": "Feature",
   "geometry": {
    "type": "Point",
    "coordinates": [
     136.62584577,
     -33.18404079
    ]
   },
   "properties": {
    "name": "7221 MIDDLEBACK ROAD BARNA 5641",
    "locID": "LOC000131598458",
    "tech": "NULL",
    "upgrade": "NULL_NA",
    "gnaf_pid": "GASA_424958699",
    "tech_change_status": "Not Planned"
   }
  },
  {
   "type": "Feature",
   "geometry": {
    "type": "Point",
    "coordinates": [
     136.60953246,
     -33.13521087
    ]
   },
   "properties": {
    "name": "157 SECTUS TANKS ROAD BARNA 5641",
    "locID": "LOC000131560001",
    "tech": "NULL",
    "upgrade": "NULL_NA",
    "gnaf_pid": "GASA_424960757",
    "tech_change_status": "Not Planned"
   }
  },
  {
   "type": "Feature",
   "geometry": {
    "type": "Point",
    "coordinates": [
     136.60958012,
     -33.13549324
    ]
   },
   "properties": {
    "name": "160 SECTUS TANKS ROAD BARNA 5641",
    "locID": "LOC000131564079",
    "tech": "NULL",
    "upgrade": "NULL_NA",
    "gnaf_pid": "GASA_424960758",
    "tech_change_status": "Not Planned"
   }
  },
  {
   "type": "Feature",
   "geometry": {
    "type": "Point",
    "coordinates": [
     136.67425577,
     -33.18167646
    ]
   },
   "properties": {
    "name": "967 SECTUS TANKS ROAD BARNA 5641",
    "locID": "LOC000131603148",
    "tech": "NULL",
    "upgrade": "NULL_NA",
    "gnaf_pid": "GASA_424960759",
    "tech_change_status": "Not Planned"
   }
  },
  {
   "type": "Feature",
   "geometry": {
    "type": "Point",
    "coordinates": [
     136.680708,
     -33.177787
    ]
   },
   "properties": {
    "name": "82 WAKELIN ROAD BARNA 5641",
    "locID": "LOC000131598721",
    "tech": "NULL",
    "upgrade": "NULL_NA",
    "gnaf_pid": "GASA_424961859",
    "tech_change_status": "Not Planned"
   }
  },
  {
   "type": "Feature",
   "geometry": {
    "type": "Point",
    "coordinates": [
     136.62987034,
     -33.21610358
    ]
   },
   "properties": {
    "name": "6338 COWELL-KIMBA ROAD BARNA 5641",
    "locID": "LOC000148401165",
    "tech": "NULL",
    "upgrade": "NULL_NA",
    "gnaf_pid": "GASA_425254064",
    "tech_change_status": "Not Planned"
   }
  },
  {
   "type": "Feature",
   "geometry": {
    "type": "Point",
    "coordinates": [
     136.60904949,
     -33.21544859
    ]
   },
   "properties": {
    "name": "6531 COWELL-KIMBA ROAD BARNA 5641",
    "locID": "LOC000148401177",
    "tech": "SATELLITE",
    "upgrade": "NULL_NA",
    "gnaf_pid": "GASA_425254065",
    "tech_change_status": "Not Planned"
   }
  },
  {
   "type": "Feature",
   "geometry": {
    "type": "Point",
    "coordinates": [
     136.61865545,
     -33.20003856
    ]
   },
   "properties": {
    "name": "LOT 7 COWELL-KIMBA ROAD BARNA 5641",
    "locID": "LOC000148401177",
    "tech": "SATELLITE",
    "upgrade": "NULL_NA",
    "gnaf_pid": "GASA_425581511",
    "tech_change_status": "Not Planned"
   }
  },
  {
   "type": "Feature",
   "geometry": {
    "type": "Point",
    "coordinates": [
     136.67875587,
     -33.18536814
    ]
   },
   "properties": {
    "name": "LOT 29 MIDDLEBACK ROAD BARNA 5641",
    "locID": "LOC000131598458",
    "tech": "NULL",
    "upgrade": "NULL_NA",
    "gnaf_pid": "GASA_425582820",
    "tech_change_status": "Not Planned"
   }
  },
  {
   "type": "Feature",
   "geometry": {
    "type": "Point",
    "coordinates": [
     136.77815589,
     -33.20867637
    ]
   },
   "properties": {
    "name": "LOT 33 MIDDLEBACK ROAD BARNA 5641",
    "locID": "LOC000131598458",
    "tech": "NULL",
    "upgrade": "NULL_NA",
    "gnaf_pid": "GASA_425582821",
    "tech_change_status": "Not Planned"
   }
  },
  {
   "type": "Feature",
   "geometry": {
    "type": "Point",
    "coordinates": [
     136.60899405,
     -33.17474745
    ]
   },
   "properties": {
    "name": "LOT 9 MIDDLEBACK ROAD BARNA 5641",
    "locID": "LOC000131598458",
    "tech": "NULL",
    "upgrade": "NULL_NA",
    "gnaf_pid": "GASA_425582822",
    "tech_change_status": "Not Planned"
   }
  }
 ]
}