{
 "type": "FeatureCollection",
 "generated": "2024-09-20T19:06:20.693411",
 "suburb": "BLACK ROCK",
 "features": [
  {
   "type": "Feature",
   "geometry": {
    "type": "Point",
    "coordinates": [
     138.69143131,
     -32.83384521
    ]
   },
   "properties": {
    "name": "LOT 18 FIRST STREET BLACK ROCK 5431",
    "locID": "LOC000042194009",
    "tech": "HFC",
    "upgrade": "NULL_NA",
    "gnaf_pid": "GASA_424300966"
   }
  },
  {
   "type": "Feature",
   "geometry": {
    "type": "Point",
    "coordinates": [
     138.69095546,
     -32.83130342
    ]
   },
   "properties": {
    "name": "LOT 60 RAILWAY TERRACE BLACK ROCK 5431",
    "locID": "LOC000036293759",
    "tech": "FTTC",
    "upgrade": "FTTP_SA",
    "gnaf_pid": "GASA_424327721",
    "tech_change_status": "Eligible to Order"
   }
  },
  {
   "type": "Feature",
   "geometry": {
    "type": "Point",
    "coordinates": [
     138.6893424,
     -32.82945992
    ]
   },
   "properties": {
    "name": "LOT 90 RAILWAY TERRACE BLACK ROCK 5431",
    "locID": "LOC000170814180",
    "tech": "FTTB",
    "upgrade": "NULL_NA",
    "gnaf_pid": "GASA_424327723"
   }
  },
  {
   "type": "Feature",
   "geometry": {
    "type": "Point",
    "coordinates": [
     138.7062906,
     -32.81233408
    ]
   },
   "properties": {
    "name": "LOT 155 BLACK ROCK ROAD BLACK ROCK 5431",
    "locID": "LOC000142384336",
    "tech": "SATELLITE",
    "upgrade": "NULL_NA",
    "gnaf_pid": "GASA_424558003",
    "tech_change_status": "Not Planned"
   }
  },
  {
   "type": "Feature",
   "geometry": {
    "type": "Point",
    "coordinates": [
     138.65003893,
     -32.82320279
    ]
   },
   "properties": {
    "name": "LOT 131N KUERSCHNER ROAD BLACK ROCK 5431",
    "locID": "LOC100078855424",
    "tech": "WIRELESS",
    "upgrade": "NULL_NA",
    "gnaf_pid": "GASA_424562186",
    "tech_change_status": "Not Planned",
    "program_type": "Fixed Wireless and Satellite Upgrade Program",
    "target_eligibility_quarter": "NA"
   }
  },
  {
   "type": "Feature",
   "geometry": {
    "type": "Point",
    "coordinates": [
     138.65900036,
     -32.83548519
    ]
   },
   "properties": {
    "name": "LOT 131S KUERSCHNER ROAD BLACK ROCK 5431",
    "locID": "LOC100078855424",
    "tech": "WIRELESS",
    "upgrade": "NULL_NA",
    "gnaf_pid": "GASA_424562187",
    "tech_change_status": "Not Planned",
    "program_type": "Fixed Wireless and Satellite Upgrade Program",
    "target_eligibility_quarter": "NA"
   }
  },
  {
   "type": "Feature",
   "geometry": {
    "type": "Point",
    "coordinates": [
     138.68712382,
     -32.82423786
    ]
   },
   "properties": {
    "name": "LOT 203 NUTT AVENUE BLACK ROCK 5431",
    "locID": "LOC100078656524",
    "tech": "WIRELESS",
    "upgrade": "NULL_NA",
    "gnaf_pid": "GASA_424563862",
    "tech_change_status": "Not Planned",
    "program_type": "Fixed Wireless and Satellite Upgrade Program",
    "target_eligibility_quarter": "NA"
   }
  },
  {
   "type": "Feature",
   "geometry": {
    "type": "Point",
    "coordinates": [
     138.69032194,
     -32.82943057
    ]
   },
   "properties": {
    "name": "34 RAILWAY TERRACE BLACK ROCK 5431",
    "locID": "LOC100078073738",
    "tech": "NULL",
    "upgrade": "NULL_NA",
    "gnaf_pid": "GASA_425075641",
    "tech_change_status": "Not Planned"
   }
  },
  {
   "type": "Feature",
   "geometry": {
    "type": "Point",
    "coordinates": [
     138.69036593,
     -32.82957948
    ]
   },
   "properties": {
    "name": "36 RAILWAY TERRACE BLACK ROCK 5431",
    "locID": "LOC000131527425",
    "tech": "SATELLITE",
    "upgrade": "NULL_NA",
    "gnaf_pid": "GASA_425075642",
    "tech_change_status": "Not Planned"
   }
  },
  {
   "type": "Feature",
   "geometry": {
    "type": "Point",
    "coordinates": [
     138.66529146,
     -32.82919119
    ]
   },
   "properties": {
    "name": "1013 KUERSCHNER ROAD BLACK ROCK 5431",
    "locID": "LOC100078855424",
    "tech": "WIRELESS",
    "upgrade": "NULL_NA",
    "gnaf_pid": "GASA_425139011",
    "tech_change_status": "Not Planned",
    "program_type": "Fixed Wireless and Satellite Upgrade Program",
    "target_eligibility_quarter": "NA"
   }
  },
  {
   "type": "Feature",
   "geometry": {
    "type": "Point",
    "coordinates": [
     138.67235081,
     -32.84328901
    ]
   },
   "properties": {
    "name": "1184 KUERSCHNER ROAD BLACK ROCK 5431",
    "locID": "LOC000150217202",
    "tech": "WIRELESS",
    "upgrade": "NULL_NA",
    "gnaf_pid": "GASA_425139012",
    "tech_change_status": "Not Planned",
    "program_type": "Fixed Wireless and Satellite Upgrade Program",
    "target_eligibility_quarter": "NA"
   }
  },
  {
   "type": "Feature",
   "geometry": {
    "type": "Point",
    "coordinates": [
     138.67610143,
     -32.85393162
    ]
   },
   "properties": {
    "name": "1306 KUERSCHNER ROAD BLACK ROCK 5431",
    "locID": "LOC000150217218",
    "tech": "NULL",
    "upgrade": "NULL_NA",
    "gnaf_pid": "GASA_425139013",
    "tech_change_status": "Not Planned"
   }
  },
  {
   "type": "Feature",
   "geometry": {
    "type": "Point",
    "coordinates": [
     138.681479,
     -32.868656
    ]
   },
   "properties": {
    "name": "1481 KUERSCHNER ROAD BLACK ROCK 5431",
    "locID": "LOC000150217225",
    "tech": "NULL",
    "upgrade": "NULL_NA",
    "gnaf_pid": "GASA_425139014",
    "tech_change_status": "Not Planned"
   }
  },
  {
   "type": "Feature",
   "geometry": {
    "type": "Point",
    "coordinates": [
     138.65275675,
     -32.80491488
    ]
   },
   "properties": {
    "name": "720 KUERSCHNER ROAD BLACK ROCK 5431",
    "locID": "LOC000142381692",
    "tech": "SATELLITE",
    "upgrade": "NULL_NA",
    "gnaf_pid": "GASA_425139015",
    "tech_change_status": "Not Planned"
   }
  },
  {
   "type": "Feature",
   "geometry": {
    "type": "Point",
    "coordinates": [
     138.62584044,
     -32.89591801
    ]
   },
   "properties": {
    "name": "4 NARIEN ROAD BLACK ROCK 5431",
    "locID": "LOC000142385022",
    "tech": "SATELLITE",
    "upgrade": "NULL_NA",
    "gnaf_pid": "GASA_425139648",
    "tech_change_status": "Not Planned"
   }
  },
  {
   "type": "Feature",
   "geometry": {
    "type": "Point",
    "coordinates": [
     138.69078077,
     -32.82528542
    ]
   },
   "properties": {
    "name": "15 NUTT AVENUE BLACK ROCK 5431",
    "locID": "LOC100078656524",
    "tech": "WIRELESS",
    "upgrade": "NULL_NA",
    "gnaf_pid": "GASA_425139720",
    "tech_change_status": "Not Planned",
    "program_type": "Fixed Wireless and Satellite Upgrade Program",
    "target_eligibility_quarter": "NA"
   }
  },
  {
   "type": "Feature",
   "geometry": {
    "type": "Point",
    "coordinates": [
     138.69014395,
     -32.83120383
    ]
   },
   "properties": {
    "name": "11 FOURTH STREET BLACK ROCK 5431",
    "locID": "LOC100079006605",
    "tech": "NULL",
    "upgrade": "NULL_NA",
    "gnaf_pid": "GASA_425188777",
    "tech_change_status": "Not Planned"
   }
  },
  {
   "type": "Feature",
   "geometry": {
    "type": "Point",
    "coordinates": [
     138.69063222,
     -32.83103411
    ]
   },
   "properties": {
    "name": "15 FOURTH STREET BLACK ROCK 5431",
    "locID": "LOC000150217239",
    "tech": "SATELLITE",
    "upgrade": "NULL_NA",
    "gnaf_pid": "GASA_425188778",
    "tech_change_status": "Not Planned"
   }
  },
  {
   "type": "Feature",
   "geometry": {
    "type": "Point",
    "coordinates": [
     138.68967065,
     -32.8298558
    ]
   },
   "properties": {
    "name": "LOT 84 RAILWAY TERRACE BLACK ROCK 5431",
    "locID": "LOC000170814105",
    "tech": "FTTB",
    "upgrade": "NULL_NA",
    "gnaf_pid": "GASA_719772416"
   }
  },
  {
   "type": "Feature",
   "geometry": {
    "type": "Point",
    "coordinates": [
     138.68923253,
     -32.83002096
    ]
   },
   "properties": {
    "name": "LOT 82 RAILWAY TERRACE BLACK ROCK 5431",
    "locID": "LOC000170814082",
    "tech": "FTTB",
    "upgrade": "NULL_NA",
    "gnaf_pid": "GASA_719777854"
   }
  },
  {
   "type": "Feature",
   "geometry": {
    "type": "Point",
    "coordinates": [
     138.6920224,
     -32.83070181
    ]
   },
   "properties": {
    "name": "LOT 395 RAILWAY TERRACE BLACK ROCK 5431",
    "locID": "LOC100078073738",
    "tech": "NULL",
    "upgrade": "NULL_NA",
    "gnaf_pid": "GASA_720185428",
    "tech_change_status": "Not Planned"
   }
  },
  {
   "type": "Feature",
   "geometry": {
    "type": "Point",
    "coordinates": [
     138.71881805,
     -32.86054405
    ]
   },
   "properties": {
    "name": "LOT 397 CASEY ROAD BLACK ROCK 5431",
    "locID": "LOC000114965287",
    "tech": "WIRELESS",
    "upgrade": "NULL_NA",
    "gnaf_pid": "GASA_720188548",
    "tech_change_status": "Not Planned",
    "program_type": "Fixed Wireless and Satellite Upgrade Program",
    "target_eligibility_quarter": "NA"
   }
  },
  {
   "type": "Feature",
   "geometry": {
    "type": "Point",
    "coordinates": [
     138.66967302,
     -32.81314606
    ]
   },
   "properties": {
    "name": "LOT 10 KUERSCHNER ROAD BLACK ROCK 5431",
    "locID": "LOC100078855424",
    "tech": "WIRELESS",
    "upgrade": "NULL_NA",
    "gnaf_pid": "GASA_720848234",
    "tech_change_status": "Not Planned",
    "program_type": "Fixed Wireless and Satellite Upgrade Program",
    "target_eligibility_quarter": "NA"
   }
  }
 ]
}