{
 "type": "FeatureCollection",
 "generated": "2024-07-22T11:28:22.354275",
 "suburb": "CALIPH",
 "features": [
  {
   "type": "Feature",
   "geometry": {
    "type": "Point",
    "coordinates": [
     140.28042751,
     -34.65753974
    ]
   },
   "properties": {
    "name": "LOT 8 RAILWAY TERRACE CALIPH 5310",
    "locID": "LOC000028269251",
    "tech": "FTTC",
    "upgrade": "FTTP_SA",
    "gnaf_pid": "GASA_424203715",
    "tech_change_status": "Eligible To Order"
   }
  },
  {
   "type": "Feature",
   "geometry": {
    "type": "Point",
    "coordinates": [
     140.2550668,
     -34.57845395
    ]
   },
   "properties": {
    "name": "LOT 47 CURTIS ROAD CALIPH 5310",
    "locID": "LOC000067818873",
    "tech": "SATELLITE",
    "upgrade": "NULL_NA",
    "gnaf_pid": "GASA_424384486",
    "tech_change_status": "Not Planned"
   }
  },
  {
   "type": "Feature",
   "geometry": {
    "type": "Point",
    "coordinates": [
     140.26469502,
     -34.67557389
    ]
   },
   "properties": {
    "name": "LOT 13 MINDARIE ROAD CALIPH 5310",
    "locID": "LOC000116307646",
    "tech": "SATELLITE",
    "upgrade": "NULL_NA",
    "gnaf_pid": "GASA_424396076",
    "tech_change_status": "Not Planned"
   }
  },
  {
   "type": "Feature",
   "geometry": {
    "type": "Point",
    "coordinates": [
     140.28044741,
     -34.65585241
    ]
   },
   "properties": {
    "name": "LOT 114 WORMALD ROAD CALIPH 5310",
    "locID": "LOC000145399354",
    "tech": "SATELLITE",
    "upgrade": "NULL_NA",
    "gnaf_pid": "GASA_424409807",
    "tech_change_status": "Not Planned"
   }
  },
  {
   "type": "Feature",
   "geometry": {
    "type": "Point",
    "coordinates": [
     140.3066783,
     -34.6748454
    ]
   },
   "properties": {
    "name": "LOT 15 WORMALD ROAD CALIPH 5310",
    "locID": "LOC000145399354",
    "tech": "SATELLITE",
    "upgrade": "NULL_NA",
    "gnaf_pid": "GASA_424409808",
    "tech_change_status": "Not Planned"
   }
  },
  {
   "type": "Feature",
   "geometry": {
    "type": "Point",
    "coordinates": [
     140.35385481,
     -34.67800952
    ]
   },
   "properties": {
    "name": "LOT 19 WORMALD ROAD CALIPH 5310",
    "locID": "LOC000145399354",
    "tech": "SATELLITE",
    "upgrade": "NULL_NA",
    "gnaf_pid": "GASA_424409812",
    "tech_change_status": "Not Planned"
   }
  },
  {
   "type": "Feature",
   "geometry": {
    "type": "Point",
    "coordinates": [
     140.23885799,
     -34.62174962
    ]
   },
   "properties": {
    "name": "1570 CURTIS ROAD CALIPH 5310",
    "locID": "LOC000064882841",
    "tech": "SATELLITE",
    "upgrade": "NULL_NA",
    "gnaf_pid": "GASA_424519040",
    "tech_change_status": "Not Planned"
   }
  },
  {
   "type": "Feature",
   "geometry": {
    "type": "Point",
    "coordinates": [
     140.23618244,
     -34.63680043
    ]
   },
   "properties": {
    "name": "1739 CURTIS ROAD CALIPH 5310",
    "locID": "LOC000067818873",
    "tech": "SATELLITE",
    "upgrade": "NULL_NA",
    "gnaf_pid": "GASA_424519041",
    "tech_change_status": "Not Planned"
   }
  },
  {
   "type": "Feature",
   "geometry": {
    "type": "Point",
    "coordinates": [
     140.19907885,
     -34.66334562
    ]
   },
   "properties": {
    "name": "400 MARRETT ROAD CALIPH 5310",
    "locID": "LOC000064868841",
    "tech": "SATELLITE",
    "upgrade": "NULL_NA",
    "gnaf_pid": "GASA_424522300",
    "tech_change_status": "Not Planned"
   }
  },
  {
   "type": "Feature",
   "geometry": {
    "type": "Point",
    "coordinates": [
     140.30011804,
     -34.63601872
    ]
   },
   "properties": {
    "name": "1823 MINDARIE ROAD CALIPH 5310",
    "locID": "LOC000073520642",
    "tech": "SATELLITE",
    "upgrade": "NULL_NA",
    "gnaf_pid": "GASA_424522581",
    "tech_change_status": "Not Planned"
   }
  },
  {
   "type": "Feature",
   "geometry": {
    "type": "Point",
    "coordinates": [
     140.23602169,
     -34.66828358
    ]
   },
   "properties": {
    "name": "3184 MINDARIE ROAD CALIPH 5310",
    "locID": "LOC000098763477",
    "tech": "SATELLITE",
    "upgrade": "NULL_NA",
    "gnaf_pid": "GASA_424522582",
    "tech_change_status": "Not Planned"
   }
  },
  {
   "type": "Feature",
   "geometry": {
    "type": "Point",
    "coordinates": [
     140.34058054,
     -34.64688937
    ]
   },
   "properties": {
    "name": "625 RUNDLE ROAD CALIPH 5310",
    "locID": "LOC000111783520",
    "tech": "SATELLITE",
    "upgrade": "NULL_NA",
    "gnaf_pid": "GASA_424524800",
    "tech_change_status": "Not Planned"
   }
  },
  {
   "type": "Feature",
   "geometry": {
    "type": "Point",
    "coordinates": [
     140.32759659,
     -34.65159153
    ]
   },
   "properties": {
    "name": "762 RUNDLE ROAD CALIPH 5310",
    "locID": "LOC000112437920",
    "tech": "SATELLITE",
    "upgrade": "NULL_NA",
    "gnaf_pid": "GASA_424524801",
    "tech_change_status": "Not Planned"
   }
  },
  {
   "type": "Feature",
   "geometry": {
    "type": "Point",
    "coordinates": [
     140.31031463,
     -34.65526157
    ]
   },
   "properties": {
    "name": "1520 WORMALD ROAD CALIPH 5310",
    "locID": "LOC000106886592",
    "tech": "SATELLITE",
    "upgrade": "NULL_NA",
    "gnaf_pid": "GASA_424526734",
    "tech_change_status": "Not Planned"
   }
  },
  {
   "type": "Feature",
   "geometry": {
    "type": "Point",
    "coordinates": [
     140.32687656,
     -34.65559175
    ]
   },
   "properties": {
    "name": "1751 WORMALD ROAD CALIPH 5310",
    "locID": "LOC000145399354",
    "tech": "SATELLITE",
    "upgrade": "NULL_NA",
    "gnaf_pid": "GASA_424526735",
    "tech_change_status": "Not Planned"
   }
  },
  {
   "type": "Feature",
   "geometry": {
    "type": "Point",
    "coordinates": [
     140.21856089,
     -34.59136877
    ]
   },
   "properties": {
    "name": "1210 CURTIS ROAD CALIPH 5310",
    "locID": "LOC000048401885",
    "tech": "SATELLITE",
    "upgrade": "NULL_NA",
    "gnaf_pid": "GASA_424645236",
    "tech_change_status": "Not Planned"
   }
  },
  {
   "type": "Feature",
   "geometry": {
    "type": "Point",
    "coordinates": [
     140.29671967,
     -34.60554588
    ]
   },
   "properties": {
    "name": "2205 MINDARIE ROAD CALIPH 5310",
    "locID": "LOC000116307646",
    "tech": "SATELLITE",
    "upgrade": "NULL_NA",
    "gnaf_pid": "GASA_424804031",
    "tech_change_status": "Not Planned"
   }
  }
 ]
}