{
 "type": "FeatureCollection",
 "generated": "2023-07-17T18:18:09.667077",
 "suburb": "CALTOWIE NORTH",
 "features": [
  {
   "type": "Feature",
   "geometry": {
    "type": "Point",
    "coordinates": [
     138.49887144,
     -33.14167872
    ]
   },
   "properties": {
    "name": "LOT 91 CALTOWIE-TARCOWIE ROAD CALTOWIE NORTH 5490",
    "locID": "LOC000150220334",
    "tech": "SATELLITE",
    "upgrade": "NULL_NA",
    "gnaf_pid": "GASA_424102016"
   }
  },
  {
   "type": "Feature",
   "geometry": {
    "type": "Point",
    "coordinates": [
     138.522186,
     -33.11674718
    ]
   },
   "properties": {
    "name": "LOT 96 CALTOWIE-HORNSDALE ROAD CALTOWIE NORTH 5490",
    "locID": "LOC000131523102",
    "tech": "SATELLITE",
    "upgrade": "NULL_NA",
    "gnaf_pid": "GASA_424292879"
   }
  },
  {
   "type": "Feature",
   "geometry": {
    "type": "Point",
    "coordinates": [
     138.5233331,
     -33.10621759
    ]
   },
   "properties": {
    "name": "LOT 97 CALTOWIE-HORNSDALE ROAD CALTOWIE NORTH 5490",
    "locID": "LOC000150220310",
    "tech": "SATELLITE",
    "upgrade": "NULL_NA",
    "gnaf_pid": "GASA_424292880"
   }
  },
  {
   "type": "Feature",
   "geometry": {
    "type": "Point",
    "coordinates": [
     138.48361843,
     -33.1288105
    ]
   },
   "properties": {
    "name": "LOT 135 CALTOWIE-TARCOWIE ROAD CALTOWIE NORTH 5490",
    "locID": "LOC000150220334",
    "tech": "SATELLITE",
    "upgrade": "NULL_NA",
    "gnaf_pid": "GASA_424292901"
   }
  },
  {
   "type": "Feature",
   "geometry": {
    "type": "Point",
    "coordinates": [
     138.48155609,
     -33.11651585
    ]
   },
   "properties": {
    "name": "LOT 69 CALTOWIE-TARCOWIE ROAD CALTOWIE NORTH 5490",
    "locID": "LOC000150220334",
    "tech": "SATELLITE",
    "upgrade": "NULL_NA",
    "gnaf_pid": "GASA_424292903"
   }
  },
  {
   "type": "Feature",
   "geometry": {
    "type": "Point",
    "coordinates": [
     138.51267768,
     -33.1206942
    ]
   },
   "properties": {
    "name": "LOT 95 CALTOWIE-TARCOWIE ROAD CALTOWIE NORTH 5490",
    "locID": "LOC000150220334",
    "tech": "SATELLITE",
    "upgrade": "NULL_NA",
    "gnaf_pid": "GASA_424292905"
   }
  },
  {
   "type": "Feature",
   "geometry": {
    "type": "Point",
    "coordinates": [
     138.43194157,
     -33.1069456
    ]
   },
   "properties": {
    "name": "LOT 125N YARROWIE ROAD CALTOWIE NORTH 5490",
    "locID": "Ei5ZYXJyb3dpZSBSZCwgQ2FsdG93aWUgTm9ydGggU0EgNTQ5MCwgQXVzdHJhbGlhIi4qLAoUChIJL4q_wvASvGoRr2Tiv4dLZx8SFAoSCQs2A7ZXEbxqEVAfj2JUNgME",
    "tech": "SATELLITE",
    "upgrade": "UNKNOWN",
    "gnaf_pid": "GASA_424342212"
   }
  },
  {
   "type": "Feature",
   "geometry": {
    "type": "Point",
    "coordinates": [
     138.43932218,
     -33.11885316
    ]
   },
   "properties": {
    "name": "LOT 125S YARROWIE ROAD CALTOWIE NORTH 5490",
    "locID": "EiwxMjUgWWFycm93aWUgUmQsIENhbHRvd2llIFNBIDU0OTAsIEF1c3RyYWxpYSIwEi4KFAoSCT33Yr5VDLxqEb_kOa3Kc-0rEH0qFAoSCS-Kv8LwErxqEa9k4r-HS2cf",
    "tech": "SATELLITE",
    "upgrade": "UNKNOWN",
    "gnaf_pid": "GASA_424342213"
   }
  },
  {
   "type": "Feature",
   "geometry": {
    "type": "Point",
    "coordinates": [
     138.47678871,
     -33.09860885
    ]
   },
   "properties": {
    "name": "LOT 71 BOTTRALL DRIVE CALTOWIE NORTH 5490",
    "locID": "LOC000150214382",
    "tech": "SATELLITE",
    "upgrade": "NULL_NA",
    "gnaf_pid": "GASA_424558177"
   }
  },
  {
   "type": "Feature",
   "geometry": {
    "type": "Point",
    "coordinates": [
     138.4991527,
     -33.10677741
    ]
   },
   "properties": {
    "name": "3056 APPILA ROAD CALTOWIE NORTH 5490",
    "locID": "LOC000150220306",
    "tech": "SATELLITE",
    "upgrade": "NULL_NA",
    "gnaf_pid": "GASA_425105045"
   }
  },
  {
   "type": "Feature",
   "geometry": {
    "type": "Point",
    "coordinates": [
     138.52190087,
     -33.14115663
    ]
   },
   "properties": {
    "name": "629 CALTOWIE-HORNSDALE ROAD CALTOWIE NORTH 5490",
    "locID": "LOC000150220310",
    "tech": "SATELLITE",
    "upgrade": "NULL_NA",
    "gnaf_pid": "GASA_425106098"
   }
  },
  {
   "type": "Feature",
   "geometry": {
    "type": "Point",
    "coordinates": [
     138.49024195,
     -33.12965015
    ]
   },
   "properties": {
    "name": "570 CALTOWIE-TARCOWIE ROAD CALTOWIE NORTH 5490",
    "locID": "LOC000150220323",
    "tech": "SATELLITE",
    "upgrade": "NULL_NA",
    "gnaf_pid": "GASA_425106100"
   }
  },
  {
   "type": "Feature",
   "geometry": {
    "type": "Point",
    "coordinates": [
     138.49244342,
     -33.10548875
    ]
   },
   "properties": {
    "name": "841 CALTOWIE-TARCOWIE ROAD CALTOWIE NORTH 5490",
    "locID": "LOC000150220334",
    "tech": "SATELLITE",
    "upgrade": "NULL_NA",
    "gnaf_pid": "GASA_425106101"
   }
  },
  {
   "type": "Feature",
   "geometry": {
    "type": "Point",
    "coordinates": [
     138.51772838,
     -33.09401321
    ]
   },
   "properties": {
    "name": "238 NOONAN ROAD CALTOWIE NORTH 5490",
    "locID": "LOC000150220347",
    "tech": "SATELLITE",
    "upgrade": "NULL_NA",
    "gnaf_pid": "GASA_425110234"
   }
  },
  {
   "type": "Feature",
   "geometry": {
    "type": "Point",
    "coordinates": [
     138.48867527,
     -33.1436037
    ]
   },
   "properties": {
    "name": "18 TRIG HILL ROAD CALTOWIE NORTH 5490",
    "locID": "LOC000150220352",
    "tech": "SATELLITE",
    "upgrade": "NULL_NA",
    "gnaf_pid": "GASA_425112931"
   }
  },
  {
   "type": "Feature",
   "geometry": {
    "type": "Point",
    "coordinates": [
     138.466832,
     -33.141222
    ]
   },
   "properties": {
    "name": "226 TRIG HILL ROAD CALTOWIE NORTH 5490",
    "locID": "LOC100078656763",
    "tech": "SATELLITE",
    "upgrade": "NULL_NA",
    "gnaf_pid": "GASA_425112932"
   }
  },
  {
   "type": "Feature",
   "geometry": {
    "type": "Point",
    "coordinates": [
     138.4964538,
     -33.11320806
    ]
   },
   "properties": {
    "name": "LOT 101 APPILA ROAD CALTOWIE NORTH 5490",
    "locID": "LOC000150220306",
    "tech": "SATELLITE",
    "upgrade": "NULL_NA",
    "gnaf_pid": "GASA_425628303"
   }
  },
  {
   "type": "Feature",
   "geometry": {
    "type": "Point",
    "coordinates": [
     138.4759861,
     -33.08749392
    ]
   },
   "properties": {
    "name": "LOT 57 APPILA ROAD CALTOWIE NORTH 5490",
    "locID": "LOC000150220306",
    "tech": "SATELLITE",
    "upgrade": "NULL_NA",
    "gnaf_pid": "GASA_425628304"
   }
  },
  {
   "type": "Feature",
   "geometry": {
    "type": "Point",
    "coordinates": [
     138.45962713,
     -33.11928591
    ]
   },
   "properties": {
    "name": "LOT 130 SAMBELL ROAD CALTOWIE NORTH 5490",
    "locID": "Ei1TYW1iZWxsIFJkLCBDYWx0b3dpZSBOb3J0aCBTQSA1NDkwLCBBdXN0cmFsaWEiLiosChQKEglb1mjVXhG8ahGe9XY8F-fUixIUChIJCzYDtlcRvGoRUB-PYlQ2AwQ",
    "tech": "SATELLITE",
    "upgrade": "UNKNOWN",
    "gnaf_pid": "GASA_425724365"
   }
  },
  {
   "type": "Feature",
   "geometry": {
    "type": "Point",
    "coordinates": [
     138.44381874,
     -33.13129174
    ]
   },
   "properties": {
    "name": "LOT 132 TRIG HILL ROAD CALTOWIE NORTH 5490",
    "locID": "LOC100071966522",
    "tech": "SATELLITE",
    "upgrade": "NULL_NA",
    "gnaf_pid": "GASA_719452514"
   }
  },
  {
   "type": "Feature",
   "geometry": {
    "type": "Point",
    "coordinates": [
     138.469944,
     -33.11782232
    ]
   },
   "properties": {
    "name": "LOT 129W SAMBELL ROAD CALTOWIE NORTH 5490",
    "locID": "Ei1TYW1iZWxsIFJkLCBDYWx0b3dpZSBOb3J0aCBTQSA1NDkwLCBBdXN0cmFsaWEiLiosChQKEglb1mjVXhG8ahGe9XY8F-fUixIUChIJCzYDtlcRvGoRUB-PYlQ2AwQ",
    "tech": "SATELLITE",
    "upgrade": "UNKNOWN",
    "gnaf_pid": "GASA_720186778"
   }
  },
  {
   "type": "Feature",
   "geometry": {
    "type": "Point",
    "coordinates": [
     138.45348161,
     -33.11359471
    ]
   },
   "properties": {
    "name": "LOT 361 SAMBELL ROAD CALTOWIE NORTH 5490",
    "locID": "EjEzNjEgU2FtYmVsbCBSZCwgQ2FsdG93aWUgTm9ydGggU0EgNTQ5MCwgQXVzdHJhbGlhIjESLwoUChIJO-rJUt0TvGoRVPBzXN9Pm6wQ6QIqFAoSCVvWaNVeEbxqEZ71djwX59SL",
    "tech": "SATELLITE",
    "upgrade": "UNKNOWN",
    "gnaf_pid": "GASA_720190751"
   }
  },
  {
   "type": "Feature",
   "geometry": {
    "type": "Point",
    "coordinates": [
     138.465613,
     -33.108792
    ]
   },
   "properties": {
    "name": "328 SAMBELL ROAD CALTOWIE NORTH 5490",
    "locID": "ChIJfWU0XcITvGoRifOKiMCX2qE",
    "tech": "SATELLITE",
    "upgrade": "UNKNOWN",
    "gnaf_pid": "GASA_720494870"
   }
  },
  {
   "type": "Feature",
   "geometry": {
    "type": "Point",
    "coordinates": [
     138.500943,
     -33.109453
    ]
   },
   "properties": {
    "name": "3091 APPILA ROAD CALTOWIE NORTH 5490",
    "locID": "ChIJn2VwWTYRvGoRNooy7QB49Vk",
    "tech": "SATELLITE",
    "upgrade": "UNKNOWN",
    "gnaf_pid": "GASA_720495647"
   }
  },
  {
   "type": "Feature",
   "geometry": {
    "type": "Point",
    "coordinates": [
     138.530314,
     -33.09987
    ]
   },
   "properties": {
    "name": "1097 CALTOWIE-HORNSDALE ROAD CALTOWIE NORTH 5490",
    "locID": "ChIJRVCa7DwXvGoRBKh4JjAJixM",
    "tech": "SATELLITE",
    "upgrade": "UNKNOWN",
    "gnaf_pid": "GASA_720585841"
   }
  },
  {
   "type": "Feature",
   "geometry": {
    "type": "Point",
    "coordinates": [
     138.528909,
     -33.096335
    ]
   },
   "properties": {
    "name": "1139 CALTOWIE-HORNSDALE ROAD CALTOWIE NORTH 5490",
    "locID": "ChIJCwytUz0XvGoRan0jF26_ObY",
    "tech": "SATELLITE",
    "upgrade": "UNKNOWN",
    "gnaf_pid": "GASA_720588275"
   }
  },
  {
   "type": "Feature",
   "geometry": {
    "type": "Point",
    "coordinates": [
     138.47215155,
     -33.13354856
    ]
   },
   "properties": {
    "name": "LOT 134 TRIG HILL ROAD CALTOWIE NORTH 5490",
    "locID": "EjMxMzQgVHJpZyBIaWxsIFJkLCBDYWx0b3dpZSBOb3J0aCBTQSA1NDkwLCBBdXN0cmFsaWEiMRIvChQKEgkV0SzHQRK8ahH2GRW51ntuMxCGASoUChIJGzmRdGESvGoRHeuoUZK-7Zg",
    "tech": "SATELLITE",
    "upgrade": "UNKNOWN",
    "gnaf_pid": "GASA_721073049"
   }
  }
 ]
}