{
 "type": "FeatureCollection",
 "generated": "2024-09-01T05:59:06.877805",
 "suburb": "CALTOWIE NORTH",
 "features": [
  {
   "type": "Feature",
   "geometry": {
    "type": "Point",
    "coordinates": [
     138.49887144,
     -33.14167872
    ]
   },
   "properties": {
    "name": "LOT 91 CALTOWIE-TARCOWIE ROAD CALTOWIE NORTH 5490",
    "locID": "LOC000150220334",
    "tech": "SATELLITE",
    "upgrade": "NULL_NA",
    "gnaf_pid": "GASA_424102016",
    "tech_change_status": "Not Planned"
   }
  },
  {
   "type": "Feature",
   "geometry": {
    "type": "Point",
    "coordinates": [
     138.522186,
     -33.11674718
    ]
   },
   "properties": {
    "name": "LOT 96 CALTOWIE-HORNSDALE ROAD CALTOWIE NORTH 5490",
    "locID": "LOC000131523102",
    "tech": "SATELLITE",
    "upgrade": "NULL_NA",
    "gnaf_pid": "GASA_424292879",
    "tech_change_status": "Not Planned"
   }
  },
  {
   "type": "Feature",
   "geometry": {
    "type": "Point",
    "coordinates": [
     138.5233331,
     -33.10621759
    ]
   },
   "properties": {
    "name": "LOT 97 CALTOWIE-HORNSDALE ROAD CALTOWIE NORTH 5490",
    "locID": "LOC000150220310",
    "tech": "SATELLITE",
    "upgrade": "NULL_NA",
    "gnaf_pid": "GASA_424292880",
    "tech_change_status": "Not Planned"
   }
  },
  {
   "type": "Feature",
   "geometry": {
    "type": "Point",
    "coordinates": [
     138.48361843,
     -33.1288105
    ]
   },
   "properties": {
    "name": "LOT 135 CALTOWIE-TARCOWIE ROAD CALTOWIE NORTH 5490",
    "locID": "LOC000150220334",
    "tech": "SATELLITE",
    "upgrade": "NULL_NA",
    "gnaf_pid": "GASA_424292901",
    "tech_change_status": "Not Planned"
   }
  },
  {
   "type": "Feature",
   "geometry": {
    "type": "Point",
    "coordinates": [
     138.48155609,
     -33.11651585
    ]
   },
   "properties": {
    "name": "LOT 69 CALTOWIE-TARCOWIE ROAD CALTOWIE NORTH 5490",
    "locID": "LOC000150220334",
    "tech": "SATELLITE",
    "upgrade": "NULL_NA",
    "gnaf_pid": "GASA_424292903",
    "tech_change_status": "Not Planned"
   }
  },
  {
   "type": "Feature",
   "geometry": {
    "type": "Point",
    "coordinates": [
     138.51267768,
     -33.1206942
    ]
   },
   "properties": {
    "name": "LOT 95 CALTOWIE-TARCOWIE ROAD CALTOWIE NORTH 5490",
    "locID": "LOC000150220334",
    "tech": "SATELLITE",
    "upgrade": "NULL_NA",
    "gnaf_pid": "GASA_424292905",
    "tech_change_status": "Not Planned"
   }
  },
  {
   "type": "Feature",
   "geometry": {
    "type": "Point",
    "coordinates": [
     138.47678871,
     -33.09860885
    ]
   },
   "properties": {
    "name": "LOT 71 BOTTRALL DRIVE CALTOWIE NORTH 5490",
    "locID": "LOC000150214382",
    "tech": "SATELLITE",
    "upgrade": "NULL_NA",
    "gnaf_pid": "GASA_424558177",
    "tech_change_status": "Not Planned"
   }
  },
  {
   "type": "Feature",
   "geometry": {
    "type": "Point",
    "coordinates": [
     138.4991527,
     -33.10677741
    ]
   },
   "properties": {
    "name": "3056 APPILA ROAD CALTOWIE NORTH 5490",
    "locID": "LOC000150220306",
    "tech": "SATELLITE",
    "upgrade": "NULL_NA",
    "gnaf_pid": "GASA_425105045",
    "tech_change_status": "Not Planned"
   }
  },
  {
   "type": "Feature",
   "geometry": {
    "type": "Point",
    "coordinates": [
     138.52190087,
     -33.14115663
    ]
   },
   "properties": {
    "name": "629 CALTOWIE-HORNSDALE ROAD CALTOWIE NORTH 5490",
    "locID": "LOC000150220310",
    "tech": "SATELLITE",
    "upgrade": "NULL_NA",
    "gnaf_pid": "GASA_425106098",
    "tech_change_status": "Not Planned"
   }
  },
  {
   "type": "Feature",
   "geometry": {
    "type": "Point",
    "coordinates": [
     138.49024195,
     -33.12965015
    ]
   },
   "properties": {
    "name": "570 CALTOWIE-TARCOWIE ROAD CALTOWIE NORTH 5490",
    "locID": "LOC000150220323",
    "tech": "SATELLITE",
    "upgrade": "NULL_NA",
    "gnaf_pid": "GASA_425106100",
    "tech_change_status": "Not Planned"
   }
  },
  {
   "type": "Feature",
   "geometry": {
    "type": "Point",
    "coordinates": [
     138.49244342,
     -33.10548875
    ]
   },
   "properties": {
    "name": "841 CALTOWIE-TARCOWIE ROAD CALTOWIE NORTH 5490",
    "locID": "LOC000150220334",
    "tech": "SATELLITE",
    "upgrade": "NULL_NA",
    "gnaf_pid": "GASA_425106101",
    "tech_change_status": "Not Planned"
   }
  },
  {
   "type": "Feature",
   "geometry": {
    "type": "Point",
    "coordinates": [
     138.51772838,
     -33.09401321
    ]
   },
   "properties": {
    "name": "238 NOONAN ROAD CALTOWIE NORTH 5490",
    "locID": "LOC000150220347",
    "tech": "SATELLITE",
    "upgrade": "NULL_NA",
    "gnaf_pid": "GASA_425110234",
    "tech_change_status": "Not Planned"
   }
  },
  {
   "type": "Feature",
   "geometry": {
    "type": "Point",
    "coordinates": [
     138.48867527,
     -33.1436037
    ]
   },
   "properties": {
    "name": "18 TRIG HILL ROAD CALTOWIE NORTH 5490",
    "locID": "LOC000150220352",
    "tech": "SATELLITE",
    "upgrade": "NULL_NA",
    "gnaf_pid": "GASA_425112931",
    "tech_change_status": "Not Planned"
   }
  },
  {
   "type": "Feature",
   "geometry": {
    "type": "Point",
    "coordinates": [
     138.466832,
     -33.141222
    ]
   },
   "properties": {
    "name": "226 TRIG HILL ROAD CALTOWIE NORTH 5490",
    "locID": "LOC100078656763",
    "tech": "SATELLITE",
    "upgrade": "NULL_NA",
    "gnaf_pid": "GASA_425112932",
    "tech_change_status": "Not Planned"
   }
  },
  {
   "type": "Feature",
   "geometry": {
    "type": "Point",
    "coordinates": [
     138.4964538,
     -33.11320806
    ]
   },
   "properties": {
    "name": "LOT 101 APPILA ROAD CALTOWIE NORTH 5490",
    "locID": "LOC000150220306",
    "tech": "SATELLITE",
    "upgrade": "NULL_NA",
    "gnaf_pid": "GASA_425628303",
    "tech_change_status": "Not Planned"
   }
  },
  {
   "type": "Feature",
   "geometry": {
    "type": "Point",
    "coordinates": [
     138.4759861,
     -33.08749392
    ]
   },
   "properties": {
    "name": "LOT 57 APPILA ROAD CALTOWIE NORTH 5490",
    "locID": "LOC000150220306",
    "tech": "SATELLITE",
    "upgrade": "NULL_NA",
    "gnaf_pid": "GASA_425628304",
    "tech_change_status": "Not Planned"
   }
  }
 ]
}