{
 "type": "FeatureCollection",
 "generated": "2023-07-17T19:28:47.008448",
 "suburb": "CAVENAGH",
 "features": [
  {
   "type": "Feature",
   "geometry": {
    "type": "Point",
    "coordinates": [
     138.93818786,
     -32.67794645
    ]
   },
   "properties": {
    "name": "LOT 103C ORROROO-PARATOO ROAD CAVENAGH 5422",
    "locID": "LOC000131344571",
    "tech": "SATELLITE",
    "upgrade": "NULL_NA",
    "gnaf_pid": "GASA_424398694"
   }
  },
  {
   "type": "Feature",
   "geometry": {
    "type": "Point",
    "coordinates": [
     139.08325153,
     -32.73953408
    ]
   },
   "properties": {
    "name": "LOT 14 ORROROO-PARATOO ROAD CAVENAGH 5422",
    "locID": "LOC000114315452",
    "tech": "SATELLITE",
    "upgrade": "NULL_NA",
    "gnaf_pid": "GASA_424398695"
   }
  },
  {
   "type": "Feature",
   "geometry": {
    "type": "Point",
    "coordinates": [
     138.96695384,
     -32.72556657
    ]
   },
   "properties": {
    "name": "LOT 229 ORROROO-PARATOO ROAD CAVENAGH 5422",
    "locID": "LOC000114315452",
    "tech": "SATELLITE",
    "upgrade": "NULL_NA",
    "gnaf_pid": "GASA_424398696"
   }
  },
  {
   "type": "Feature",
   "geometry": {
    "type": "Point",
    "coordinates": [
     138.93796121,
     -32.68010368
    ]
   },
   "properties": {
    "name": "LOT 235 ORROROO-PARATOO ROAD CAVENAGH 5422",
    "locID": "LOC000114315452",
    "tech": "SATELLITE",
    "upgrade": "NULL_NA",
    "gnaf_pid": "GASA_424398697"
   }
  },
  {
   "type": "Feature",
   "geometry": {
    "type": "Point",
    "coordinates": [
     138.96505207,
     -32.73479324
    ]
   },
   "properties": {
    "name": "LOT 24 ORROROO-PARATOO ROAD CAVENAGH 5422",
    "locID": "LOC000114315452",
    "tech": "SATELLITE",
    "upgrade": "NULL_NA",
    "gnaf_pid": "GASA_424398698"
   }
  },
  {
   "type": "Feature",
   "geometry": {
    "type": "Point",
    "coordinates": [
     138.99668875,
     -32.72977575
    ]
   },
   "properties": {
    "name": "LOT 277 ORROROO-PARATOO ROAD CAVENAGH 5422",
    "locID": "LOC000114315452",
    "tech": "SATELLITE",
    "upgrade": "NULL_NA",
    "gnaf_pid": "GASA_424398699"
   }
  },
  {
   "type": "Feature",
   "geometry": {
    "type": "Point",
    "coordinates": [
     138.95083649,
     -32.69809831
    ]
   },
   "properties": {
    "name": "LOT 44 ORROROO-PARATOO ROAD CAVENAGH 5422",
    "locID": "LOC000114315452",
    "tech": "SATELLITE",
    "upgrade": "NULL_NA",
    "gnaf_pid": "GASA_424398703"
   }
  },
  {
   "type": "Feature",
   "geometry": {
    "type": "Point",
    "coordinates": [
     138.94499771,
     -32.72739347
    ]
   },
   "properties": {
    "name": "LOT 5 ORROROO-PARATOO ROAD CAVENAGH 5422",
    "locID": "LOC000131344571",
    "tech": "SATELLITE",
    "upgrade": "NULL_NA",
    "gnaf_pid": "GASA_424398704"
   }
  },
  {
   "type": "Feature",
   "geometry": {
    "type": "Point",
    "coordinates": [
     139.04793617,
     -32.70564135
    ]
   },
   "properties": {
    "name": "LOT 63 ORROROO-PARATOO ROAD CAVENAGH 5422",
    "locID": "LOC000114315452",
    "tech": "SATELLITE",
    "upgrade": "NULL_NA",
    "gnaf_pid": "GASA_424398705"
   }
  },
  {
   "type": "Feature",
   "geometry": {
    "type": "Point",
    "coordinates": [
     138.94856549,
     -32.66568396
    ]
   },
   "properties": {
    "name": "LOT 102 YALPARA ROAD CAVENAGH 5422",
    "locID": "EisxMDIgWWFscGFyYSBSZCwgQ2F2ZW5hZ2ggU0EgNTQyMiwgQXVzdHJhbGlhIjASLgoUChIJfy8XckBsvmoR2XmM4scFX2AQZioUChIJhfUPF0gTvmoRTDwTtiWDaBo",
    "tech": "SATELLITE",
    "upgrade": "UNKNOWN",
    "gnaf_pid": "GASA_424409984"
   }
  },
  {
   "type": "Feature",
   "geometry": {
    "type": "Point",
    "coordinates": [
     138.92843893,
     -32.63201709
    ]
   },
   "properties": {
    "name": "LOT 152 YALPARA ROAD CAVENAGH 5422",
    "locID": "EisxNTIgWWFscGFyYSBSZCwgQ2F2ZW5hZ2ggU0EgNTQyMiwgQXVzdHJhbGlhIjESLwoUChIJfy8XckBsvmoR2XmM4scFX2AQmAEqFAoSCYX1DxdIE75qEUw8E7Ylg2ga",
    "tech": "SATELLITE",
    "upgrade": "UNKNOWN",
    "gnaf_pid": "GASA_424526776"
   }
  },
  {
   "type": "Feature",
   "geometry": {
    "type": "Point",
    "coordinates": [
     139.04261516,
     -32.60736876
    ]
   },
   "properties": {
    "name": "LOT 197 BUNDARA ROAD CAVENAGH 5422",
    "locID": "EidCdW5kYXJhIFJkLCBDYXZlbmFnaCBTQSA1NDIyLCBBdXN0cmFsaWEiLiosChQKEglhHn5TMj6-ahGhU01nQWHnvhIUChIJtVuO7FVqvmoRoPeOYlQ2AwQ",
    "tech": "SATELLITE",
    "upgrade": "UNKNOWN",
    "gnaf_pid": "GASA_424690051"
   }
  },
  {
   "type": "Feature",
   "geometry": {
    "type": "Point",
    "coordinates": [
     139.06641314,
     -32.59777128
    ]
   },
   "properties": {
    "name": "LOT 249 BUNDARA ROAD CAVENAGH 5422",
    "locID": "EidCdW5kYXJhIFJkLCBDYXZlbmFnaCBTQSA1NDIyLCBBdXN0cmFsaWEiLiosChQKEglhHn5TMj6-ahGhU01nQWHnvhIUChIJtVuO7FVqvmoRoPeOYlQ2AwQ",
    "tech": "SATELLITE",
    "upgrade": "UNKNOWN",
    "gnaf_pid": "GASA_424690052"
   }
  },
  {
   "type": "Feature",
   "geometry": {
    "type": "Point",
    "coordinates": [
     138.90533627,
     -32.61031194
    ]
   },
   "properties": {
    "name": "LOT 150 JUBILEE ROAD CAVENAGH 5422",
    "locID": "EidKdWJpbGVlIFJkLCBDYXZlbmFnaCBTQSA1NDIyLCBBdXN0cmFsaWEiLiosChQKEgkf5YlNmG2-ahH79QPF1YfNIBIUChIJtVuO7FVqvmoRoPeOYlQ2AwQ",
    "tech": "SATELLITE",
    "upgrade": "UNKNOWN",
    "gnaf_pid": "GASA_424691501"
   }
  },
  {
   "type": "Feature",
   "geometry": {
    "type": "Point",
    "coordinates": [
     138.91282819,
     -32.62799719
    ]
   },
   "properties": {
    "name": "LOT 181 JUBILEE ROAD CAVENAGH 5422",
    "locID": "EidKdWJpbGVlIFJkLCBDYXZlbmFnaCBTQSA1NDIyLCBBdXN0cmFsaWEiLiosChQKEgkf5YlNmG2-ahH79QPF1YfNIBIUChIJtVuO7FVqvmoRoPeOYlQ2AwQ",
    "tech": "SATELLITE",
    "upgrade": "UNKNOWN",
    "gnaf_pid": "GASA_424691502"
   }
  },
  {
   "type": "Feature",
   "geometry": {
    "type": "Point",
    "coordinates": [
     138.96092763,
     -32.61572999
    ]
   },
   "properties": {
    "name": "LOT 188 WEBB ROAD CAVENAGH 5422",
    "locID": "EiRXZWJiIFJkLCBDYXZlbmFnaCBTQSA1NDIyLCBBdXN0cmFsaWEiLiosChQKEgnPsemru2y-ahGJlUqjKrfAEBIUChIJtVuO7FVqvmoRoPeOYlQ2AwQ",
    "tech": "SATELLITE",
    "upgrade": "UNKNOWN",
    "gnaf_pid": "GASA_424693868"
   }
  },
  {
   "type": "Feature",
   "geometry": {
    "type": "Point",
    "coordinates": [
     139.01921656,
     -32.71834187
    ]
   },
   "properties": {
    "name": "123 MERNGENIA ROAD CAVENAGH 5422",
    "locID": "LOC000113134030",
    "tech": "SATELLITE",
    "upgrade": "NULL_NA",
    "gnaf_pid": "GASA_424704137"
   }
  },
  {
   "type": "Feature",
   "geometry": {
    "type": "Point",
    "coordinates": [
     139.06082788,
     -32.66285404
    ]
   },
   "properties": {
    "name": "929 MERNGENIA ROAD CAVENAGH 5422",
    "locID": "LOC000114102964",
    "tech": "SATELLITE",
    "upgrade": "NULL_NA",
    "gnaf_pid": "GASA_424704138"
   }
  },
  {
   "type": "Feature",
   "geometry": {
    "type": "Point",
    "coordinates": [
     138.939056,
     -32.688908
    ]
   },
   "properties": {
    "name": "4763 ORROROO-PARATOO ROAD CAVENAGH 5422",
    "locID": "LOC000114315452",
    "tech": "SATELLITE",
    "upgrade": "NULL_NA",
    "gnaf_pid": "GASA_424705812"
   }
  },
  {
   "type": "Feature",
   "geometry": {
    "type": "Point",
    "coordinates": [
     139.08432559,
     -32.71289296
    ]
   },
   "properties": {
    "name": "219 PARKVILLA ROAD CAVENAGH 5422",
    "locID": "LOC000114967427",
    "tech": "SATELLITE",
    "upgrade": "NULL_NA",
    "gnaf_pid": "GASA_424706036"
   }
  },
  {
   "type": "Feature",
   "geometry": {
    "type": "Point",
    "coordinates": [
     139.03489211,
     -32.62565018
    ]
   },
   "properties": {
    "name": "58 RINGWOOD ROAD CAVENAGH 5422",
    "locID": "ChIJE9xauF0VvmoRalLqbUgWKNM",
    "tech": "SATELLITE",
    "upgrade": "UNKNOWN",
    "gnaf_pid": "GASA_424707564"
   }
  },
  {
   "type": "Feature",
   "geometry": {
    "type": "Point",
    "coordinates": [
     138.93825918,
     -32.67011723
    ]
   },
   "properties": {
    "name": "93 YALPARA ROAD CAVENAGH 5422",
    "locID": "LOC000150221209",
    "tech": "SATELLITE",
    "upgrade": "NULL_NA",
    "gnaf_pid": "GASA_425194895"
   }
  },
  {
   "type": "Feature",
   "geometry": {
    "type": "Point",
    "coordinates": [
     138.90312568,
     -32.73936381
    ]
   },
   "properties": {
    "name": "LOT 1 CAVENAGH ROAD CAVENAGH 5422",
    "locID": "LOC000131344571",
    "tech": "SATELLITE",
    "upgrade": "NULL_NA",
    "gnaf_pid": "GASA_425628638"
   }
  },
  {
   "type": "Feature",
   "geometry": {
    "type": "Point",
    "coordinates": [
     138.97989737,
     -32.66688549
    ]
   },
   "properties": {
    "name": "LOT 100 BUTTAMUCK HILL ROAD CAVENAGH 5422",
    "locID": "Ei5CdXR0YW11Y2sgSGlsbCBSZCwgQ2F2ZW5hZ2ggU0EgNTQyMiwgQXVzdHJhbGlhIi4qLAoUChIJh_j1BG1qvmoRsrueAsaO14ASFAoSCbVbjuxVar5qEaD3jmJUNgME",
    "tech": "SATELLITE",
    "upgrade": "UNKNOWN",
    "gnaf_pid": "GASA_425719575"
   }
  },
  {
   "type": "Feature",
   "geometry": {
    "type": "Point",
    "coordinates": [
     138.89657516,
     -32.67064427
    ]
   },
   "properties": {
    "name": "LOT 106 ORROROO-PARATOO ROAD CAVENAGH 5422",
    "locID": "LOC000114315452",
    "tech": "SATELLITE",
    "upgrade": "NULL_NA",
    "gnaf_pid": "GASA_719777561"
   }
  },
  {
   "type": "Feature",
   "geometry": {
    "type": "Point",
    "coordinates": [
     138.90197818,
     -32.6973958
    ]
   },
   "properties": {
    "name": "LOT 71 ORROROO-PARATOO ROAD CAVENAGH 5422",
    "locID": "LOC000114315452",
    "tech": "SATELLITE",
    "upgrade": "NULL_NA",
    "gnaf_pid": "GASA_719863796"
   }
  }
 ]
}