{
 "type": "FeatureCollection",
 "generated": "2023-07-17T20:04:54.814004",
 "suburb": "CLAYPANS",
 "features": [
  {
   "type": "Feature",
   "geometry": {
    "type": "Point",
    "coordinates": [
     139.69017486,
     -34.84214431
    ]
   },
   "properties": {
    "name": "LOT 15 KNIGHT ROAD CLAYPANS 5238",
    "locID": "LOC000113259804",
    "tech": "SATELLITE",
    "upgrade": "NULL_NA",
    "gnaf_pid": "GASA_424521691"
   }
  },
  {
   "type": "Feature",
   "geometry": {
    "type": "Point",
    "coordinates": [
     139.67447806,
     -34.84214715
    ]
   },
   "properties": {
    "name": "LOT 18 KNIGHT ROAD CLAYPANS 5238",
    "locID": "LOC000113259804",
    "tech": "SATELLITE",
    "upgrade": "NULL_NA",
    "gnaf_pid": "GASA_424521692"
   }
  },
  {
   "type": "Feature",
   "geometry": {
    "type": "Point",
    "coordinates": [
     139.71655177,
     -34.85060153
    ]
   },
   "properties": {
    "name": "LOT 11 SEARLE ROAD CLAYPANS 5238",
    "locID": "EiZTZWFybGUgUmQsIENsYXlwYW5zIFNBIDUyMzgsIEF1c3RyYWxpYSIuKiwKFAoSCVnsC9DYF7hqEblKhXgmjxHBEhQKEgkrOBxnGxe4ahHAII9iVDYDBA",
    "tech": "WIRELESS",
    "upgrade": "UNKNOWN",
    "gnaf_pid": "GASA_424524983"
   }
  },
  {
   "type": "Feature",
   "geometry": {
    "type": "Point",
    "coordinates": [
     139.69134697,
     -34.85227799
    ]
   },
   "properties": {
    "name": "LOT 16 SEARLE ROAD CLAYPANS 5238",
    "locID": "EiZTZWFybGUgUmQsIENsYXlwYW5zIFNBIDUyMzgsIEF1c3RyYWxpYSIuKiwKFAoSCVnsC9DYF7hqEblKhXgmjxHBEhQKEgkrOBxnGxe4ahHAII9iVDYDBA",
    "tech": "WIRELESS",
    "upgrade": "UNKNOWN",
    "gnaf_pid": "GASA_424524984"
   }
  },
  {
   "type": "Feature",
   "geometry": {
    "type": "Point",
    "coordinates": [
     139.65898917,
     -34.86188514
    ]
   },
   "properties": {
    "name": "LOT 106 GOONDOOLOO ROAD CLAYPANS 5238",
    "locID": "LOC000113220628",
    "tech": "SATELLITE",
    "upgrade": "NULL_NA",
    "gnaf_pid": "GASA_424691095"
   }
  },
  {
   "type": "Feature",
   "geometry": {
    "type": "Point",
    "coordinates": [
     139.66848641,
     -34.86224658
    ]
   },
   "properties": {
    "name": "LOT 2 GOONDOOLOO ROAD CLAYPANS 5238",
    "locID": "LOC000113220628",
    "tech": "SATELLITE",
    "upgrade": "NULL_NA",
    "gnaf_pid": "GASA_424691096"
   }
  },
  {
   "type": "Feature",
   "geometry": {
    "type": "Point",
    "coordinates": [
     139.68227768,
     -34.86207828
    ]
   },
   "properties": {
    "name": "LOT 3 GOONDOOLOO ROAD CLAYPANS 5238",
    "locID": "LOC000113220628",
    "tech": "SATELLITE",
    "upgrade": "NULL_NA",
    "gnaf_pid": "GASA_424691098"
   }
  },
  {
   "type": "Feature",
   "geometry": {
    "type": "Point",
    "coordinates": [
     139.70634702,
     -34.80691753
    ]
   },
   "properties": {
    "name": "1321 CLAYPANS ROAD CLAYPANS 5238",
    "locID": "LOC000114736839",
    "tech": "SATELLITE",
    "upgrade": "NULL_NA",
    "gnaf_pid": "GASA_424697905"
   }
  },
  {
   "type": "Feature",
   "geometry": {
    "type": "Point",
    "coordinates": [
     139.68993269,
     -34.80688465
    ]
   },
   "properties": {
    "name": "1471 CLAYPANS ROAD CLAYPANS 5238",
    "locID": "ChIJGfvqH4A9uGoRZkyUGyJajeI",
    "tech": "SATELLITE",
    "upgrade": "UNKNOWN",
    "gnaf_pid": "GASA_424697906"
   }
  },
  {
   "type": "Feature",
   "geometry": {
    "type": "Point",
    "coordinates": [
     139.6895968,
     -34.80679113
    ]
   },
   "properties": {
    "name": "1474 CLAYPANS ROAD CLAYPANS 5238",
    "locID": "LOC000114927376",
    "tech": "SATELLITE",
    "upgrade": "NULL_NA",
    "gnaf_pid": "GASA_424697907"
   }
  },
  {
   "type": "Feature",
   "geometry": {
    "type": "Point",
    "coordinates": [
     139.74078501,
     -34.80923642
    ]
   },
   "properties": {
    "name": "998 CLAYPANS ROAD CLAYPANS 5238",
    "locID": "LOC000114847890",
    "tech": "SATELLITE",
    "upgrade": "NULL_NA",
    "gnaf_pid": "GASA_424697908"
   }
  },
  {
   "type": "Feature",
   "geometry": {
    "type": "Point",
    "coordinates": [
     139.6952189,
     -34.86743927
    ]
   },
   "properties": {
    "name": "349 GOONDOOLOO ROAD CLAYPANS 5238",
    "locID": "ChIJSaRrZnQYuGoRHeJTsfoTXnQ",
    "tech": "SATELLITE",
    "upgrade": "UNKNOWN",
    "gnaf_pid": "GASA_424700246"
   }
  },
  {
   "type": "Feature",
   "geometry": {
    "type": "Point",
    "coordinates": [
     139.73659304,
     -34.86751441
    ]
   },
   "properties": {
    "name": "727 GOONDOOLOO ROAD CLAYPANS 5238",
    "locID": "ChIJf1V6jHwXuGoRRUqHl0Z32l0",
    "tech": "SATELLITE",
    "upgrade": "UNKNOWN",
    "gnaf_pid": "GASA_424700247"
   }
  },
  {
   "type": "Feature",
   "geometry": {
    "type": "Point",
    "coordinates": [
     139.66536941,
     -34.82735175
    ]
   },
   "properties": {
    "name": "370 KLUGE ROAD CLAYPANS 5238",
    "locID": "LOC000114582463",
    "tech": "WIRELESS",
    "upgrade": "NULL_NA",
    "gnaf_pid": "GASA_424702228"
   }
  },
  {
   "type": "Feature",
   "geometry": {
    "type": "Point",
    "coordinates": [
     139.69674105,
     -34.83627929
    ]
   },
   "properties": {
    "name": "324 KNIGHT ROAD CLAYPANS 5238",
    "locID": "LOC000113259804",
    "tech": "SATELLITE",
    "upgrade": "NULL_NA",
    "gnaf_pid": "GASA_424702231"
   }
  },
  {
   "type": "Feature",
   "geometry": {
    "type": "Point",
    "coordinates": [
     139.65687136,
     -34.86728542
    ]
   },
   "properties": {
    "name": "6976 HUNTER ROAD CLAYPANS 5238",
    "locID": "ChIJSRR8l_giuGoRkjk0l_StdoU",
    "tech": "WIRELESS",
    "upgrade": "UNKNOWN",
    "gnaf_pid": "GASA_424811993"
   }
  },
  {
   "type": "Feature",
   "geometry": {
    "type": "Point",
    "coordinates": [
     139.71689926,
     -34.79262829
    ]
   },
   "properties": {
    "name": "LOT 241 CLAYPANS ROAD CLAYPANS 5238",
    "locID": "LOC000114847890",
    "tech": "SATELLITE",
    "upgrade": "NULL_NA",
    "gnaf_pid": "GASA_425628683"
   }
  },
  {
   "type": "Feature",
   "geometry": {
    "type": "Point",
    "coordinates": [
     139.71945771,
     -34.81423265
    ]
   },
   "properties": {
    "name": "LOT 42 CLAYPANS ROAD CLAYPANS 5238",
    "locID": "LOC000114847890",
    "tech": "SATELLITE",
    "upgrade": "NULL_NA",
    "gnaf_pid": "GASA_425628684"
   }
  },
  {
   "type": "Feature",
   "geometry": {
    "type": "Point",
    "coordinates": [
     139.67313883,
     -34.85228677
    ]
   },
   "properties": {
    "name": "LOT 17 GOONDOOLOO ROAD CLAYPANS 5238",
    "locID": "LOC000113220628",
    "tech": "SATELLITE",
    "upgrade": "NULL_NA",
    "gnaf_pid": "GASA_425721012"
   }
  },
  {
   "type": "Feature",
   "geometry": {
    "type": "Point",
    "coordinates": [
     139.73414326,
     -34.79279379
    ]
   },
   "properties": {
    "name": "LOT 162 WANBI ROAD CLAYPANS 5238",
    "locID": "LOC000114784912",
    "tech": "SATELLITE",
    "upgrade": "NULL_NA",
    "gnaf_pid": "GASA_720847394"
   }
  },
  {
   "type": "Feature",
   "geometry": {
    "type": "Point",
    "coordinates": [
     139.6822666,
     -34.7945053
    ]
   },
   "properties": {
    "name": "LOT 240 KLUGE ROAD CLAYPANS 5238",
    "locID": "EikyNDAgS2x1Z2UgUmQsIENsYXlwYW5zIFNBIDUyMzgsIEF1c3RyYWxpYSIxEi8KFAoSCc1Fakg5PbhqEbQfVXh1uruMEPABKhQKEgll9VSeIz24ahGREq7D2ufILA",
    "tech": "WIRELESS",
    "upgrade": "UNKNOWN",
    "gnaf_pid": "GASA_720847452"
   }
  }
 ]
}