{
 "type": "FeatureCollection",
 "generated": "2024-09-01T06:49:05.432467",
 "suburb": "CLAYPANS",
 "features": [
  {
   "type": "Feature",
   "geometry": {
    "type": "Point",
    "coordinates": [
     139.69017486,
     -34.84214431
    ]
   },
   "properties": {
    "name": "LOT 15 KNIGHT ROAD CLAYPANS 5238",
    "locID": "LOC000113259804",
    "tech": "SATELLITE",
    "upgrade": "NULL_NA",
    "gnaf_pid": "GASA_424521691",
    "tech_change_status": "Not Planned"
   }
  },
  {
   "type": "Feature",
   "geometry": {
    "type": "Point",
    "coordinates": [
     139.67447806,
     -34.84214715
    ]
   },
   "properties": {
    "name": "LOT 18 KNIGHT ROAD CLAYPANS 5238",
    "locID": "LOC000113259804",
    "tech": "SATELLITE",
    "upgrade": "NULL_NA",
    "gnaf_pid": "GASA_424521692",
    "tech_change_status": "Not Planned"
   }
  },
  {
   "type": "Feature",
   "geometry": {
    "type": "Point",
    "coordinates": [
     139.65898917,
     -34.86188514
    ]
   },
   "properties": {
    "name": "LOT 106 GOONDOOLOO ROAD CLAYPANS 5238",
    "locID": "LOC000113220628",
    "tech": "SATELLITE",
    "upgrade": "NULL_NA",
    "gnaf_pid": "GASA_424691095",
    "tech_change_status": "Not Planned"
   }
  },
  {
   "type": "Feature",
   "geometry": {
    "type": "Point",
    "coordinates": [
     139.66848641,
     -34.86224658
    ]
   },
   "properties": {
    "name": "LOT 2 GOONDOOLOO ROAD CLAYPANS 5238",
    "locID": "LOC000113220628",
    "tech": "SATELLITE",
    "upgrade": "NULL_NA",
    "gnaf_pid": "GASA_424691096",
    "tech_change_status": "Not Planned"
   }
  },
  {
   "type": "Feature",
   "geometry": {
    "type": "Point",
    "coordinates": [
     139.68227768,
     -34.86207828
    ]
   },
   "properties": {
    "name": "LOT 3 GOONDOOLOO ROAD CLAYPANS 5238",
    "locID": "LOC000113220628",
    "tech": "SATELLITE",
    "upgrade": "NULL_NA",
    "gnaf_pid": "GASA_424691098",
    "tech_change_status": "Not Planned"
   }
  },
  {
   "type": "Feature",
   "geometry": {
    "type": "Point",
    "coordinates": [
     139.70634702,
     -34.80691753
    ]
   },
   "properties": {
    "name": "1321 CLAYPANS ROAD CLAYPANS 5238",
    "locID": "LOC000114736839",
    "tech": "SATELLITE",
    "upgrade": "NULL_NA",
    "gnaf_pid": "GASA_424697905",
    "tech_change_status": "Not Planned"
   }
  },
  {
   "type": "Feature",
   "geometry": {
    "type": "Point",
    "coordinates": [
     139.6895968,
     -34.80679113
    ]
   },
   "properties": {
    "name": "1474 CLAYPANS ROAD CLAYPANS 5238",
    "locID": "LOC000114927376",
    "tech": "SATELLITE",
    "upgrade": "NULL_NA",
    "gnaf_pid": "GASA_424697907",
    "tech_change_status": "Not Planned"
   }
  },
  {
   "type": "Feature",
   "geometry": {
    "type": "Point",
    "coordinates": [
     139.74078501,
     -34.80923642
    ]
   },
   "properties": {
    "name": "998 CLAYPANS ROAD CLAYPANS 5238",
    "locID": "LOC000114847890",
    "tech": "SATELLITE",
    "upgrade": "NULL_NA",
    "gnaf_pid": "GASA_424697908",
    "tech_change_status": "Not Planned"
   }
  },
  {
   "type": "Feature",
   "geometry": {
    "type": "Point",
    "coordinates": [
     139.66536941,
     -34.82735175
    ]
   },
   "properties": {
    "name": "370 KLUGE ROAD CLAYPANS 5238",
    "locID": "LOC000114582463",
    "tech": "WIRELESS",
    "upgrade": "NULL_NA",
    "gnaf_pid": "GASA_424702228",
    "tech_change_status": "Not Planned",
    "program_type": "Fixed Wireless and Satellite Upgrade Program",
    "target_eligibility_quarter": "Dec 2024"
   }
  },
  {
   "type": "Feature",
   "geometry": {
    "type": "Point",
    "coordinates": [
     139.69674105,
     -34.83627929
    ]
   },
   "properties": {
    "name": "324 KNIGHT ROAD CLAYPANS 5238",
    "locID": "LOC000113259804",
    "tech": "SATELLITE",
    "upgrade": "NULL_NA",
    "gnaf_pid": "GASA_424702231",
    "tech_change_status": "Not Planned"
   }
  },
  {
   "type": "Feature",
   "geometry": {
    "type": "Point",
    "coordinates": [
     139.71689926,
     -34.79262829
    ]
   },
   "properties": {
    "name": "LOT 241 CLAYPANS ROAD CLAYPANS 5238",
    "locID": "LOC000114847890",
    "tech": "SATELLITE",
    "upgrade": "NULL_NA",
    "gnaf_pid": "GASA_425628683",
    "tech_change_status": "Not Planned"
   }
  },
  {
   "type": "Feature",
   "geometry": {
    "type": "Point",
    "coordinates": [
     139.71945771,
     -34.81423265
    ]
   },
   "properties": {
    "name": "LOT 42 CLAYPANS ROAD CLAYPANS 5238",
    "locID": "LOC000114847890",
    "tech": "SATELLITE",
    "upgrade": "NULL_NA",
    "gnaf_pid": "GASA_425628684",
    "tech_change_status": "Not Planned"
   }
  },
  {
   "type": "Feature",
   "geometry": {
    "type": "Point",
    "coordinates": [
     139.67313883,
     -34.85228677
    ]
   },
   "properties": {
    "name": "LOT 17 GOONDOOLOO ROAD CLAYPANS 5238",
    "locID": "LOC000113220628",
    "tech": "SATELLITE",
    "upgrade": "NULL_NA",
    "gnaf_pid": "GASA_425721012",
    "tech_change_status": "Not Planned"
   }
  },
  {
   "type": "Feature",
   "geometry": {
    "type": "Point",
    "coordinates": [
     139.73414326,
     -34.79279379
    ]
   },
   "properties": {
    "name": "LOT 162 WANBI ROAD CLAYPANS 5238",
    "locID": "LOC000114784912",
    "tech": "SATELLITE",
    "upgrade": "NULL_NA",
    "gnaf_pid": "GASA_720847394",
    "tech_change_status": "Not Planned"
   }
  }
 ]
}