{
 "type": "FeatureCollection",
 "generated": "2024-09-01T10:04:42.706988",
 "suburb": "GALGA",
 "features": [
  {
   "type": "Feature",
   "geometry": {
    "type": "Point",
    "coordinates": [
     139.91263214,
     -34.73954952
    ]
   },
   "properties": {
    "name": "LOT 62 WALKER FLAT ROAD GALGA 5308",
    "locID": "LOC000112968095",
    "tech": "SATELLITE",
    "upgrade": "NULL_NA",
    "gnaf_pid": "GASA_424124713",
    "tech_change_status": "Not Planned"
   }
  },
  {
   "type": "Feature",
   "geometry": {
    "type": "Point",
    "coordinates": [
     139.95894193,
     -34.69502786
    ]
   },
   "properties": {
    "name": "LOT 152 BAKARA ROAD GALGA 5308",
    "locID": "LOC000115031102",
    "tech": "SATELLITE",
    "upgrade": "NULL_NA",
    "gnaf_pid": "GASA_424288111",
    "tech_change_status": "Not Planned"
   }
  },
  {
   "type": "Feature",
   "geometry": {
    "type": "Point",
    "coordinates": [
     139.96330522,
     -34.61961668
    ]
   },
   "properties": {
    "name": "LOT 5E OLD LOXTON ROAD GALGA 5308",
    "locID": "LOC000114672133",
    "tech": "SATELLITE",
    "upgrade": "NULL_NA",
    "gnaf_pid": "GASA_424322916",
    "tech_change_status": "Not Planned"
   }
  },
  {
   "type": "Feature",
   "geometry": {
    "type": "Point",
    "coordinates": [
     139.91221358,
     -34.73939611
    ]
   },
   "properties": {
    "name": "LOT 108 WALKER FLAT ROAD GALGA 5308",
    "locID": "LOC000112968095",
    "tech": "SATELLITE",
    "upgrade": "NULL_NA",
    "gnaf_pid": "GASA_424338929",
    "tech_change_status": "Not Planned"
   }
  },
  {
   "type": "Feature",
   "geometry": {
    "type": "Point",
    "coordinates": [
     139.99608214,
     -34.61407604
    ]
   },
   "properties": {
    "name": "3327 OLD LOXTON ROAD GALGA 5308",
    "locID": "LOC000030298512",
    "tech": "SATELLITE",
    "upgrade": "NULL_NA",
    "gnaf_pid": "GASA_424523509",
    "tech_change_status": "Not Planned"
   }
  },
  {
   "type": "Feature",
   "geometry": {
    "type": "Point",
    "coordinates": [
     139.99053082,
     -34.69536923
    ]
   },
   "properties": {
    "name": "234 ANDRISKE ROAD GALGA 5308",
    "locID": "LOC000115062573",
    "tech": "SATELLITE",
    "upgrade": "NULL_NA",
    "gnaf_pid": "GASA_424695538",
    "tech_change_status": "Not Planned"
   }
  },
  {
   "type": "Feature",
   "geometry": {
    "type": "Point",
    "coordinates": [
     139.8618767,
     -34.61154176
    ]
   },
   "properties": {
    "name": "1995 BAKARA WELL ROAD GALGA 5308",
    "locID": "LOC000115031102",
    "tech": "SATELLITE",
    "upgrade": "NULL_NA",
    "gnaf_pid": "GASA_424695862",
    "tech_change_status": "Not Planned"
   }
  },
  {
   "type": "Feature",
   "geometry": {
    "type": "Point",
    "coordinates": [
     139.87421658,
     -34.69402891
    ]
   },
   "properties": {
    "name": "2167 BAKARA ROAD GALGA 5308",
    "locID": "LOC000114896688",
    "tech": "SATELLITE",
    "upgrade": "NULL_NA",
    "gnaf_pid": "GASA_424695869",
    "tech_change_status": "Not Planned"
   }
  },
  {
   "type": "Feature",
   "geometry": {
    "type": "Point",
    "coordinates": [
     139.91890543,
     -34.69423853
    ]
   },
   "properties": {
    "name": "2576 BAKARA ROAD GALGA 5308",
    "locID": "LOC000064984098",
    "tech": "SATELLITE",
    "upgrade": "NULL_NA",
    "gnaf_pid": "GASA_424695870",
    "tech_change_status": "Not Planned"
   }
  },
  {
   "type": "Feature",
   "geometry": {
    "type": "Point",
    "coordinates": [
     139.92367071,
     -34.69416698
    ]
   },
   "properties": {
    "name": "2619 BAKARA ROAD GALGA 5308",
    "locID": "LOC000114986959",
    "tech": "SATELLITE",
    "upgrade": "NULL_NA",
    "gnaf_pid": "GASA_424695871",
    "tech_change_status": "Not Planned"
   }
  },
  {
   "type": "Feature",
   "geometry": {
    "type": "Point",
    "coordinates": [
     139.94439241,
     -34.69427941
    ]
   },
   "properties": {
    "name": "2808 BAKARA ROAD GALGA 5308",
    "locID": "LOC000114806598",
    "tech": "SATELLITE",
    "upgrade": "NULL_NA",
    "gnaf_pid": "GASA_424695872",
    "tech_change_status": "Not Planned"
   }
  },
  {
   "type": "Feature",
   "geometry": {
    "type": "Point",
    "coordinates": [
     140.01668021,
     -34.71012617
    ]
   },
   "properties": {
    "name": "487 BERGER ROAD GALGA 5308",
    "locID": "LOC000114673664",
    "tech": "SATELLITE",
    "upgrade": "NULL_NA",
    "gnaf_pid": "GASA_424696227",
    "tech_change_status": "Not Planned"
   }
  },
  {
   "type": "Feature",
   "geometry": {
    "type": "Point",
    "coordinates": [
     139.96241411,
     -34.69704066
    ]
   },
   "properties": {
    "name": "687 GALGA ROAD GALGA 5308",
    "locID": "LOC000114620808",
    "tech": "SATELLITE",
    "upgrade": "NULL_NA",
    "gnaf_pid": "GASA_424699913",
    "tech_change_status": "Not Planned"
   }
  },
  {
   "type": "Feature",
   "geometry": {
    "type": "Point",
    "coordinates": [
     139.96746851,
     -34.69224377
    ]
   },
   "properties": {
    "name": "763 GALGA ROAD GALGA 5308",
    "locID": "LOC000112934922",
    "tech": "SATELLITE",
    "upgrade": "NULL_NA",
    "gnaf_pid": "GASA_424699914",
    "tech_change_status": "Not Planned"
   }
  },
  {
   "type": "Feature",
   "geometry": {
    "type": "Point",
    "coordinates": [
     139.9757131,
     -34.71634011
    ]
   },
   "properties": {
    "name": "231 JOHNS ROAD GALGA 5308",
    "locID": "LOC000113177201",
    "tech": "SATELLITE",
    "upgrade": "NULL_NA",
    "gnaf_pid": "GASA_424701592",
    "tech_change_status": "Not Planned"
   }
  },
  {
   "type": "Feature",
   "geometry": {
    "type": "Point",
    "coordinates": [
     139.97581157,
     -34.71416751
    ]
   },
   "properties": {
    "name": "256 JOHNS ROAD GALGA 5308",
    "locID": "LOC000113183676",
    "tech": "SATELLITE",
    "upgrade": "NULL_NA",
    "gnaf_pid": "GASA_424701593",
    "tech_change_status": "Not Planned"
   }
  },
  {
   "type": "Feature",
   "geometry": {
    "type": "Point",
    "coordinates": [
     139.96111232,
     -34.69646734
    ]
   },
   "properties": {
    "name": "13 OGILVIE TERRACE GALGA 5308",
    "locID": "LOC100079009714",
    "tech": "SATELLITE",
    "upgrade": "NULL_NA",
    "gnaf_pid": "GASA_424705513",
    "tech_change_status": "Not Planned"
   }
  },
  {
   "type": "Feature",
   "geometry": {
    "type": "Point",
    "coordinates": [
     139.96023069,
     -34.69652242
    ]
   },
   "properties": {
    "name": "5 OGILVIE TERRACE GALGA 5308",
    "locID": "LOC000115022461",
    "tech": "SATELLITE",
    "upgrade": "NULL_NA",
    "gnaf_pid": "GASA_424705514",
    "tech_change_status": "Not Planned"
   }
  },
  {
   "type": "Feature",
   "geometry": {
    "type": "Point",
    "coordinates": [
     139.96050582,
     -34.69647722
    ]
   },
   "properties": {
    "name": "7 OGILVIE TERRACE GALGA 5308",
    "locID": "LOC000114930596",
    "tech": "SATELLITE",
    "upgrade": "NULL_NA",
    "gnaf_pid": "GASA_424705515",
    "tech_change_status": "Not Planned"
   }
  },
  {
   "type": "Feature",
   "geometry": {
    "type": "Point",
    "coordinates": [
     139.99173381,
     -34.61627578
    ]
   },
   "properties": {
    "name": "3280 OLD LOXTON ROAD GALGA 5308",
    "locID": "LOC000114672133",
    "tech": "SATELLITE",
    "upgrade": "NULL_NA",
    "gnaf_pid": "GASA_424705575",
    "tech_change_status": "Not Planned"
   }
  },
  {
   "type": "Feature",
   "geometry": {
    "type": "Point",
    "coordinates": [
     139.96018737,
     -34.69542826
    ]
   },
   "properties": {
    "name": "27 PAUL STREET GALGA 5308",
    "locID": "LOC000114442364",
    "tech": "SATELLITE",
    "upgrade": "NULL_NA",
    "gnaf_pid": "GASA_424706079",
    "tech_change_status": "Not Planned"
   }
  },
  {
   "type": "Feature",
   "geometry": {
    "type": "Point",
    "coordinates": [
     139.96006882,
     -34.69536757
    ]
   },
   "properties": {
    "name": "30 PAUL STREET GALGA 5308",
    "locID": "LOC000114592046",
    "tech": "SATELLITE",
    "upgrade": "NULL_NA",
    "gnaf_pid": "GASA_424706080",
    "tech_change_status": "Not Planned"
   }
  },
  {
   "type": "Feature",
   "geometry": {
    "type": "Point",
    "coordinates": [
     139.9627964,
     -34.6953678
    ]
   },
   "properties": {
    "name": "4 PAUL STREET GALGA 5308",
    "locID": "LOC100078112327",
    "tech": "SATELLITE",
    "upgrade": "NULL_NA",
    "gnaf_pid": "GASA_424706081",
    "tech_change_status": "Not Planned"
   }
  },
  {
   "type": "Feature",
   "geometry": {
    "type": "Point",
    "coordinates": [
     139.95617628,
     -34.74142809
    ]
   },
   "properties": {
    "name": "3362 WALKER FLAT ROAD GALGA 5308",
    "locID": "LOC000112968095",
    "tech": "SATELLITE",
    "upgrade": "NULL_NA",
    "gnaf_pid": "GASA_424710145",
    "tech_change_status": "Not Planned"
   }
  },
  {
   "type": "Feature",
   "geometry": {
    "type": "Point",
    "coordinates": [
     139.96073291,
     -34.69648042
    ]
   },
   "properties": {
    "name": "9 OGILVIE TERRACE GALGA 5308",
    "locID": "LOC100078112362",
    "tech": "SATELLITE",
    "upgrade": "NULL_NA",
    "gnaf_pid": "GASA_425723151",
    "tech_change_status": "Not Planned"
   }
  },
  {
   "type": "Feature",
   "geometry": {
    "type": "Point",
    "coordinates": [
     139.96639677,
     -34.62059992
    ]
   },
   "properties": {
    "name": "LOT 5D OLD LOXTON ROAD GALGA 5308",
    "locID": "LOC000114672133",
    "tech": "SATELLITE",
    "upgrade": "NULL_NA",
    "gnaf_pid": "GASA_720414183",
    "tech_change_status": "Not Planned"
   }
  },
  {
   "type": "Feature",
   "geometry": {
    "type": "Point",
    "coordinates": [
     139.93242087,
     -34.6561454
    ]
   },
   "properties": {
    "name": "LOT 13A BAKARA ROAD GALGA 5308",
    "locID": "LOC000114067795",
    "tech": "SATELLITE",
    "upgrade": "NULL_NA",
    "gnaf_pid": "GASA_720416477",
    "tech_change_status": "Not Planned"
   }
  }
 ]
}