{
 "type": "FeatureCollection",
 "generated": "2023-10-21T01:57:18.719453",
 "suburb": "GALGA",
 "features": [
  {
   "type": "Feature",
   "geometry": {
    "type": "Point",
    "coordinates": [
     139.96076073,
     -34.69469669
    ]
   },
   "properties": {
    "name": "LOT 4 MAUDE TERRACE GALGA 5308",
    "locID": "EidNYXVkZSBUZXJyYWNlLCBHYWxnYSBTQSA1MzA4LCBBdXN0cmFsaWEiLiosChQKEglRei_V43a4ahEDvcEMoUcsdxIUChIJN-CASMOJx2oRUOmOYlQ2AwQ",
    "tech": "SATELLITE",
    "upgrade": "UNKNOWN",
    "gnaf_pid": "GASA_415716867"
   }
  },
  {
   "type": "Feature",
   "geometry": {
    "type": "Point",
    "coordinates": [
     139.91263214,
     -34.73954952
    ]
   },
   "properties": {
    "name": "LOT 62 WALKER FLAT ROAD GALGA 5308",
    "locID": "LOC000112968095",
    "tech": "SATELLITE",
    "upgrade": "NULL_NA",
    "gnaf_pid": "GASA_424124713"
   }
  },
  {
   "type": "Feature",
   "geometry": {
    "type": "Point",
    "coordinates": [
     139.96096492,
     -34.69636692
    ]
   },
   "properties": {
    "name": "LOT 46 OGILVIE TERRACE GALGA 5308",
    "locID": "Eiw0NiBPZ2lsdmllIFRlcnJhY2UsIEdhbGdhIFNBIDUzMDgsIEF1c3RyYWxpYSIwEi4KFAoSCY1dfMfmdrhqEaDSPElUNgMTEC4qFAoSCa_nQt3jdrhqEQawAArhS6nM",
    "tech": "SATELLITE",
    "upgrade": "UNKNOWN",
    "gnaf_pid": "GASA_424197329"
   }
  },
  {
   "type": "Feature",
   "geometry": {
    "type": "Point",
    "coordinates": [
     139.95894193,
     -34.69502786
    ]
   },
   "properties": {
    "name": "LOT 152 BAKARA ROAD GALGA 5308",
    "locID": "LOC000115031102",
    "tech": "SATELLITE",
    "upgrade": "NULL_NA",
    "gnaf_pid": "GASA_424288111"
   }
  },
  {
   "type": "Feature",
   "geometry": {
    "type": "Point",
    "coordinates": [
     139.89022607,
     -34.73081159
    ]
   },
   "properties": {
    "name": "LOT 10 KUNLARA ROAD GALGA 5308",
    "locID": "EicxMCBLdW5sYXJhIFJkLCBHYWxnYSBTQSA1MzA4LCBBdXN0cmFsaWEiMBIuChQKEgkbiqkXSnK4ahH8fRePDJvXmBAKKhQKEglzPMbcoXO4ahHcFNP_jPpNkw",
    "tech": "SATELLITE",
    "upgrade": "UNKNOWN",
    "gnaf_pid": "GASA_424312328"
   }
  },
  {
   "type": "Feature",
   "geometry": {
    "type": "Point",
    "coordinates": [
     139.96376949,
     -34.69478708
    ]
   },
   "properties": {
    "name": "LOT 13 MAUDE TERRACE GALGA 5308",
    "locID": "EidNYXVkZSBUZXJyYWNlLCBHYWxnYSBTQSA1MzA4LCBBdXN0cmFsaWEiLiosChQKEglRei_V43a4ahEDvcEMoUcsdxIUChIJN-CASMOJx2oRUOmOYlQ2AwQ",
    "tech": "SATELLITE",
    "upgrade": "UNKNOWN",
    "gnaf_pid": "GASA_424317012"
   }
  },
  {
   "type": "Feature",
   "geometry": {
    "type": "Point",
    "coordinates": [
     139.96021141,
     -34.69469468
    ]
   },
   "properties": {
    "name": "LOT 1 MAUDE TERRACE GALGA 5308",
    "locID": "EidNYXVkZSBUZXJyYWNlLCBHYWxnYSBTQSA1MzA4LCBBdXN0cmFsaWEiLiosChQKEglRei_V43a4ahEDvcEMoUcsdxIUChIJN-CASMOJx2oRUOmOYlQ2AwQ",
    "tech": "SATELLITE",
    "upgrade": "UNKNOWN",
    "gnaf_pid": "GASA_424317013"
   }
  },
  {
   "type": "Feature",
   "geometry": {
    "type": "Point",
    "coordinates": [
     139.96109588,
     -34.69469847
    ]
   },
   "properties": {
    "name": "LOT 5 MAUDE TERRACE GALGA 5308",
    "locID": "EidNYXVkZSBUZXJyYWNlLCBHYWxnYSBTQSA1MzA4LCBBdXN0cmFsaWEiLiosChQKEglRei_V43a4ahEDvcEMoUcsdxIUChIJN-CASMOJx2oRUOmOYlQ2AwQ",
    "tech": "SATELLITE",
    "upgrade": "UNKNOWN",
    "gnaf_pid": "GASA_424317014"
   }
  },
  {
   "type": "Feature",
   "geometry": {
    "type": "Point",
    "coordinates": [
     139.96196855,
     -34.69496728
    ]
   },
   "properties": {
    "name": "LOT 7 MAUDE TERRACE GALGA 5308",
    "locID": "EidNYXVkZSBUZXJyYWNlLCBHYWxnYSBTQSA1MzA4LCBBdXN0cmFsaWEiLiosChQKEglRei_V43a4ahEDvcEMoUcsdxIUChIJN-CASMOJx2oRUOmOYlQ2AwQ",
    "tech": "SATELLITE",
    "upgrade": "UNKNOWN",
    "gnaf_pid": "GASA_424317015"
   }
  },
  {
   "type": "Feature",
   "geometry": {
    "type": "Point",
    "coordinates": [
     139.9592174,
     -34.69621308
    ]
   },
   "properties": {
    "name": "LOT 50 MUNRO TERRACE GALGA 5308",
    "locID": "EidNdW5ybyBUZXJyYWNlLCBHYWxnYSBTQSA1MzA4LCBBdXN0cmFsaWEiLiosChQKEgklDuQn4Xa4ahE3LV5p-qoyHxIUChIJN-CASMOJx2oRUOmOYlQ2AwQ",
    "tech": "SATELLITE",
    "upgrade": "UNKNOWN",
    "gnaf_pid": "GASA_424320178"
   }
  },
  {
   "type": "Feature",
   "geometry": {
    "type": "Point",
    "coordinates": [
     139.95913973,
     -34.69759051
    ]
   },
   "properties": {
    "name": "LOT 101 OGILVIE TERRACE GALGA 5308",
    "locID": "Ei0xMDEgT2dpbHZpZSBUZXJyYWNlLCBHYWxnYSBTQSA1MzA4LCBBdXN0cmFsaWEiMBIuChQKEgmNXXzH5na4ahGg0jxJVDYDExBlKhQKEgmv50Ld43a4ahEGsAAK4UupzA",
    "tech": "SATELLITE",
    "upgrade": "UNKNOWN",
    "gnaf_pid": "GASA_424322711"
   }
  },
  {
   "type": "Feature",
   "geometry": {
    "type": "Point",
    "coordinates": [
     139.96330522,
     -34.61961668
    ]
   },
   "properties": {
    "name": "LOT 5E OLD LOXTON ROAD GALGA 5308",
    "locID": "LOC000114672133",
    "tech": "SATELLITE",
    "upgrade": "NULL_NA",
    "gnaf_pid": "GASA_424322916"
   }
  },
  {
   "type": "Feature",
   "geometry": {
    "type": "Point",
    "coordinates": [
     139.96108986,
     -34.69523622
    ]
   },
   "properties": {
    "name": "LOT 28 PAUL STREET GALGA 5308",
    "locID": "EiQyOCBQYXVsIFN0LCBHYWxnYSBTQSA1MzA4LCBBdXN0cmFsaWEiMBIuChQKEgkpWd4z4Xa4ahEg0TxJVDYDExAcKhQKEgmRzIlE4Xa4ahHnZPTHLNKp3g",
    "tech": "SATELLITE",
    "upgrade": "UNKNOWN",
    "gnaf_pid": "GASA_424324226"
   }
  },
  {
   "type": "Feature",
   "geometry": {
    "type": "Point",
    "coordinates": [
     139.96064209,
     -34.6959129
    ]
   },
   "properties": {
    "name": "LOT 36 PAUL STREET GALGA 5308",
    "locID": "EiQzNiBQYXVsIFN0LCBHYWxnYSBTQSA1MzA4LCBBdXN0cmFsaWEiMBIuChQKEgkpWd4z4Xa4ahEg0TxJVDYDExAkKhQKEgmRzIlE4Xa4ahHnZPTHLNKp3g",
    "tech": "SATELLITE",
    "upgrade": "UNKNOWN",
    "gnaf_pid": "GASA_424324228"
   }
  },
  {
   "type": "Feature",
   "geometry": {
    "type": "Point",
    "coordinates": [
     139.96191134,
     -34.69596655
    ]
   },
   "properties": {
    "name": "LOT 40 PAUL STREET GALGA 5308",
    "locID": "EiQ0MCBQYXVsIFN0LCBHYWxnYSBTQSA1MzA4LCBBdXN0cmFsaWEiMBIuChQKEgkpWd4z4Xa4ahEg0TxJVDYDExAoKhQKEgmRzIlE4Xa4ahHnZPTHLNKp3g",
    "tech": "SATELLITE",
    "upgrade": "UNKNOWN",
    "gnaf_pid": "GASA_424324230"
   }
  },
  {
   "type": "Feature",
   "geometry": {
    "type": "Point",
    "coordinates": [
     139.91316702,
     -34.73967312
    ]
   },
   "properties": {
    "name": "LOT 106 WAIKERIE ROAD GALGA 5308",
    "locID": "EiVXYWlrZXJpZSBSZCwgR2FsZ2EgU0EgNTMwOCwgQXVzdHJhbGlhIi4qLAoUChIJ3YHdV-Z2uGoRNJIaYW_rqA4SFAoSCTfggEjDicdqEVDpjmJUNgME",
    "tech": "SATELLITE",
    "upgrade": "UNKNOWN",
    "gnaf_pid": "GASA_424338780"
   }
  },
  {
   "type": "Feature",
   "geometry": {
    "type": "Point",
    "coordinates": [
     139.91221358,
     -34.73939611
    ]
   },
   "properties": {
    "name": "LOT 108 WALKER FLAT ROAD GALGA 5308",
    "locID": "LOC000112968095",
    "tech": "SATELLITE",
    "upgrade": "NULL_NA",
    "gnaf_pid": "GASA_424338929"
   }
  },
  {
   "type": "Feature",
   "geometry": {
    "type": "Point",
    "coordinates": [
     139.99608214,
     -34.61407604
    ]
   },
   "properties": {
    "name": "3327 OLD LOXTON ROAD GALGA 5308",
    "locID": "LOC000030298512",
    "tech": "SATELLITE",
    "upgrade": "NULL_NA",
    "gnaf_pid": "GASA_424523509"
   }
  },
  {
   "type": "Feature",
   "geometry": {
    "type": "Point",
    "coordinates": [
     139.99053082,
     -34.69536923
    ]
   },
   "properties": {
    "name": "234 ANDRISKE ROAD GALGA 5308",
    "locID": "LOC000115062573",
    "tech": "SATELLITE",
    "upgrade": "NULL_NA",
    "gnaf_pid": "GASA_424695538"
   }
  },
  {
   "type": "Feature",
   "geometry": {
    "type": "Point",
    "coordinates": [
     139.8618767,
     -34.61154176
    ]
   },
   "properties": {
    "name": "1995 BAKARA WELL ROAD GALGA 5308",
    "locID": "LOC000115031102",
    "tech": "SATELLITE",
    "upgrade": "NULL_NA",
    "gnaf_pid": "GASA_424695862"
   }
  },
  {
   "type": "Feature",
   "geometry": {
    "type": "Point",
    "coordinates": [
     139.93506308,
     -34.57512965
    ]
   },
   "properties": {
    "name": "922 BAKARA WELL ROAD GALGA 5308",
    "locID": "ChIJowXMxv17uGoRczyNGB41lBs",
    "tech": "SATELLITE",
    "upgrade": "UNKNOWN",
    "gnaf_pid": "GASA_424695863"
   }
  },
  {
   "type": "Feature",
   "geometry": {
    "type": "Point",
    "coordinates": [
     139.87421658,
     -34.69402891
    ]
   },
   "properties": {
    "name": "2167 BAKARA ROAD GALGA 5308",
    "locID": "LOC000114896688",
    "tech": "SATELLITE",
    "upgrade": "NULL_NA",
    "gnaf_pid": "GASA_424695869"
   }
  },
  {
   "type": "Feature",
   "geometry": {
    "type": "Point",
    "coordinates": [
     139.91890543,
     -34.69423853
    ]
   },
   "properties": {
    "name": "2576 BAKARA ROAD GALGA 5308",
    "locID": "LOC000064984098",
    "tech": "SATELLITE",
    "upgrade": "NULL_NA",
    "gnaf_pid": "GASA_424695870"
   }
  },
  {
   "type": "Feature",
   "geometry": {
    "type": "Point",
    "coordinates": [
     139.92367071,
     -34.69416698
    ]
   },
   "properties": {
    "name": "2619 BAKARA ROAD GALGA 5308",
    "locID": "LOC000114986959",
    "tech": "SATELLITE",
    "upgrade": "NULL_NA",
    "gnaf_pid": "GASA_424695871"
   }
  },
  {
   "type": "Feature",
   "geometry": {
    "type": "Point",
    "coordinates": [
     139.94439241,
     -34.69427941
    ]
   },
   "properties": {
    "name": "2808 BAKARA ROAD GALGA 5308",
    "locID": "LOC000114806598",
    "tech": "SATELLITE",
    "upgrade": "NULL_NA",
    "gnaf_pid": "GASA_424695872"
   }
  },
  {
   "type": "Feature",
   "geometry": {
    "type": "Point",
    "coordinates": [
     140.01668021,
     -34.71012617
    ]
   },
   "properties": {
    "name": "487 BERGER ROAD GALGA 5308",
    "locID": "LOC000114673664",
    "tech": "SATELLITE",
    "upgrade": "NULL_NA",
    "gnaf_pid": "GASA_424696227"
   }
  },
  {
   "type": "Feature",
   "geometry": {
    "type": "Point",
    "coordinates": [
     139.96241411,
     -34.69704066
    ]
   },
   "properties": {
    "name": "687 GALGA ROAD GALGA 5308",
    "locID": "LOC000114620808",
    "tech": "SATELLITE",
    "upgrade": "NULL_NA",
    "gnaf_pid": "GASA_424699913"
   }
  },
  {
   "type": "Feature",
   "geometry": {
    "type": "Point",
    "coordinates": [
     139.96746851,
     -34.69224377
    ]
   },
   "properties": {
    "name": "763 GALGA ROAD GALGA 5308",
    "locID": "LOC000112934922",
    "tech": "SATELLITE",
    "upgrade": "NULL_NA",
    "gnaf_pid": "GASA_424699914"
   }
  },
  {
   "type": "Feature",
   "geometry": {
    "type": "Point",
    "coordinates": [
     139.9757131,
     -34.71634011
    ]
   },
   "properties": {
    "name": "231 JOHNS ROAD GALGA 5308",
    "locID": "LOC000113177201",
    "tech": "SATELLITE",
    "upgrade": "NULL_NA",
    "gnaf_pid": "GASA_424701592"
   }
  },
  {
   "type": "Feature",
   "geometry": {
    "type": "Point",
    "coordinates": [
     139.97581157,
     -34.71416751
    ]
   },
   "properties": {
    "name": "256 JOHNS ROAD GALGA 5308",
    "locID": "LOC000113183676",
    "tech": "SATELLITE",
    "upgrade": "NULL_NA",
    "gnaf_pid": "GASA_424701593"
   }
  },
  {
   "type": "Feature",
   "geometry": {
    "type": "Point",
    "coordinates": [
     139.96111232,
     -34.69646734
    ]
   },
   "properties": {
    "name": "13 OGILVIE TERRACE GALGA 5308",
    "locID": "LOC100079009714",
    "tech": "SATELLITE",
    "upgrade": "NULL_NA",
    "gnaf_pid": "GASA_424705513"
   }
  },
  {
   "type": "Feature",
   "geometry": {
    "type": "Point",
    "coordinates": [
     139.96023069,
     -34.69652242
    ]
   },
   "properties": {
    "name": "5 OGILVIE TERRACE GALGA 5308",
    "locID": "LOC000115022461",
    "tech": "SATELLITE",
    "upgrade": "NULL_NA",
    "gnaf_pid": "GASA_424705514"
   }
  },
  {
   "type": "Feature",
   "geometry": {
    "type": "Point",
    "coordinates": [
     139.96050582,
     -34.69647722
    ]
   },
   "properties": {
    "name": "7 OGILVIE TERRACE GALGA 5308",
    "locID": "LOC000114930596",
    "tech": "SATELLITE",
    "upgrade": "NULL_NA",
    "gnaf_pid": "GASA_424705515"
   }
  },
  {
   "type": "Feature",
   "geometry": {
    "type": "Point",
    "coordinates": [
     139.91276503,
     -34.61405356
    ]
   },
   "properties": {
    "name": "2534 OLD LOXTON ROAD GALGA 5308",
    "locID": "ChIJ2_cdDfd5uGoRd3d2cuIYdEw",
    "tech": "SATELLITE",
    "upgrade": "UNKNOWN",
    "gnaf_pid": "GASA_424705574"
   }
  },
  {
   "type": "Feature",
   "geometry": {
    "type": "Point",
    "coordinates": [
     139.99173381,
     -34.61627578
    ]
   },
   "properties": {
    "name": "3280 OLD LOXTON ROAD GALGA 5308",
    "locID": "LOC000114672133",
    "tech": "SATELLITE",
    "upgrade": "NULL_NA",
    "gnaf_pid": "GASA_424705575"
   }
  },
  {
   "type": "Feature",
   "geometry": {
    "type": "Point",
    "coordinates": [
     139.96018737,
     -34.69542826
    ]
   },
   "properties": {
    "name": "27 PAUL STREET GALGA 5308",
    "locID": "LOC000114442364",
    "tech": "SATELLITE",
    "upgrade": "NULL_NA",
    "gnaf_pid": "GASA_424706079"
   }
  },
  {
   "type": "Feature",
   "geometry": {
    "type": "Point",
    "coordinates": [
     139.96006882,
     -34.69536757
    ]
   },
   "properties": {
    "name": "30 PAUL STREET GALGA 5308",
    "locID": "LOC000114592046",
    "tech": "SATELLITE",
    "upgrade": "NULL_NA",
    "gnaf_pid": "GASA_424706080"
   }
  },
  {
   "type": "Feature",
   "geometry": {
    "type": "Point",
    "coordinates": [
     139.9627964,
     -34.6953678
    ]
   },
   "properties": {
    "name": "4 PAUL STREET GALGA 5308",
    "locID": "LOC100078112327",
    "tech": "SATELLITE",
    "upgrade": "NULL_NA",
    "gnaf_pid": "GASA_424706081"
   }
  },
  {
   "type": "Feature",
   "geometry": {
    "type": "Point",
    "coordinates": [
     139.96140582,
     -34.69585519
    ]
   },
   "properties": {
    "name": "18 STEWART STREET GALGA 5308",
    "locID": "ChIJqSfbS-F2uGoRMR-9Zno-eK4",
    "tech": "SATELLITE",
    "upgrade": "UNKNOWN",
    "gnaf_pid": "GASA_424708889"
   }
  },
  {
   "type": "Feature",
   "geometry": {
    "type": "Point",
    "coordinates": [
     139.95858379,
     -34.7410106
    ]
   },
   "properties": {
    "name": "3338 WALKER FLAT ROAD GALGA 5308",
    "locID": "ChIJY0IMrg90uGoROTc_-xnGtO4",
    "tech": "SATELLITE",
    "upgrade": "UNKNOWN",
    "gnaf_pid": "GASA_424710144"
   }
  },
  {
   "type": "Feature",
   "geometry": {
    "type": "Point",
    "coordinates": [
     139.95617628,
     -34.74142809
    ]
   },
   "properties": {
    "name": "3362 WALKER FLAT ROAD GALGA 5308",
    "locID": "LOC000112968095",
    "tech": "SATELLITE",
    "upgrade": "NULL_NA",
    "gnaf_pid": "GASA_424710145"
   }
  },
  {
   "type": "Feature",
   "geometry": {
    "type": "Point",
    "coordinates": [
     139.88795029,
     -34.71746464
    ]
   },
   "properties": {
    "name": "102 KUNLARA ROAD GALGA 5308",
    "locID": "ChIJycxEyzdyuGoRiTEYIOPE4Ec",
    "tech": "SATELLITE",
    "upgrade": "UNKNOWN",
    "gnaf_pid": "GASA_424737422"
   }
  },
  {
   "type": "Feature",
   "geometry": {
    "type": "Point",
    "coordinates": [
     139.93610298,
     -34.71789413
    ]
   },
   "properties": {
    "name": "LOT 61 WAIKERIE ROAD GALGA 5308",
    "locID": "EiVXYWlrZXJpZSBSZCwgR2FsZ2EgU0EgNTMwOCwgQXVzdHJhbGlhIi4qLAoUChIJ3YHdV-Z2uGoRNJIaYW_rqA4SFAoSCTfggEjDicdqEVDpjmJUNgME",
    "tech": "SATELLITE",
    "upgrade": "UNKNOWN",
    "gnaf_pid": "GASA_425257535"
   }
  },
  {
   "type": "Feature",
   "geometry": {
    "type": "Point",
    "coordinates": [
     139.96073291,
     -34.69648042
    ]
   },
   "properties": {
    "name": "9 OGILVIE TERRACE GALGA 5308",
    "locID": "LOC100078112362",
    "tech": "SATELLITE",
    "upgrade": "NULL_NA",
    "gnaf_pid": "GASA_425723151"
   }
  },
  {
   "type": "Feature",
   "geometry": {
    "type": "Point",
    "coordinates": [
     139.96639677,
     -34.62059992
    ]
   },
   "properties": {
    "name": "LOT 5D OLD LOXTON ROAD GALGA 5308",
    "locID": "LOC000114672133",
    "tech": "SATELLITE",
    "upgrade": "NULL_NA",
    "gnaf_pid": "GASA_720414183"
   }
  },
  {
   "type": "Feature",
   "geometry": {
    "type": "Point",
    "coordinates": [
     139.95921898,
     -34.6957575
    ]
   },
   "properties": {
    "name": "LOT 150 MUNRO TERRACE GALGA 5308",
    "locID": "EidNdW5ybyBUZXJyYWNlLCBHYWxnYSBTQSA1MzA4LCBBdXN0cmFsaWEiLiosChQKEgklDuQn4Xa4ahE3LV5p-qoyHxIUChIJN-CASMOJx2oRUOmOYlQ2AwQ",
    "tech": "SATELLITE",
    "upgrade": "UNKNOWN",
    "gnaf_pid": "GASA_720414782"
   }
  },
  {
   "type": "Feature",
   "geometry": {
    "type": "Point",
    "coordinates": [
     139.98215781,
     -34.64279507
    ]
   },
   "properties": {
    "name": "LOT 23 MCCONNELL ROAD GALGA 5308",
    "locID": "EiwyMyBNY0Nvbm5lbGwgUmQsIE1lcmN1bmRhIFNBIDUzMDgsIEF1c3RyYWxpYSIwEi4KFAoSCdHlNYl_eLhqEaqbDUrbl7k3EBcqFAoSCfGcF1T1eLhqEf4Ov-MJQImh",
    "tech": "SATELLITE",
    "upgrade": "UNKNOWN",
    "gnaf_pid": "GASA_720415510"
   }
  },
  {
   "type": "Feature",
   "geometry": {
    "type": "Point",
    "coordinates": [
     139.93242087,
     -34.6561454
    ]
   },
   "properties": {
    "name": "LOT 13A BAKARA ROAD GALGA 5308",
    "locID": "LOC000114067795",
    "tech": "SATELLITE",
    "upgrade": "NULL_NA",
    "gnaf_pid": "GASA_720416477"
   }
  }
 ]
}