{
 "type": "FeatureCollection",
 "generated": "2023-10-21T01:57:22.179199",
 "suburb": "GAMMON RANGES",
 "features": [
  {
   "type": "Feature",
   "geometry": {
    "type": "Point",
    "coordinates": [
     139.2965242,
     -30.52431097
    ]
   },
   "properties": {
    "name": "202A ARKAROOLA ROAD GAMMON RANGES 5732",
    "locID": "ChIJ2UryWbhWkmoRiVeUsQqEv4c",
    "tech": "SATELLITE",
    "upgrade": "UNKNOWN",
    "gnaf_pid": "GASA_425302122"
   }
  },
  {
   "type": "Feature",
   "geometry": {
    "type": "Point",
    "coordinates": [
     139.17887049,
     -30.34585438
    ]
   },
   "properties": {
    "name": "864 IDNINHA TRACK GAMMON RANGES 5732",
    "locID": "LOC000148254794",
    "tech": "SATELLITE",
    "upgrade": "NULL_NA",
    "gnaf_pid": "GASA_425629166"
   }
  },
  {
   "type": "Feature",
   "geometry": {
    "type": "Point",
    "coordinates": [
     138.977733,
     -30.818752
    ]
   },
   "properties": {
    "name": "3057 NANTAWARRINA ROAD GAMMON RANGES 5732",
    "locID": "LOC100071940576",
    "tech": "SATELLITE",
    "upgrade": "NULL_NA",
    "gnaf_pid": "GASA_425629795"
   }
  },
  {
   "type": "Feature",
   "geometry": {
    "type": "Point",
    "coordinates": [
     139.30370455,
     -30.53306558
    ]
   },
   "properties": {
    "name": "LOT 1314 MOUNT HOPELESS ROAD GAMMON RANGES 5732",
    "locID": "LOC000150224597",
    "tech": "SATELLITE",
    "upgrade": "NULL_NA",
    "gnaf_pid": "GASA_425722815"
   }
  },
  {
   "type": "Feature",
   "geometry": {
    "type": "Point",
    "coordinates": [
     139.30638982,
     -30.53057103
    ]
   },
   "properties": {
    "name": "1314 MOUNT HOPELESS ROAD GAMMON RANGES 5732",
    "locID": "LOC100078935201",
    "tech": "SATELLITE",
    "upgrade": "NULL_NA",
    "gnaf_pid": "GASA_721259688"
   }
  }
 ]
}