{
 "type": "FeatureCollection",
 "generated": "2023-10-22T00:52:51.236150",
 "suburb": "JAMIESON",
 "features": [
  {
   "type": "Feature",
   "geometry": {
    "type": "Point",
    "coordinates": [
     136.41299389,
     -33.46989109
    ]
   },
   "properties": {
    "name": "LOT 303 JAMIESON TANK ROAD JAMIESON 5640",
    "locID": "LOC000131559598",
    "tech": "SATELLITE",
    "upgrade": "NULL_NA",
    "gnaf_pid": "GASA_424110197"
   }
  },
  {
   "type": "Feature",
   "geometry": {
    "type": "Point",
    "coordinates": [
     136.33781668,
     -33.45020612
    ]
   },
   "properties": {
    "name": "LOT 12 JAMIESON TANK ROAD JAMIESON 5640",
    "locID": "LOC000131559598",
    "tech": "SATELLITE",
    "upgrade": "NULL_NA",
    "gnaf_pid": "GASA_424561815"
   }
  },
  {
   "type": "Feature",
   "geometry": {
    "type": "Point",
    "coordinates": [
     136.33566921,
     -33.38448515
    ]
   },
   "properties": {
    "name": "LOT 9 ROSS RAMSEY ROAD JAMIESON 5640",
    "locID": "LOC000131611814",
    "tech": "SATELLITE",
    "upgrade": "NULL_NA",
    "gnaf_pid": "GASA_424565581"
   }
  },
  {
   "type": "Feature",
   "geometry": {
    "type": "Point",
    "coordinates": [
     136.4359217,
     -33.45047579
    ]
   },
   "properties": {
    "name": "154 WARDLE ROAD JAMIESON 5640",
    "locID": "LOC000131607120",
    "tech": "SATELLITE",
    "upgrade": "NULL_NA",
    "gnaf_pid": "GASA_425076414"
   }
  },
  {
   "type": "Feature",
   "geometry": {
    "type": "Point",
    "coordinates": [
     136.45126487,
     -33.43527234
    ]
   },
   "properties": {
    "name": "LOT 17 CLEVE ROAD JAMIESON 5640",
    "locID": "EiVDbGV2ZSBSZCwgSmFtaWVzb24gU0EgNTY0MCwgQXVzdHJhbGlhIi4qLAoUChIJHYGTTwrspWoRK8jd_2USKkQSFAoSCc3_jHCv7qVqEcAZj2JUNgME",
    "tech": "SATELLITE",
    "upgrade": "UNKNOWN",
    "gnaf_pid": "GASA_425581438"
   }
  },
  {
   "type": "Feature",
   "geometry": {
    "type": "Point",
    "coordinates": [
     136.37873739,
     -33.40589718
    ]
   },
   "properties": {
    "name": "327 CARAPPEE HILL ROAD JAMIESON 5640",
    "locID": "ChIJGwxAemrvpWoRETSShjWMWBc",
    "tech": "SATELLITE",
    "upgrade": "UNKNOWN",
    "gnaf_pid": "GASA_425628619"
   }
  },
  {
   "type": "Feature",
   "geometry": {
    "type": "Point",
    "coordinates": [
     136.4176102,
     -33.45867088
    ]
   },
   "properties": {
    "name": "LOT 51 WARDLE ROAD JAMIESON 5640",
    "locID": "LOC000131607120",
    "tech": "SATELLITE",
    "upgrade": "NULL_NA",
    "gnaf_pid": "GASA_719250156"
   }
  },
  {
   "type": "Feature",
   "geometry": {
    "type": "Point",
    "coordinates": [
     136.38751603,
     -33.44192522
    ]
   },
   "properties": {
    "name": "LOT 91 JAMIESON TANK ROAD JAMIESON 5640",
    "locID": "LOC000131559598",
    "tech": "SATELLITE",
    "upgrade": "NULL_NA",
    "gnaf_pid": "GASA_719860733"
   }
  }
 ]
}