{
 "type": "FeatureCollection",
 "generated": "2023-10-22T01:06:00.110117",
 "suburb": "KAPPAWANTA",
 "features": [
  {
   "type": "Feature",
   "geometry": {
    "type": "Point",
    "coordinates": [
     135.12424595,
     -33.72031681
    ]
   },
   "properties": {
    "name": "LOT 2 KAPPAWANTA ROAD KAPPAWANTA 5670",
    "locID": "LOC000131628436",
    "tech": "SATELLITE",
    "upgrade": "NULL_NA",
    "gnaf_pid": "GASA_424310638"
   }
  },
  {
   "type": "Feature",
   "geometry": {
    "type": "Point",
    "coordinates": [
     135.11835968,
     -33.64169242
    ]
   },
   "properties": {
    "name": "LOT 4 KAPPAWANTA ROAD KAPPAWANTA 5670",
    "locID": "LOC000131628436",
    "tech": "SATELLITE",
    "upgrade": "NULL_NA",
    "gnaf_pid": "GASA_424310639"
   }
  },
  {
   "type": "Feature",
   "geometry": {
    "type": "Point",
    "coordinates": [
     135.18984177,
     -33.63928793
    ]
   },
   "properties": {
    "name": "LOT 5 KAPPAWANTA ROAD KAPPAWANTA 5670",
    "locID": "LOC000131628436",
    "tech": "SATELLITE",
    "upgrade": "NULL_NA",
    "gnaf_pid": "GASA_424310640"
   }
  },
  {
   "type": "Feature",
   "geometry": {
    "type": "Point",
    "coordinates": [
     135.11125504,
     -33.738579
    ]
   },
   "properties": {
    "name": "LOT 7 KAPPAWANTA ROAD KAPPAWANTA 5670",
    "locID": "LOC000131628436",
    "tech": "SATELLITE",
    "upgrade": "NULL_NA",
    "gnaf_pid": "GASA_424310642"
   }
  },
  {
   "type": "Feature",
   "geometry": {
    "type": "Point",
    "coordinates": [
     135.27607304,
     -33.67125474
    ]
   },
   "properties": {
    "name": "2212 KAPPAWANTA ROAD KAPPAWANTA 5670",
    "locID": "LOC000131665912",
    "tech": "SATELLITE",
    "upgrade": "NULL_NA",
    "gnaf_pid": "GASA_424924642"
   }
  },
  {
   "type": "Feature",
   "geometry": {
    "type": "Point",
    "coordinates": [
     135.146464,
     -33.717269
    ]
   },
   "properties": {
    "name": "832 KAPPAWANTA ROAD KAPPAWANTA 5670",
    "locID": "LOC000131628436",
    "tech": "SATELLITE",
    "upgrade": "NULL_NA",
    "gnaf_pid": "GASA_424924643"
   }
  },
  {
   "type": "Feature",
   "geometry": {
    "type": "Point",
    "coordinates": [
     135.36140075,
     -33.77859552
    ]
   },
   "properties": {
    "name": "1490 PORTANA ROAD KAPPAWANTA 5670",
    "locID": "EjExNDkwIEthcHBhd2FudGEgUmQsIEthcHBhd2FudGEgU0EgNTY3MCwgQXVzdHJhbGlhIjESLwoUChIJCRodteHRqWoR_1oHFBIs_u0Q0gsqFAoSCYWlqx3QzalqEQHzBt-ajXko",
    "tech": "SATELLITE",
    "upgrade": "UNKNOWN",
    "gnaf_pid": "GASA_424959869"
   }
  },
  {
   "type": "Feature",
   "geometry": {
    "type": "Point",
    "coordinates": [
     135.55304315,
     -33.71636585
    ]
   },
   "properties": {
    "name": "LOT 39 CORUNNA WELLS TRACK KAPPAWANTA 5670",
    "locID": "EjBDb3J1bm5hIFdlbGxzIFRyYWNrLCBNdXJkaW5nYSBTQSA1NjA3LCBBdXN0cmFsaWEiLiosChQKEgkjdSFy2laoahGuSEu_TCUexhIUChIJk32Apy_7qGoRAPGOYlQ2AwQ",
    "tech": "SATELLITE",
    "upgrade": "UNKNOWN",
    "gnaf_pid": "GASA_425106664"
   }
  },
  {
   "type": "Feature",
   "geometry": {
    "type": "Point",
    "coordinates": [
     135.29577314,
     -33.5093972
    ]
   },
   "properties": {
    "name": "15463 BIRDSEYE HIGHWAY KAPPAWANTA 5670",
    "locID": "LOC000131628436",
    "tech": "SATELLITE",
    "upgrade": "NULL_NA",
    "gnaf_pid": "GASA_425508433"
   }
  },
  {
   "type": "Feature",
   "geometry": {
    "type": "Point",
    "coordinates": [
     135.12440005,
     -33.76369228
    ]
   },
   "properties": {
    "name": "157 TUNGETTA ROAD KAPPAWANTA 5670",
    "locID": "LOC000148408247",
    "tech": "SATELLITE",
    "upgrade": "NULL_NA",
    "gnaf_pid": "GASA_425511041"
   }
  },
  {
   "type": "Feature",
   "geometry": {
    "type": "Point",
    "coordinates": [
     135.44365804,
     -33.65651526
    ]
   },
   "properties": {
    "name": "LOT 4 BASCOMBE WELL ROAD KAPPAWANTA 5670",
    "locID": "LOC000131623448",
    "tech": "SATELLITE",
    "upgrade": "NULL_NA",
    "gnaf_pid": "GASA_425718959"
   }
  },
  {
   "type": "Feature",
   "geometry": {
    "type": "Point",
    "coordinates": [
     135.18432127,
     -33.7557727
    ]
   },
   "properties": {
    "name": "410 LAMBING STATION ROAD KAPPAWANTA 5670",
    "locID": "ChIJ9YLqAKvPqWoRihQQuVjDYLo",
    "tech": "SATELLITE",
    "upgrade": "UNKNOWN",
    "gnaf_pid": "GASA_425722110"
   }
  },
  {
   "type": "Feature",
   "geometry": {
    "type": "Point",
    "coordinates": [
     135.3752029,
     -33.67420455
    ]
   },
   "properties": {
    "name": "LOT 8 KAPPAWANTA ROAD KAPPAWANTA 5670",
    "locID": "LOC000131628436",
    "tech": "SATELLITE",
    "upgrade": "NULL_NA",
    "gnaf_pid": "GASA_720235324"
   }
  },
  {
   "type": "Feature",
   "geometry": {
    "type": "Point",
    "coordinates": [
     135.41846654,
     -33.74276554
    ]
   },
   "properties": {
    "name": "LOT 1 KAPPAWANTA ROAD KAPPAWANTA 5670",
    "locID": "LOC000131628436",
    "tech": "SATELLITE",
    "upgrade": "NULL_NA",
    "gnaf_pid": "GASA_720236830"
   }
  },
  {
   "type": "Feature",
   "geometry": {
    "type": "Point",
    "coordinates": [
     135.24822469,
     -33.60490962
    ]
   },
   "properties": {
    "name": "LOT 3 KAPPAWANTA ROAD KAPPAWANTA 5670",
    "locID": "LOC000131628436",
    "tech": "SATELLITE",
    "upgrade": "NULL_NA",
    "gnaf_pid": "GASA_720302724"
   }
  },
  {
   "type": "Feature",
   "geometry": {
    "type": "Point",
    "coordinates": [
     135.17094018,
     -33.56581751
    ]
   },
   "properties": {
    "name": "LOT 154 BIRDSEYE HIGHWAY KAPPAWANTA 5670",
    "locID": "EjAxNTQgQmlyZHNleWUgSHd5LCBNb3VudCBXZWRnZSBTQSA1NjcwLCBBdXN0cmFsaWEiMRIvChQKEgmJ3oEJdDCoahH_C8fYGLTYXhCaASoUChIJo4R7eELUrCoRqL_1x88-YXM",
    "tech": "SATELLITE",
    "upgrade": "UNKNOWN",
    "gnaf_pid": "GASA_720303602"
   }
  },
  {
   "type": "Feature",
   "geometry": {
    "type": "Point",
    "coordinates": [
     135.23573004,
     -33.73917554
    ]
   },
   "properties": {
    "name": "LOT 1 LAMBING STATION ROAD KAPPAWANTA 5670",
    "locID": "EixMYW1iaW5nIFN0YXRpb24gUmQsIEthcHBhd2FudGEgU0EsIEF1c3RyYWxpYSIuKiwKFAoSCTccJ0mZz6lqEQiQSc4AWjrwEhQKEgkJD2yhZ0moahEw8o5iVDYDBA",
    "tech": "SATELLITE",
    "upgrade": "UNKNOWN",
    "gnaf_pid": "GASA_720304220"
   }
  }
 ]
}