{
 "type": "FeatureCollection",
 "generated": "2023-10-22T01:55:59.420136",
 "suburb": "KONGAL",
 "features": [
  {
   "type": "Feature",
   "geometry": {
    "type": "Point",
    "coordinates": [
     140.48844465,
     -36.35146979
    ]
   },
   "properties": {
    "name": "LOT 299N KONGAL ROAD KONGAL 5270",
    "locID": "EigyOTkgS29uZ2FsIFJkLCBLb25nYWwgU0EgNTI3MCwgQXVzdHJhbGlhIjESLwoUChIJndQDLqaayWoR8BhD3Gm8yoQQqwIqFAoSCWXr-r-rmslqEZFFoJblwkTL",
    "tech": "SATELLITE",
    "upgrade": "UNKNOWN",
    "gnaf_pid": "GASA_424393243"
   }
  },
  {
   "type": "Feature",
   "geometry": {
    "type": "Point",
    "coordinates": [
     140.46329582,
     -36.36340447
    ]
   },
   "properties": {
    "name": "LOT 416 KONGAL ROAD KONGAL 5270",
    "locID": "LOC000116244864",
    "tech": "SATELLITE",
    "upgrade": "NULL_NA",
    "gnaf_pid": "GASA_424393245"
   }
  },
  {
   "type": "Feature",
   "geometry": {
    "type": "Point",
    "coordinates": [
     140.43441727,
     -36.36329383
    ]
   },
   "properties": {
    "name": "LOT 622 KONGAL ROAD KONGAL 5270",
    "locID": "LOC000116244864",
    "tech": "SATELLITE",
    "upgrade": "NULL_NA",
    "gnaf_pid": "GASA_424393247"
   }
  },
  {
   "type": "Feature",
   "geometry": {
    "type": "Point",
    "coordinates": [
     140.46587996,
     -36.37332045
    ]
   },
   "properties": {
    "name": "LOT 415 ROWNEY ROAD KONGAL 5270",
    "locID": "LOC000116263451",
    "tech": "SATELLITE",
    "upgrade": "NULL_NA",
    "gnaf_pid": "GASA_424402743"
   }
  },
  {
   "type": "Feature",
   "geometry": {
    "type": "Point",
    "coordinates": [
     140.44411371,
     -36.41951086
    ]
   },
   "properties": {
    "name": "LOT 605 ROWNEY ROAD KONGAL 5270",
    "locID": "LOC000116263451",
    "tech": "SATELLITE",
    "upgrade": "NULL_NA",
    "gnaf_pid": "GASA_424402747"
   }
  },
  {
   "type": "Feature",
   "geometry": {
    "type": "Point",
    "coordinates": [
     140.4817855,
     -36.37521126
    ]
   },
   "properties": {
    "name": "LOT 620 ROWNEY ROAD KONGAL 5270",
    "locID": "LOC000116263451",
    "tech": "SATELLITE",
    "upgrade": "NULL_NA",
    "gnaf_pid": "GASA_424402748"
   }
  },
  {
   "type": "Feature",
   "geometry": {
    "type": "Point",
    "coordinates": [
     140.48043254,
     -36.34545222
    ]
   },
   "properties": {
    "name": "2212 CAREW ROAD KONGAL 5270",
    "locID": "LOC000116256054",
    "tech": "SATELLITE",
    "upgrade": "NULL_NA",
    "gnaf_pid": "GASA_424833878"
   }
  },
  {
   "type": "Feature",
   "geometry": {
    "type": "Point",
    "coordinates": [
     140.48052403,
     -36.34997973
    ]
   },
   "properties": {
    "name": "2263 CAREW ROAD KONGAL 5270",
    "locID": "LOC000116256083",
    "tech": "SATELLITE",
    "upgrade": "NULL_NA",
    "gnaf_pid": "GASA_424833879"
   }
  },
  {
   "type": "Feature",
   "geometry": {
    "type": "Point",
    "coordinates": [
     140.48055625,
     -36.36014336
    ]
   },
   "properties": {
    "name": "2375 CAREW ROAD KONGAL 5270",
    "locID": "LOC000116260150",
    "tech": "SATELLITE",
    "upgrade": "NULL_NA",
    "gnaf_pid": "GASA_424833880"
   }
  },
  {
   "type": "Feature",
   "geometry": {
    "type": "Point",
    "coordinates": [
     140.48558808,
     -36.39994661
    ]
   },
   "properties": {
    "name": "432 EXCELL ROAD KONGAL 5270",
    "locID": "ChIJsbB3ozuPyWoRGEpTBqcDrlw",
    "tech": "SATELLITE",
    "upgrade": "UNKNOWN",
    "gnaf_pid": "GASA_424834774"
   }
  },
  {
   "type": "Feature",
   "geometry": {
    "type": "Point",
    "coordinates": [
     140.49455368,
     -36.34597864
    ]
   },
   "properties": {
    "name": "692 KONGAL ROAD KONGAL 5270",
    "locID": "LOC000116244864",
    "tech": "SATELLITE",
    "upgrade": "NULL_NA",
    "gnaf_pid": "GASA_424835947"
   }
  },
  {
   "type": "Feature",
   "geometry": {
    "type": "Point",
    "coordinates": [
     140.44419644,
     -36.37884363
    ]
   },
   "properties": {
    "name": "208 MCGRICE ROAD KONGAL 5270",
    "locID": "LOC000116256962",
    "tech": "SATELLITE",
    "upgrade": "NULL_NA",
    "gnaf_pid": "GASA_424836393"
   }
  },
  {
   "type": "Feature",
   "geometry": {
    "type": "Point",
    "coordinates": [
     140.458573,
     -36.348912
    ]
   },
   "properties": {
    "name": "308 PARSONS ROAD KONGAL 5270",
    "locID": "LOC000116246646",
    "tech": "SATELLITE",
    "upgrade": "NULL_NA",
    "gnaf_pid": "GASA_424837263"
   }
  },
  {
   "type": "Feature",
   "geometry": {
    "type": "Point",
    "coordinates": [
     140.48247274,
     -36.37619599
    ]
   },
   "properties": {
    "name": "2435 ROWNEY ROAD KONGAL 5270",
    "locID": "LOC000116262251",
    "tech": "SATELLITE",
    "upgrade": "NULL_NA",
    "gnaf_pid": "GASA_424838044"
   }
  },
  {
   "type": "Feature",
   "geometry": {
    "type": "Point",
    "coordinates": [
     140.4598972,
     -36.39069948
    ]
   },
   "properties": {
    "name": "2724 ROWNEY ROAD KONGAL 5270",
    "locID": "ChIJZ96q4sSOyWoRNEiYS8ahZKQ",
    "tech": "SATELLITE",
    "upgrade": "UNKNOWN",
    "gnaf_pid": "GASA_424838045"
   }
  },
  {
   "type": "Feature",
   "geometry": {
    "type": "Point",
    "coordinates": [
     140.46041415,
     -36.39703336
    ]
   },
   "properties": {
    "name": "2793 ROWNEY ROAD KONGAL 5270",
    "locID": "LOC000116263451",
    "tech": "SATELLITE",
    "upgrade": "NULL_NA",
    "gnaf_pid": "GASA_424838046"
   }
  },
  {
   "type": "Feature",
   "geometry": {
    "type": "Point",
    "coordinates": [
     140.46029764,
     -36.4005389
    ]
   },
   "properties": {
    "name": "2832 ROWNEY ROAD KONGAL 5270",
    "locID": "LOC000116246549",
    "tech": "SATELLITE",
    "upgrade": "NULL_NA",
    "gnaf_pid": "GASA_424838047"
   }
  },
  {
   "type": "Feature",
   "geometry": {
    "type": "Point",
    "coordinates": [
     140.45781535,
     -36.41725597
    ]
   },
   "properties": {
    "name": "73 CRANE ROAD KONGAL 5270",
    "locID": "LOC000130971747",
    "tech": "SATELLITE",
    "upgrade": "NULL_NA",
    "gnaf_pid": "GASA_424900698"
   }
  },
  {
   "type": "Feature",
   "geometry": {
    "type": "Point",
    "coordinates": [
     140.48558808,
     -36.39994661
    ]
   },
   "properties": {
    "name": "609 EXCELL ROAD KONGAL 5270",
    "locID": "ChIJsbB3ozuPyWoRa5CjJFy7dVc",
    "tech": "SATELLITE",
    "upgrade": "UNKNOWN",
    "gnaf_pid": "GASA_425073482"
   }
  },
  {
   "type": "Feature",
   "geometry": {
    "type": "Point",
    "coordinates": [
     140.50235788,
     -36.34945868
    ]
   },
   "properties": {
    "name": "LOT 300 KONGAL ROAD KONGAL 5270",
    "locID": "LOC000116244864",
    "tech": "SATELLITE",
    "upgrade": "NULL_NA",
    "gnaf_pid": "GASA_720187408"
   }
  },
  {
   "type": "Feature",
   "geometry": {
    "type": "Point",
    "coordinates": [
     140.4441441,
     -36.34998411
    ]
   },
   "properties": {
    "name": "LOT 36 PARSONS ROAD KONGAL 5270",
    "locID": "LOC000143017972",
    "tech": "SATELLITE",
    "upgrade": "NULL_NA",
    "gnaf_pid": "GASA_721111106"
   }
  }
 ]
}