{
 "type": "FeatureCollection",
 "generated": "2023-10-22T02:26:52.076751",
 "suburb": "LINDLEY",
 "features": [
  {
   "type": "Feature",
   "geometry": {
    "type": "Point",
    "coordinates": [
     139.60149473,
     -33.93999217
    ]
   },
   "properties": {
    "name": "LOT 184 MINE MALLEE ROAD LINDLEY 5320",
    "locID": "EipNaW5lIE1hbGxlZSBSZCwgTGluZGxleSBTQSA1MzIwLCBBdXN0cmFsaWEiLiosChQKEgl33AX4Wc-4ahFusISRL4UpsBIUChIJSVVgDfPDuGoRACKPYlQ2AwQ",
    "tech": "SATELLITE",
    "upgrade": "UNKNOWN",
    "gnaf_pid": "GASA_424318267"
   }
  },
  {
   "type": "Feature",
   "geometry": {
    "type": "Point",
    "coordinates": [
     139.53841104,
     -33.91469098
    ]
   },
   "properties": {
    "name": "LOT 59 MINE MALLEE ROAD LINDLEY 5320",
    "locID": "EipNaW5lIE1hbGxlZSBSZCwgTGluZGxleSBTQSA1MzIwLCBBdXN0cmFsaWEiLiosChQKEgl33AX4Wc-4ahFusISRL4UpsBIUChIJSVVgDfPDuGoRACKPYlQ2AwQ",
    "tech": "SATELLITE",
    "upgrade": "UNKNOWN",
    "gnaf_pid": "GASA_424318269"
   }
  },
  {
   "type": "Feature",
   "geometry": {
    "type": "Point",
    "coordinates": [
     139.55503393,
     -33.82652726
    ]
   },
   "properties": {
    "name": "LOT 100 SAMSONS WELL ROAD LINDLEY 5320",
    "locID": "LOC000142384406",
    "tech": "SATELLITE",
    "upgrade": "NULL_NA",
    "gnaf_pid": "GASA_424429263"
   }
  },
  {
   "type": "Feature",
   "geometry": {
    "type": "Point",
    "coordinates": [
     139.63710185,
     -33.95539197
    ]
   },
   "properties": {
    "name": "LOT 16 CONTROVERSIAL ROAD LINDLEY 5320",
    "locID": "EixDb250cm92ZXJzaWFsIFJkLCBMaW5kbGV5IFNBIDUzMjAsIEF1c3RyYWxpYSIuKiwKFAoSCXObh5Kkx7hqEUkh0mF9YgmkEhQKEglJVWAN88O4ahEAIo9iVDYDBA",
    "tech": "WIRELESS",
    "upgrade": "UNKNOWN",
    "gnaf_pid": "GASA_424559011"
   }
  },
  {
   "type": "Feature",
   "geometry": {
    "type": "Point",
    "coordinates": [
     139.67561911,
     -33.9625076
    ]
   },
   "properties": {
    "name": "LOT 10 GO KART ROAD LINDLEY 5320",
    "locID": "EigxMCBHbyBLYXJ0IFJkLCBNb3JnYW4gU0EgNTMyMCwgQXVzdHJhbGlhIjASLgoUChIJu0gdZ0_HuGoRcOVu1GUTuzUQCioUChIJh0Sf7nTHuGoRaZlIkOfAhg8",
    "tech": "WIRELESS",
    "upgrade": "UNKNOWN",
    "gnaf_pid": "GASA_424560949"
   }
  },
  {
   "type": "Feature",
   "geometry": {
    "type": "Point",
    "coordinates": [
     139.55792893,
     -33.95584758
    ]
   },
   "properties": {
    "name": "LOT 197 GOYDER HIGHWAY LINDLEY 5320",
    "locID": "EiZHb3lkZXIgSHd5LCBMaW5kbGV5IFNBIDUzMjAsIEF1c3RyYWxpYSIuKiwKFAoSCafdLPX_kbtqEVuBdQ_4JZg_EhQKEglJVWAN88O4ahEAIo9iVDYDBA",
    "tech": "SATELLITE",
    "upgrade": "UNKNOWN",
    "gnaf_pid": "GASA_424561003"
   }
  },
  {
   "type": "Feature",
   "geometry": {
    "type": "Point",
    "coordinates": [
     139.59120805,
     -33.96294348
    ]
   },
   "properties": {
    "name": "LOT 198 GOYDER HIGHWAY LINDLEY 5320",
    "locID": "LOC000116329927",
    "tech": "WIRELESS",
    "upgrade": "NULL_NA",
    "gnaf_pid": "GASA_424561004"
   }
  },
  {
   "type": "Feature",
   "geometry": {
    "type": "Point",
    "coordinates": [
     139.54471569,
     -33.95507516
    ]
   },
   "properties": {
    "name": "LOT 200 GOYDER HIGHWAY LINDLEY 5320",
    "locID": "EiZHb3lkZXIgSHd5LCBMaW5kbGV5IFNBIDUzMjAsIEF1c3RyYWxpYSIuKiwKFAoSCafdLPX_kbtqEVuBdQ_4JZg_EhQKEglJVWAN88O4ahEAIo9iVDYDBA",
    "tech": "SATELLITE",
    "upgrade": "UNKNOWN",
    "gnaf_pid": "GASA_424561005"
   }
  },
  {
   "type": "Feature",
   "geometry": {
    "type": "Point",
    "coordinates": [
     139.57865716,
     -33.91987681
    ]
   },
   "properties": {
    "name": "LOT 219 LINDLEY CEMETERY ROAD LINDLEY 5320",
    "locID": "Ei9MaW5kbGV5IENlbWV0ZXJ5IFJkLCBMaW5kbGV5IFNBIDUzMjAsIEF1c3RyYWxpYSIuKiwKFAoSCblTlNkRz7hqEc0Yz_D81T0KEhQKEglJVWAN88O4ahEAIo9iVDYDBA",
    "tech": "SATELLITE",
    "upgrade": "UNKNOWN",
    "gnaf_pid": "GASA_424562464"
   }
  },
  {
   "type": "Feature",
   "geometry": {
    "type": "Point",
    "coordinates": [
     139.61972774,
     -33.91667285
    ]
   },
   "properties": {
    "name": "LOT 185 MINE MALLEE ROAD LINDLEY 5320",
    "locID": "EipNaW5lIE1hbGxlZSBSZCwgTGluZGxleSBTQSA1MzIwLCBBdXN0cmFsaWEiLiosChQKEgl33AX4Wc-4ahFusISRL4UpsBIUChIJSVVgDfPDuGoRACKPYlQ2AwQ",
    "tech": "SATELLITE",
    "upgrade": "UNKNOWN",
    "gnaf_pid": "GASA_424563235"
   }
  },
  {
   "type": "Feature",
   "geometry": {
    "type": "Point",
    "coordinates": [
     139.69440357,
     -33.8957487
    ]
   },
   "properties": {
    "name": "LOT 203 MINE MALLEE ROAD LINDLEY 5320",
    "locID": "Ei4yMDMgTWluZSBNYWxsZWUgUmQsIExpbmRsZXkgU0EgNTMyMCwgQXVzdHJhbGlhIjESLwoUChIJz18FaSnFuGoR6Gyu-I0eDxMQywEqFAoSCXfcBfhZz7hqEW6whJEvhSmw",
    "tech": "SATELLITE",
    "upgrade": "UNKNOWN",
    "gnaf_pid": "GASA_424563236"
   }
  },
  {
   "type": "Feature",
   "geometry": {
    "type": "Point",
    "coordinates": [
     139.5400595,
     -33.92231249
    ]
   },
   "properties": {
    "name": "402 MINE MALLEE ROAD LINDLEY 5320",
    "locID": "ChIJD1oapiXFuGoRq1_8gygQUVE",
    "tech": "SATELLITE",
    "upgrade": "UNKNOWN",
    "gnaf_pid": "GASA_424704240"
   }
  },
  {
   "type": "Feature",
   "geometry": {
    "type": "Point",
    "coordinates": [
     139.62479612,
     -33.82923729
    ]
   },
   "properties": {
    "name": "1576 SAMSONS WELL ROAD LINDLEY 5320",
    "locID": "ChIJb-Z0gJPLuGoRrxYXAm4dHro",
    "tech": "SATELLITE",
    "upgrade": "UNKNOWN",
    "gnaf_pid": "GASA_424707833"
   }
  },
  {
   "type": "Feature",
   "geometry": {
    "type": "Point",
    "coordinates": [
     139.64424556,
     -33.90452461
    ]
   },
   "properties": {
    "name": "LOT 114 MINE MALLEE ROAD LINDLEY 5320",
    "locID": "EipNaW5lIE1hbGxlZSBSZCwgTGluZGxleSBTQSA1MzIwLCBBdXN0cmFsaWEiLiosChQKEgl33AX4Wc-4ahFusISRL4UpsBIUChIJSVVgDfPDuGoRACKPYlQ2AwQ",
    "tech": "SATELLITE",
    "upgrade": "UNKNOWN",
    "gnaf_pid": "GASA_425722690"
   }
  }
 ]
}