{
 "type": "FeatureCollection",
 "generated": "2023-10-22T02:37:55.753461",
 "suburb": "LOCHIEL",
 "features": [
  {
   "type": "Feature",
   "geometry": {
    "type": "Point",
    "coordinates": [
     138.15833519,
     -33.93020425
    ]
   },
   "properties": {
    "name": "3 CAMERON STREET LOCHIEL 5510",
    "locID": "LOC000026244475",
    "tech": "SATELLITE",
    "upgrade": "NULL_NA",
    "gnaf_pid": "GASA_416107003"
   }
  },
  {
   "type": "Feature",
   "geometry": {
    "type": "Point",
    "coordinates": [
     138.15833949,
     -33.92756409
    ]
   },
   "properties": {
    "name": "1 ROBERT STREET LOCHIEL 5510",
    "locID": "LOC000150232865",
    "tech": "SATELLITE",
    "upgrade": "NULL_NA",
    "gnaf_pid": "GASA_416111770"
   }
  },
  {
   "type": "Feature",
   "geometry": {
    "type": "Point",
    "coordinates": [
     138.15945865,
     -33.92699612
    ]
   },
   "properties": {
    "name": "7 ROBERT STREET LOCHIEL 5510",
    "locID": "ChIJxZj8-_9ZumoRevAQNW1-cRM",
    "tech": "SATELLITE",
    "upgrade": "UNKNOWN",
    "gnaf_pid": "GASA_416111771"
   }
  },
  {
   "type": "Feature",
   "geometry": {
    "type": "Point",
    "coordinates": [
     138.16161257,
     -33.93001831
    ]
   },
   "properties": {
    "name": "LOT 16 FRANCES TERRACE LOCHIEL 5510",
    "locID": "Ei4xNiBGcmFuY2VzIFRlcnJhY2UsIExvY2hpZWwgU0EgNTUxMCwgQXVzdHJhbGlhIjASLgoUChIJ69xQlwFaumoR8pwPdGtIKToQECoUChIJhUchVQBaumoR1dIPkNPOYnA",
    "tech": "SATELLITE",
    "upgrade": "UNKNOWN",
    "gnaf_pid": "GASA_416444987"
   }
  },
  {
   "type": "Feature",
   "geometry": {
    "type": "Point",
    "coordinates": [
     138.15833519,
     -33.93020425
    ]
   },
   "properties": {
    "name": "299A CAMERON STREET LOCHIEL 5510",
    "locID": "ChIJ-bPEOf9ZumoR3tsV9UI1H9c",
    "tech": "SATELLITE",
    "upgrade": "UNKNOWN",
    "gnaf_pid": "GASA_417057512"
   }
  },
  {
   "type": "Feature",
   "geometry": {
    "type": "Point",
    "coordinates": [
     138.15833519,
     -33.93020425
    ]
   },
   "properties": {
    "name": "327 CAMERON STREET LOCHIEL 5510",
    "locID": "ChIJ-bPEOf9ZumoR_aENOldLVJY",
    "tech": "SATELLITE",
    "upgrade": "UNKNOWN",
    "gnaf_pid": "GASA_417057514"
   }
  },
  {
   "type": "Feature",
   "geometry": {
    "type": "Point",
    "coordinates": [
     138.1578245,
     -33.93260753
    ]
   },
   "properties": {
    "name": "39 CAMERON STREET LOCHIEL 5510",
    "locID": "LOC000026244475",
    "tech": "SATELLITE",
    "upgrade": "NULL_NA",
    "gnaf_pid": "GASA_417057515"
   }
  },
  {
   "type": "Feature",
   "geometry": {
    "type": "Point",
    "coordinates": [
     138.15833519,
     -33.93020425
    ]
   },
   "properties": {
    "name": "303 CAMERON STREET LOCHIEL 5510",
    "locID": "ChIJ-bPEOf9ZumoRcFTHsFdHlcg",
    "tech": "SATELLITE",
    "upgrade": "UNKNOWN",
    "gnaf_pid": "GASA_417057516"
   }
  },
  {
   "type": "Feature",
   "geometry": {
    "type": "Point",
    "coordinates": [
     138.15833519,
     -33.93020425
    ]
   },
   "properties": {
    "name": "522 CAMERON STREET LOCHIEL 5510",
    "locID": "ChIJ-bPEOf9ZumoRyiEjZSnhXFU",
    "tech": "SATELLITE",
    "upgrade": "UNKNOWN",
    "gnaf_pid": "GASA_417057517"
   }
  },
  {
   "type": "Feature",
   "geometry": {
    "type": "Point",
    "coordinates": [
     138.15833519,
     -33.93020425
    ]
   },
   "properties": {
    "name": "555 CAMERON STREET LOCHIEL 5510",
    "locID": "ChIJ-bPEOf9ZumoRcSQ5BnhC4IE",
    "tech": "SATELLITE",
    "upgrade": "UNKNOWN",
    "gnaf_pid": "GASA_417057518"
   }
  },
  {
   "type": "Feature",
   "geometry": {
    "type": "Point",
    "coordinates": [
     138.15833519,
     -33.93020425
    ]
   },
   "properties": {
    "name": "147 CAMERON STREET LOCHIEL 5510",
    "locID": "ChIJ-bPEOf9ZumoRhYzn7gz7TFo",
    "tech": "SATELLITE",
    "upgrade": "UNKNOWN",
    "gnaf_pid": "GASA_417057519"
   }
  },
  {
   "type": "Feature",
   "geometry": {
    "type": "Point",
    "coordinates": [
     138.15782553,
     -33.93242255
    ]
   },
   "properties": {
    "name": "37 CAMERON STREET LOCHIEL 5510",
    "locID": "ChIJT1Pp-vhZumoRC2YWgiR896I",
    "tech": "SATELLITE",
    "upgrade": "UNKNOWN",
    "gnaf_pid": "GASA_417065799"
   }
  },
  {
   "type": "Feature",
   "geometry": {
    "type": "Point",
    "coordinates": [
     138.15833519,
     -33.93020425
    ]
   },
   "properties": {
    "name": "156 CAMERON STREET LOCHIEL 5510",
    "locID": "ChIJ-bPEOf9ZumoRK8R34dqVT3c",
    "tech": "SATELLITE",
    "upgrade": "UNKNOWN",
    "gnaf_pid": "GASA_417065801"
   }
  },
  {
   "type": "Feature",
   "geometry": {
    "type": "Point",
    "coordinates": [
     138.15833519,
     -33.93020425
    ]
   },
   "properties": {
    "name": "524 CAMERON STREET LOCHIEL 5510",
    "locID": "ChIJ-bPEOf9ZumoRnlubAuryglc",
    "tech": "SATELLITE",
    "upgrade": "UNKNOWN",
    "gnaf_pid": "GASA_417065802"
   }
  },
  {
   "type": "Feature",
   "geometry": {
    "type": "Point",
    "coordinates": [
     138.15833519,
     -33.93020425
    ]
   },
   "properties": {
    "name": "4 CAMERON STREET LOCHIEL 5510",
    "locID": "Eig0IENhbWVyb24gU3QsIExvY2hpZWwgU0EgNTUxMCwgQXVzdHJhbGlhIjASLgoUChIJp1lwCv9ZumoRcbQ6SVQ2AxMQBCoUChIJMRjcOf9ZumoR1rQt8OSLT7M",
    "tech": "SATELLITE",
    "upgrade": "UNKNOWN",
    "gnaf_pid": "GASA_417065803"
   }
  },
  {
   "type": "Feature",
   "geometry": {
    "type": "Point",
    "coordinates": [
     138.15833519,
     -33.93020425
    ]
   },
   "properties": {
    "name": "76 CAMERON STREET LOCHIEL 5510",
    "locID": "ChIJ-bPEOf9ZumoR3_8sqCy8YOI",
    "tech": "SATELLITE",
    "upgrade": "UNKNOWN",
    "gnaf_pid": "GASA_417065804"
   }
  },
  {
   "type": "Feature",
   "geometry": {
    "type": "Point",
    "coordinates": [
     138.15833519,
     -33.93020425
    ]
   },
   "properties": {
    "name": "296 CAMERON STREET LOCHIEL 5510",
    "locID": "ChIJ-bPEOf9ZumoRq5EJTH8xPT4",
    "tech": "SATELLITE",
    "upgrade": "UNKNOWN",
    "gnaf_pid": "GASA_417065805"
   }
  },
  {
   "type": "Feature",
   "geometry": {
    "type": "Point",
    "coordinates": [
     138.15884508,
     -33.92927862
    ]
   },
   "properties": {
    "name": "20 CAMERON STREET LOCHIEL 5510",
    "locID": "ChIJkbUDcv9ZumoRbB0eI11Q_yE",
    "tech": "SATELLITE",
    "upgrade": "UNKNOWN",
    "gnaf_pid": "GASA_417065806"
   }
  },
  {
   "type": "Feature",
   "geometry": {
    "type": "Point",
    "coordinates": [
     138.15833519,
     -33.93020425
    ]
   },
   "properties": {
    "name": "513 CAMERON STREET LOCHIEL 5510",
    "locID": "ChIJ-bPEOf9ZumoRA2aGIJCxiH8",
    "tech": "SATELLITE",
    "upgrade": "UNKNOWN",
    "gnaf_pid": "GASA_417065807"
   }
  },
  {
   "type": "Feature",
   "geometry": {
    "type": "Point",
    "coordinates": [
     138.15833519,
     -33.93020425
    ]
   },
   "properties": {
    "name": "544 CAMERON STREET LOCHIEL 5510",
    "locID": "ChIJ-bPEOf9ZumoRxqctsCK1VhY",
    "tech": "SATELLITE",
    "upgrade": "UNKNOWN",
    "gnaf_pid": "GASA_417065808"
   }
  },
  {
   "type": "Feature",
   "geometry": {
    "type": "Point",
    "coordinates": [
     138.15833519,
     -33.93020425
    ]
   },
   "properties": {
    "name": "298 CAMERON STREET LOCHIEL 5510",
    "locID": "ChIJ-bPEOf9ZumoRmebLZ5RRrDE",
    "tech": "SATELLITE",
    "upgrade": "UNKNOWN",
    "gnaf_pid": "GASA_417065809"
   }
  },
  {
   "type": "Feature",
   "geometry": {
    "type": "Point",
    "coordinates": [
     138.15833519,
     -33.93020425
    ]
   },
   "properties": {
    "name": "299 CAMERON STREET LOCHIEL 5510",
    "locID": "ChIJ-bPEOf9ZumoRsqqJax0tris",
    "tech": "SATELLITE",
    "upgrade": "UNKNOWN",
    "gnaf_pid": "GASA_417065810"
   }
  },
  {
   "type": "Feature",
   "geometry": {
    "type": "Point",
    "coordinates": [
     138.15833519,
     -33.93020425
    ]
   },
   "properties": {
    "name": "308 CAMERON STREET LOCHIEL 5510",
    "locID": "ChIJ-bPEOf9ZumoRI4wsEDwrhx0",
    "tech": "SATELLITE",
    "upgrade": "UNKNOWN",
    "gnaf_pid": "GASA_417065812"
   }
  },
  {
   "type": "Feature",
   "geometry": {
    "type": "Point",
    "coordinates": [
     138.15833519,
     -33.93020425
    ]
   },
   "properties": {
    "name": "543N CAMERON STREET LOCHIEL 5510",
    "locID": "ChIJ-bPEOf9ZumoRtI8rNrO3NFc",
    "tech": "SATELLITE",
    "upgrade": "UNKNOWN",
    "gnaf_pid": "GASA_417065813"
   }
  },
  {
   "type": "Feature",
   "geometry": {
    "type": "Point",
    "coordinates": [
     138.15833519,
     -33.93020425
    ]
   },
   "properties": {
    "name": "198 CAMERON STREET LOCHIEL 5510",
    "locID": "ChIJ-bPEOf9ZumoRkBDkCu11XS8",
    "tech": "SATELLITE",
    "upgrade": "UNKNOWN",
    "gnaf_pid": "GASA_417065814"
   }
  },
  {
   "type": "Feature",
   "geometry": {
    "type": "Point",
    "coordinates": [
     138.15833519,
     -33.93020425
    ]
   },
   "properties": {
    "name": "505 CAMERON STREET LOCHIEL 5510",
    "locID": "LOC000150232722",
    "tech": "SATELLITE",
    "upgrade": "NULL_NA",
    "gnaf_pid": "GASA_417065815"
   }
  },
  {
   "type": "Feature",
   "geometry": {
    "type": "Point",
    "coordinates": [
     138.15833519,
     -33.93020425
    ]
   },
   "properties": {
    "name": "569 CAMERON STREET LOCHIEL 5510",
    "locID": "ChIJ-bPEOf9ZumoR3-vJbfSsiTA",
    "tech": "SATELLITE",
    "upgrade": "UNKNOWN",
    "gnaf_pid": "GASA_417065816"
   }
  },
  {
   "type": "Feature",
   "geometry": {
    "type": "Point",
    "coordinates": [
     138.15833519,
     -33.93020425
    ]
   },
   "properties": {
    "name": "570 CAMERON STREET LOCHIEL 5510",
    "locID": "ChIJ-bPEOf9ZumoRTUEvhb5Imp4",
    "tech": "SATELLITE",
    "upgrade": "UNKNOWN",
    "gnaf_pid": "GASA_417065817"
   }
  },
  {
   "type": "Feature",
   "geometry": {
    "type": "Point",
    "coordinates": [
     138.15833519,
     -33.93020425
    ]
   },
   "properties": {
    "name": "508 CAMERON STREET LOCHIEL 5510",
    "locID": "ChIJ-bPEOf9ZumoRYs0UGyxvG9s",
    "tech": "SATELLITE",
    "upgrade": "UNKNOWN",
    "gnaf_pid": "GASA_417065818"
   }
  },
  {
   "type": "Feature",
   "geometry": {
    "type": "Point",
    "coordinates": [
     138.15833519,
     -33.93020425
    ]
   },
   "properties": {
    "name": "73 CAMERON STREET LOCHIEL 5510",
    "locID": "ChIJ-bPEOf9ZumoRRBrurMoBQVk",
    "tech": "SATELLITE",
    "upgrade": "UNKNOWN",
    "gnaf_pid": "GASA_417065819"
   }
  },
  {
   "type": "Feature",
   "geometry": {
    "type": "Point",
    "coordinates": [
     138.15833519,
     -33.93020425
    ]
   },
   "properties": {
    "name": "291 CAMERON STREET LOCHIEL 5510",
    "locID": "ChIJ-bPEOf9ZumoRecNZxtSmOUw",
    "tech": "SATELLITE",
    "upgrade": "UNKNOWN",
    "gnaf_pid": "GASA_417065820"
   }
  },
  {
   "type": "Feature",
   "geometry": {
    "type": "Point",
    "coordinates": [
     138.15833519,
     -33.93020425
    ]
   },
   "properties": {
    "name": "291W CAMERON STREET LOCHIEL 5510",
    "locID": "ChIJ-bPEOf9ZumoR6yxYLRwDyJE",
    "tech": "SATELLITE",
    "upgrade": "UNKNOWN",
    "gnaf_pid": "GASA_417065821"
   }
  },
  {
   "type": "Feature",
   "geometry": {
    "type": "Point",
    "coordinates": [
     138.15833519,
     -33.93020425
    ]
   },
   "properties": {
    "name": "346 CAMERON STREET LOCHIEL 5510",
    "locID": "ChIJ-bPEOf9ZumoRBX7bwwZ2gmI",
    "tech": "SATELLITE",
    "upgrade": "UNKNOWN",
    "gnaf_pid": "GASA_417065822"
   }
  },
  {
   "type": "Feature",
   "geometry": {
    "type": "Point",
    "coordinates": [
     138.15833519,
     -33.93020425
    ]
   },
   "properties": {
    "name": "311 CAMERON STREET LOCHIEL 5510",
    "locID": "ChIJ-bPEOf9ZumoRhoBKUzAsrOk",
    "tech": "SATELLITE",
    "upgrade": "UNKNOWN",
    "gnaf_pid": "GASA_417065823"
   }
  },
  {
   "type": "Feature",
   "geometry": {
    "type": "Point",
    "coordinates": [
     138.15833519,
     -33.93020425
    ]
   },
   "properties": {
    "name": "66 CAMERON STREET LOCHIEL 5510",
    "locID": "ChIJ-bPEOf9ZumoRxi-RhDA1lg8",
    "tech": "SATELLITE",
    "upgrade": "UNKNOWN",
    "gnaf_pid": "GASA_423421446"
   }
  },
  {
   "type": "Feature",
   "geometry": {
    "type": "Point",
    "coordinates": [
     138.15833519,
     -33.93020425
    ]
   },
   "properties": {
    "name": "79 CAMERON STREET LOCHIEL 5510",
    "locID": "ChIJ-bPEOf9ZumoR-CVWtgxAD7E",
    "tech": "SATELLITE",
    "upgrade": "UNKNOWN",
    "gnaf_pid": "GASA_423421447"
   }
  },
  {
   "type": "Feature",
   "geometry": {
    "type": "Point",
    "coordinates": [
     138.15833519,
     -33.93020425
    ]
   },
   "properties": {
    "name": "81 CAMERON STREET LOCHIEL 5510",
    "locID": "ChIJ-bPEOf9ZumoRBH0Sz4TQK4Q",
    "tech": "SATELLITE",
    "upgrade": "UNKNOWN",
    "gnaf_pid": "GASA_423421448"
   }
  },
  {
   "type": "Feature",
   "geometry": {
    "type": "Point",
    "coordinates": [
     138.15833949,
     -33.92756409
    ]
   },
   "properties": {
    "name": "92 ROBERT STREET LOCHIEL 5510",
    "locID": "ChIJVS7svv9ZumoRUYWYKxtknP4",
    "tech": "SATELLITE",
    "upgrade": "UNKNOWN",
    "gnaf_pid": "GASA_423424377"
   }
  },
  {
   "type": "Feature",
   "geometry": {
    "type": "Point",
    "coordinates": [
     138.15836115,
     -33.93146487
    ]
   },
   "properties": {
    "name": "37 SMITH STREET LOCHIEL 5510",
    "locID": "ChIJt_02xvhZumoRXKyqmU4BeB4",
    "tech": "SATELLITE",
    "upgrade": "UNKNOWN",
    "gnaf_pid": "GASA_423424581"
   }
  },
  {
   "type": "Feature",
   "geometry": {
    "type": "Point",
    "coordinates": [
     138.15833519,
     -33.93020425
    ]
   },
   "properties": {
    "name": "82 CAMERON STREET LOCHIEL 5510",
    "locID": "ChIJ-bPEOf9ZumoRVCmeXX1YEqs",
    "tech": "SATELLITE",
    "upgrade": "UNKNOWN",
    "gnaf_pid": "GASA_423426659"
   }
  },
  {
   "type": "Feature",
   "geometry": {
    "type": "Point",
    "coordinates": [
     138.15833519,
     -33.93020425
    ]
   },
   "properties": {
    "name": "84 CAMERON STREET LOCHIEL 5510",
    "locID": "ChIJ-bPEOf9ZumoRhTzpIuXsiPw",
    "tech": "SATELLITE",
    "upgrade": "UNKNOWN",
    "gnaf_pid": "GASA_423426660"
   }
  },
  {
   "type": "Feature",
   "geometry": {
    "type": "Point",
    "coordinates": [
     138.1583449,
     -33.92951428
    ]
   },
   "properties": {
    "name": "LOT 109 BARR STREET LOCHIEL 5510",
    "locID": "LOC000150232664",
    "tech": "SATELLITE",
    "upgrade": "NULL_NA",
    "gnaf_pid": "GASA_423590901"
   }
  },
  {
   "type": "Feature",
   "geometry": {
    "type": "Point",
    "coordinates": [
     138.08750816,
     -33.95271992
    ]
   },
   "properties": {
    "name": "LOT 1 NINNES ROAD LOCHIEL 5510",
    "locID": "LOC000147666743",
    "tech": "WIRELESS",
    "upgrade": "NULL_NA",
    "gnaf_pid": "GASA_423953736"
   }
  },
  {
   "type": "Feature",
   "geometry": {
    "type": "Point",
    "coordinates": [
     138.15836115,
     -33.93146487
    ]
   },
   "properties": {
    "name": "LOT 65 SMITH STREET LOCHIEL 5510",
    "locID": "LOC000108926871",
    "tech": "SATELLITE",
    "upgrade": "NULL_NA",
    "gnaf_pid": "GASA_423955898"
   }
  },
  {
   "type": "Feature",
   "geometry": {
    "type": "Point",
    "coordinates": [
     138.1607806,
     -33.92655955
    ]
   },
   "properties": {
    "name": "LOT 92 FRANCES TERRACE LOCHIEL 5510",
    "locID": "Ei45MiBGcmFuY2VzIFRlcnJhY2UsIExvY2hpZWwgU0EgNTUxMCwgQXVzdHJhbGlhIjASLgoUChIJ69xQlwFaumoR8pwPdGtIKToQXCoUChIJhUchVQBaumoR1dIPkNPOYnA",
    "tech": "SATELLITE",
    "upgrade": "UNKNOWN",
    "gnaf_pid": "GASA_424172434"
   }
  },
  {
   "type": "Feature",
   "geometry": {
    "type": "Point",
    "coordinates": [
     138.09409299,
     -33.95206034
    ]
   },
   "properties": {
    "name": "LOT 2 NINNES ROAD LOCHIEL 5510",
    "locID": "LOC000147666743",
    "tech": "WIRELESS",
    "upgrade": "NULL_NA",
    "gnaf_pid": "GASA_424195743"
   }
  },
  {
   "type": "Feature",
   "geometry": {
    "type": "Point",
    "coordinates": [
     138.09126614,
     -33.96541778
    ]
   },
   "properties": {
    "name": "LOT 767 NINNES ROAD LOCHIEL 5510",
    "locID": "LOC000148400726",
    "tech": "SATELLITE",
    "upgrade": "NULL_NA",
    "gnaf_pid": "GASA_424195744"
   }
  },
  {
   "type": "Feature",
   "geometry": {
    "type": "Point",
    "coordinates": [
     138.15833949,
     -33.92756409
    ]
   },
   "properties": {
    "name": "LOT 93 ROBERT STREET LOCHIEL 5510",
    "locID": "Eig5MyBSb2JlcnQgU3QsIExvY2hpZWwgU0EgNTUxMCwgQXVzdHJhbGlhIjASLgoUChIJwTxysv9ZumoRwDWJSVQ2AxMQXSoUChIJ1aDsvv9ZumoR9JkhAL8ijVE",
    "tech": "SATELLITE",
    "upgrade": "UNKNOWN",
    "gnaf_pid": "GASA_424206286"
   }
  },
  {
   "type": "Feature",
   "geometry": {
    "type": "Point",
    "coordinates": [
     138.15747945,
     -33.93046601
    ]
   },
   "properties": {
    "name": "LOT 73 CAMERON STREET LOCHIEL 5510",
    "locID": "ChIJ-bPEOf9ZumoRRBrurMoBQVk",
    "tech": "SATELLITE",
    "upgrade": "UNKNOWN",
    "gnaf_pid": "GASA_424292986"
   }
  },
  {
   "type": "Feature",
   "geometry": {
    "type": "Point",
    "coordinates": [
     138.16078017,
     -33.93216792
    ]
   },
   "properties": {
    "name": "LOT 1 FRANCES TERRACE LOCHIEL 5510",
    "locID": "LOC000150232812",
    "tech": "SATELLITE",
    "upgrade": "NULL_NA",
    "gnaf_pid": "GASA_424302111"
   }
  },
  {
   "type": "Feature",
   "geometry": {
    "type": "Point",
    "coordinates": [
     138.15587879,
     -33.93075166
    ]
   },
   "properties": {
    "name": "LOT 106 JOHN STREET LOCHIEL 5510",
    "locID": "EicxMDYgSm9obiBTdCwgTG9jaGllbCBTQSA1NTEwLCBBdXN0cmFsaWEiMBIuChQKEgkBJw3l_lm6ahHJ1WddO07PtRBqKhQKEgmX2ktX_lm6ahGWL-MxaHTlWA",
    "tech": "SATELLITE",
    "upgrade": "UNKNOWN",
    "gnaf_pid": "GASA_424310119"
   }
  },
  {
   "type": "Feature",
   "geometry": {
    "type": "Point",
    "coordinates": [
     138.15587893,
     -33.92855948
    ]
   },
   "properties": {
    "name": "LOT 110 JOHN STREET LOCHIEL 5510",
    "locID": "EicxMTAgSm9obiBTdCwgTG9jaGllbCBTQSA1NTEwLCBBdXN0cmFsaWEiMBIuChQKEgkBJw3l_lm6ahHJ1WddO07PtRBuKhQKEgmX2ktX_lm6ahGWL-MxaHTlWA",
    "tech": "SATELLITE",
    "upgrade": "UNKNOWN",
    "gnaf_pid": "GASA_424310120"
   }
  },
  {
   "type": "Feature",
   "geometry": {
    "type": "Point",
    "coordinates": [
     138.15883804,
     -33.92684774
    ]
   },
   "properties": {
    "name": "LOT 46 ROBERT STREET LOCHIEL 5510",
    "locID": "Eig0NiBSb2JlcnQgU3QsIExvY2hpZWwgU0EgNTUxMCwgQXVzdHJhbGlhIjASLgoUChIJqyzc7P9ZumoRGG7_9ECVwU0QLioUChIJ1aDsvv9ZumoR9JkhAL8ijVE",
    "tech": "SATELLITE",
    "upgrade": "UNKNOWN",
    "gnaf_pid": "GASA_424329660"
   }
  },
  {
   "type": "Feature",
   "geometry": {
    "type": "Point",
    "coordinates": [
     138.15891938,
     -33.93054839
    ]
   },
   "properties": {
    "name": "LOT 39 SMITH STREET LOCHIEL 5510",
    "locID": "EiczOSBTbWl0aCBTdCwgTG9jaGllbCBTQSA1NTEwLCBBdXN0cmFsaWEiMBIuChQKEgld30LG-Fm6ahH4BMo7jaTchRAnKhQKEgkNbUjG-Fm6ahFz2hPWRKWGUw",
    "tech": "SATELLITE",
    "upgrade": "UNKNOWN",
    "gnaf_pid": "GASA_424332690"
   }
  },
  {
   "type": "Feature",
   "geometry": {
    "type": "Point",
    "coordinates": [
     138.1088249,
     -33.9136845
    ]
   },
   "properties": {
    "name": "LOT 293 LANDSLIDE ROAD LOCHIEL 5510",
    "locID": "LOC000145154946",
    "tech": "WIRELESS",
    "upgrade": "NULL_NA",
    "gnaf_pid": "GASA_424393487"
   }
  },
  {
   "type": "Feature",
   "geometry": {
    "type": "Point",
    "coordinates": [
     138.10546823,
     -33.93962279
    ]
   },
   "properties": {
    "name": "LOT 51 LINTON ROAD LOCHIEL 5510",
    "locID": "LOC000148396113",
    "tech": "WIRELESS",
    "upgrade": "NULL_NA",
    "gnaf_pid": "GASA_424521975"
   }
  },
  {
   "type": "Feature",
   "geometry": {
    "type": "Point",
    "coordinates": [
     138.16161257,
     -33.93001831
    ]
   },
   "properties": {
    "name": "LOT 11 FRANCES TERRACE LOCHIEL 5510",
    "locID": "LOC000150232808",
    "tech": "SATELLITE",
    "upgrade": "NULL_NA",
    "gnaf_pid": "GASA_424568076"
   }
  },
  {
   "type": "Feature",
   "geometry": {
    "type": "Point",
    "coordinates": [
     138.15833519,
     -33.93020425
    ]
   },
   "properties": {
    "name": "1009 CAMERON STREET LOCHIEL 5510",
    "locID": "ChIJ-bPEOf9ZumoRyesgFocLhAw",
    "tech": "SATELLITE",
    "upgrade": "UNKNOWN",
    "gnaf_pid": "GASA_425072892"
   }
  },
  {
   "type": "Feature",
   "geometry": {
    "type": "Point",
    "coordinates": [
     138.16967069,
     -33.9520827
    ]
   },
   "properties": {
    "name": "2659 AUGUSTA HIGHWAY LOCHIEL 5510",
    "locID": "ChIJcWojLSNaumoRb5cT7621yko",
    "tech": "SATELLITE",
    "upgrade": "UNKNOWN",
    "gnaf_pid": "GASA_425105137"
   }
  },
  {
   "type": "Feature",
   "geometry": {
    "type": "Point",
    "coordinates": [
     138.16554459,
     -33.94128167
    ]
   },
   "properties": {
    "name": "2792 AUGUSTA HIGHWAY LOCHIEL 5510",
    "locID": "LOC000150232492",
    "tech": "SATELLITE",
    "upgrade": "NULL_NA",
    "gnaf_pid": "GASA_425105138"
   }
  },
  {
   "type": "Feature",
   "geometry": {
    "type": "Point",
    "coordinates": [
     138.16375904,
     -33.90600731
    ]
   },
   "properties": {
    "name": "3193 AUGUSTA HIGHWAY LOCHIEL 5510",
    "locID": "LOC000150232503",
    "tech": "SATELLITE",
    "upgrade": "NULL_NA",
    "gnaf_pid": "GASA_425105139"
   }
  },
  {
   "type": "Feature",
   "geometry": {
    "type": "Point",
    "coordinates": [
     138.1688723,
     -33.89724973
    ]
   },
   "properties": {
    "name": "3301 AUGUSTA HIGHWAY LOCHIEL 5510",
    "locID": "LOC000150232519",
    "tech": "SATELLITE",
    "upgrade": "NULL_NA",
    "gnaf_pid": "GASA_425105140"
   }
  },
  {
   "type": "Feature",
   "geometry": {
    "type": "Point",
    "coordinates": [
     138.16966936,
     -33.93267677
    ]
   },
   "properties": {
    "name": "4313 BLYTH ROAD LOCHIEL 5510",
    "locID": "ChIJA43r1wdaumoR3yQSs-Rc-1o",
    "tech": "SATELLITE",
    "upgrade": "UNKNOWN",
    "gnaf_pid": "GASA_425105637"
   }
  },
  {
   "type": "Feature",
   "geometry": {
    "type": "Point",
    "coordinates": [
     138.09083919,
     -33.89523022
    ]
   },
   "properties": {
    "name": "1009 CAMERON ROAD LOCHIEL 5510",
    "locID": "ChIJFQJCZfdXumoRz2IRhpBM0IQ",
    "tech": "WIRELESS",
    "upgrade": "UNKNOWN",
    "gnaf_pid": "GASA_425106111"
   }
  },
  {
   "type": "Feature",
   "geometry": {
    "type": "Point",
    "coordinates": [
     138.13502911,
     -33.94947544
    ]
   },
   "properties": {
    "name": "293 ISAACSON ROAD LOCHIEL 5510",
    "locID": "LOC000148247846",
    "tech": "SATELLITE",
    "upgrade": "NULL_NA",
    "gnaf_pid": "GASA_425108582"
   }
  },
  {
   "type": "Feature",
   "geometry": {
    "type": "Point",
    "coordinates": [
     138.16243602,
     -33.94852397
    ]
   },
   "properties": {
    "name": "37 ISAACSON ROAD LOCHIEL 5510",
    "locID": "ChIJcZlYqiFaumoRP9KXNSClGow",
    "tech": "SATELLITE",
    "upgrade": "UNKNOWN",
    "gnaf_pid": "GASA_425108583"
   }
  },
  {
   "type": "Feature",
   "geometry": {
    "type": "Point",
    "coordinates": [
     138.11522239,
     -33.92970006
    ]
   },
   "properties": {
    "name": "1228 LANDSLIDE ROAD LOCHIEL 5510",
    "locID": "LOC000148396099",
    "tech": "SATELLITE",
    "upgrade": "NULL_NA",
    "gnaf_pid": "GASA_425109074"
   }
  },
  {
   "type": "Feature",
   "geometry": {
    "type": "Point",
    "coordinates": [
     138.11248098,
     -33.90277334
    ]
   },
   "properties": {
    "name": "923 LANDSLIDE ROAD LOCHIEL 5510",
    "locID": "LOC000147344338",
    "tech": "WIRELESS",
    "upgrade": "NULL_NA",
    "gnaf_pid": "GASA_425109075"
   }
  },
  {
   "type": "Feature",
   "geometry": {
    "type": "Point",
    "coordinates": [
     138.11307538,
     -33.9465941
    ]
   },
   "properties": {
    "name": "1039 LINTON ROAD LOCHIEL 5510",
    "locID": "LOC000148396109",
    "tech": "WIRELESS",
    "upgrade": "NULL_NA",
    "gnaf_pid": "GASA_425109194"
   }
  },
  {
   "type": "Feature",
   "geometry": {
    "type": "Point",
    "coordinates": [
     138.08891038,
     -33.94654593
    ]
   },
   "properties": {
    "name": "815 LINTON ROAD LOCHIEL 5510",
    "locID": "ChIJMR4vQppYumoRyNU0RN7YsBY",
    "tech": "WIRELESS",
    "upgrade": "UNKNOWN",
    "gnaf_pid": "GASA_425109195"
   }
  },
  {
   "type": "Feature",
   "geometry": {
    "type": "Point",
    "coordinates": [
     138.10833033,
     -33.94658736
    ]
   },
   "properties": {
    "name": "995 LINTON ROAD LOCHIEL 5510",
    "locID": "LOC000148396113",
    "tech": "WIRELESS",
    "upgrade": "NULL_NA",
    "gnaf_pid": "GASA_425109196"
   }
  },
  {
   "type": "Feature",
   "geometry": {
    "type": "Point",
    "coordinates": [
     138.15774135,
     -33.94731792
    ]
   },
   "properties": {
    "name": "102 LOCHIEL CEMETERY ROAD LOCHIEL 5510",
    "locID": "LOC000148396132",
    "tech": "SATELLITE",
    "upgrade": "NULL_NA",
    "gnaf_pid": "GASA_425109212"
   }
  },
  {
   "type": "Feature",
   "geometry": {
    "type": "Point",
    "coordinates": [
     138.15763036,
     -33.94073118
    ]
   },
   "properties": {
    "name": "29 LOCHIEL CEMETERY ROAD LOCHIEL 5510",
    "locID": "LOC000150232526",
    "tech": "SATELLITE",
    "upgrade": "NULL_NA",
    "gnaf_pid": "GASA_425109213"
   }
  },
  {
   "type": "Feature",
   "geometry": {
    "type": "Point",
    "coordinates": [
     138.156472,
     -33.86808462
    ]
   },
   "properties": {
    "name": "229 MARO CREEK LANE LOCHIEL 5510",
    "locID": "LOC000150232535",
    "tech": "SATELLITE",
    "upgrade": "NULL_NA",
    "gnaf_pid": "GASA_425109522"
   }
  },
  {
   "type": "Feature",
   "geometry": {
    "type": "Point",
    "coordinates": [
     138.156472,
     -33.86808462
    ]
   },
   "properties": {
    "name": "235 MARO CREEK LANE LOCHIEL 5510",
    "locID": "ChIJy0jDs7VWumoRZj5qMU-PpKY",
    "tech": "SATELLITE",
    "upgrade": "UNKNOWN",
    "gnaf_pid": "GASA_425109523"
   }
  },
  {
   "type": "Feature",
   "geometry": {
    "type": "Point",
    "coordinates": [
     138.171051,
     -33.93985092
    ]
   },
   "properties": {
    "name": "53 MOULDS ROAD LOCHIEL 5510",
    "locID": "LOC000150232542",
    "tech": "SATELLITE",
    "upgrade": "NULL_NA",
    "gnaf_pid": "GASA_425109870"
   }
  },
  {
   "type": "Feature",
   "geometry": {
    "type": "Point",
    "coordinates": [
     138.17156466,
     -33.93985694
    ]
   },
   "properties": {
    "name": "58 MOULDS ROAD LOCHIEL 5510",
    "locID": "LOC000150232557",
    "tech": "SATELLITE",
    "upgrade": "NULL_NA",
    "gnaf_pid": "GASA_425109871"
   }
  },
  {
   "type": "Feature",
   "geometry": {
    "type": "Point",
    "coordinates": [
     138.16565141,
     -33.95256014
    ]
   },
   "properties": {
    "name": "46 NOTTLE LANE LOCHIEL 5510",
    "locID": "ChIJ8SGyDiRaumoR6YX38LjmauI",
    "tech": "SATELLITE",
    "upgrade": "UNKNOWN",
    "gnaf_pid": "GASA_425110288"
   }
  },
  {
   "type": "Feature",
   "geometry": {
    "type": "Point",
    "coordinates": [
     138.1020948,
     -33.96776228
    ]
   },
   "properties": {
    "name": "163 PUMP STATION ROAD LOCHIEL 5510",
    "locID": "LOC000148396340",
    "tech": "WIRELESS",
    "upgrade": "NULL_NA",
    "gnaf_pid": "GASA_425111055"
   }
  },
  {
   "type": "Feature",
   "geometry": {
    "type": "Point",
    "coordinates": [
     138.10144287,
     -33.96871473
    ]
   },
   "properties": {
    "name": "175 PUMP STATION ROAD LOCHIEL 5510",
    "locID": "ChIJR_YHOMhYumoRdAhNxOJqb18",
    "tech": "SATELLITE",
    "upgrade": "UNKNOWN",
    "gnaf_pid": "GASA_425111056"
   }
  },
  {
   "type": "Feature",
   "geometry": {
    "type": "Point",
    "coordinates": [
     138.15266761,
     -33.94371836
    ]
   },
   "properties": {
    "name": "145 SOUTH HUMMOCKS ROAD LOCHIEL 5510",
    "locID": "LOC000148243909",
    "tech": "SATELLITE",
    "upgrade": "NULL_NA",
    "gnaf_pid": "GASA_425111957"
   }
  },
  {
   "type": "Feature",
   "geometry": {
    "type": "Point",
    "coordinates": [
     138.13834602,
     -33.97050597
    ]
   },
   "properties": {
    "name": "494 SOUTH HUMMOCKS ROAD LOCHIEL 5510",
    "locID": "LOC000148250692",
    "tech": "SATELLITE",
    "upgrade": "NULL_NA",
    "gnaf_pid": "GASA_425111958"
   }
  },
  {
   "type": "Feature",
   "geometry": {
    "type": "Point",
    "coordinates": [
     138.15732836,
     -33.9356039
    ]
   },
   "properties": {
    "name": "61 STOCK CROSSING ROAD LOCHIEL 5510",
    "locID": "LOC000180262091",
    "tech": "SATELLITE",
    "upgrade": "NULL_NA",
    "gnaf_pid": "GASA_425112289"
   }
  },
  {
   "type": "Feature",
   "geometry": {
    "type": "Point",
    "coordinates": [
     138.09773641,
     -33.9717364
    ]
   },
   "properties": {
    "name": "162 SUNNY HILL SCHOOL ROAD LOCHIEL 5510",
    "locID": "LOC000142661738",
    "tech": "SATELLITE",
    "upgrade": "NULL_NA",
    "gnaf_pid": "GASA_425112407"
   }
  },
  {
   "type": "Feature",
   "geometry": {
    "type": "Point",
    "coordinates": [
     138.14641344,
     -33.94071929
    ]
   },
   "properties": {
    "name": "104 TIKANA ROAD LOCHIEL 5510",
    "locID": "ChIJvVhwPpNZumoRVEwEPxqBZ7w",
    "tech": "SATELLITE",
    "upgrade": "UNKNOWN",
    "gnaf_pid": "GASA_425112820"
   }
  },
  {
   "type": "Feature",
   "geometry": {
    "type": "Point",
    "coordinates": [
     138.14249888,
     -33.94069073
    ]
   },
   "properties": {
    "name": "140 TIKANA ROAD LOCHIEL 5510",
    "locID": "LOC000148243754",
    "tech": "SATELLITE",
    "upgrade": "NULL_NA",
    "gnaf_pid": "GASA_425112821"
   }
  },
  {
   "type": "Feature",
   "geometry": {
    "type": "Point",
    "coordinates": [
     138.15428933,
     -33.94069476
    ]
   },
   "properties": {
    "name": "30 TIKANA ROAD LOCHIEL 5510",
    "locID": "LOC000150232561",
    "tech": "SATELLITE",
    "upgrade": "NULL_NA",
    "gnaf_pid": "GASA_425112822"
   }
  },
  {
   "type": "Feature",
   "geometry": {
    "type": "Point",
    "coordinates": [
     138.14809308,
     -33.93725681
    ]
   },
   "properties": {
    "name": "49 WALLACE ROAD LOCHIEL 5510",
    "locID": "LOC000148396567",
    "tech": "SATELLITE",
    "upgrade": "NULL_NA",
    "gnaf_pid": "GASA_425113097"
   }
  },
  {
   "type": "Feature",
   "geometry": {
    "type": "Point",
    "coordinates": [
     138.1272173,
     -33.93976933
    ]
   },
   "properties": {
    "name": "320 NINNES ROAD LOCHIEL 5510",
    "locID": "LOC000148400726",
    "tech": "SATELLITE",
    "upgrade": "NULL_NA",
    "gnaf_pid": "GASA_425191447"
   }
  },
  {
   "type": "Feature",
   "geometry": {
    "type": "Point",
    "coordinates": [
     138.16413843,
     -33.93234648
    ]
   },
   "properties": {
    "name": "LOT 592 FRANCES TERRACE LOCHIEL 5510",
    "locID": "LOC100078089791",
    "tech": "SATELLITE",
    "upgrade": "NULL_NA",
    "gnaf_pid": "GASA_425254524"
   }
  },
  {
   "type": "Feature",
   "geometry": {
    "type": "Point",
    "coordinates": [
     138.1583449,
     -33.92951428
    ]
   },
   "properties": {
    "name": "LOT 11 BARR STREET LOCHIEL 5510",
    "locID": "EiYxMSBCYXJyIFN0LCBMb2NoaWVsIFNBIDU1MTAsIEF1c3RyYWxpYSIwEi4KFAoSCQ0jq2__WbpqERw3GcFe3rOaEAsqFAoSCWc5sxX_WbpqEYbxcozxg3Aw",
    "tech": "SATELLITE",
    "upgrade": "UNKNOWN",
    "gnaf_pid": "GASA_425258123"
   }
  },
  {
   "type": "Feature",
   "geometry": {
    "type": "Point",
    "coordinates": [
     138.15713103,
     -33.92870399
    ]
   },
   "properties": {
    "name": "15 CAMERON STREET LOCHIEL 5510",
    "locID": "LOC000151740906",
    "tech": "SATELLITE",
    "upgrade": "NULL_NA",
    "gnaf_pid": "GASA_425301342"
   }
  },
  {
   "type": "Feature",
   "geometry": {
    "type": "Point",
    "coordinates": [
     138.16172396,
     -33.9383645
    ]
   },
   "properties": {
    "name": "LOT 176 AUGUSTA HIGHWAY LOCHIEL 5510",
    "locID": "LOC000150232492",
    "tech": "SATELLITE",
    "upgrade": "NULL_NA",
    "gnaf_pid": "GASA_425388347"
   }
  },
  {
   "type": "Feature",
   "geometry": {
    "type": "Point",
    "coordinates": [
     138.1555327,
     -33.91975762
    ]
   },
   "properties": {
    "name": "LOT 230 AUGUSTA HIGHWAY LOCHIEL 5510",
    "locID": "LOC000150232492",
    "tech": "SATELLITE",
    "upgrade": "NULL_NA",
    "gnaf_pid": "GASA_425388348"
   }
  },
  {
   "type": "Feature",
   "geometry": {
    "type": "Point",
    "coordinates": [
     138.16094963,
     -33.92426606
    ]
   },
   "properties": {
    "name": "LOT 501 AUGUSTA HIGHWAY LOCHIEL 5510",
    "locID": "Eis1MDEgQXVndXN0YSBId3ksIExvY2hpZWwgU0EgNTUxMCwgQXVzdHJhbGlhIjESLwoUChIJrxFuDdtTumoR4wXgBJdWWLYQ9QMqFAoSCRG7K2-zXbpqEetJ2Ds_8jb5",
    "tech": "SATELLITE",
    "upgrade": "UNKNOWN",
    "gnaf_pid": "GASA_425388349"
   }
  },
  {
   "type": "Feature",
   "geometry": {
    "type": "Point",
    "coordinates": [
     138.16285589,
     -33.92346516
    ]
   },
   "properties": {
    "name": "LOT 609 AUGUSTA HIGHWAY LOCHIEL 5510",
    "locID": "Eis2MDkgQXVndXN0YSBId3ksIExvY2hpZWwgU0EgNTUxMCwgQXVzdHJhbGlhIjESLwoUChIJrxFuDdtTumoR4wXgBJdWWLYQ4QQqFAoSCRG7K2-zXbpqEetJ2Ds_8jb5",
    "tech": "SATELLITE",
    "upgrade": "UNKNOWN",
    "gnaf_pid": "GASA_425388351"
   }
  },
  {
   "type": "Feature",
   "geometry": {
    "type": "Point",
    "coordinates": [
     138.1807568,
     -33.87228088
    ]
   },
   "properties": {
    "name": "LOT 626 AUGUSTA HIGHWAY LOCHIEL 5510",
    "locID": "Eis2MjYgQXVndXN0YSBId3ksIExvY2hpZWwgU0EgNTUxMCwgQXVzdHJhbGlhIjESLwoUChIJrxFuDdtTumoR4wXgBJdWWLYQ8gQqFAoSCRG7K2-zXbpqEetJ2Ds_8jb5",
    "tech": "SATELLITE",
    "upgrade": "UNKNOWN",
    "gnaf_pid": "GASA_425388352"
   }
  },
  {
   "type": "Feature",
   "geometry": {
    "type": "Point",
    "coordinates": [
     138.15690578,
     -33.92486695
    ]
   },
   "properties": {
    "name": "LOT 640 AUGUSTA HIGHWAY LOCHIEL 5510",
    "locID": "Eis2NDAgQXVndXN0YSBId3ksIExvY2hpZWwgU0EgNTUxMCwgQXVzdHJhbGlhIjESLwoUChIJrxFuDdtTumoR4wXgBJdWWLYQgAUqFAoSCRG7K2-zXbpqEetJ2Ds_8jb5",
    "tech": "SATELLITE",
    "upgrade": "UNKNOWN",
    "gnaf_pid": "GASA_425388353"
   }
  },
  {
   "type": "Feature",
   "geometry": {
    "type": "Point",
    "coordinates": [
     138.16526137,
     -33.94793549
    ]
   },
   "properties": {
    "name": "LOT 643 AUGUSTA HIGHWAY LOCHIEL 5510",
    "locID": "Eis2NDMgQXVndXN0YSBId3ksIExvY2hpZWwgU0EgNTUxMCwgQXVzdHJhbGlhIjESLwoUChIJrxFuDdtTumoR4wXgBJdWWLYQgwUqFAoSCRG7K2-zXbpqEetJ2Ds_8jb5",
    "tech": "SATELLITE",
    "upgrade": "UNKNOWN",
    "gnaf_pid": "GASA_425388354"
   }
  },
  {
   "type": "Feature",
   "geometry": {
    "type": "Point",
    "coordinates": [
     138.16379111,
     -33.91832068
    ]
   },
   "properties": {
    "name": "LOT 646 AUGUSTA HIGHWAY LOCHIEL 5510",
    "locID": "Eis2NDYgQXVndXN0YSBId3ksIExvY2hpZWwgU0EgNTUxMCwgQXVzdHJhbGlhIjESLwoUChIJrxFuDdtTumoR4wXgBJdWWLYQhgUqFAoSCRG7K2-zXbpqEetJ2Ds_8jb5",
    "tech": "SATELLITE",
    "upgrade": "UNKNOWN",
    "gnaf_pid": "GASA_425388355"
   }
  },
  {
   "type": "Feature",
   "geometry": {
    "type": "Point",
    "coordinates": [
     138.16624483,
     -33.9045163
    ]
   },
   "properties": {
    "name": "LOT 648 AUGUSTA HIGHWAY LOCHIEL 5510",
    "locID": "Eis2NDggQXVndXN0YSBId3ksIExvY2hpZWwgU0EgNTUxMCwgQXVzdHJhbGlhIjESLwoUChIJrxFuDdtTumoR4wXgBJdWWLYQiAUqFAoSCRG7K2-zXbpqEetJ2Ds_8jb5",
    "tech": "SATELLITE",
    "upgrade": "UNKNOWN",
    "gnaf_pid": "GASA_425388356"
   }
  },
  {
   "type": "Feature",
   "geometry": {
    "type": "Point",
    "coordinates": [
     138.17957849,
     -33.90432065
    ]
   },
   "properties": {
    "name": "LOT 650 AUGUSTA HIGHWAY LOCHIEL 5510",
    "locID": "Eis2NTAgQXVndXN0YSBId3ksIExvY2hpZWwgU0EgNTUxMCwgQXVzdHJhbGlhIjESLwoUChIJrxFuDdtTumoR4wXgBJdWWLYQigUqFAoSCRG7K2-zXbpqEetJ2Ds_8jb5",
    "tech": "SATELLITE",
    "upgrade": "UNKNOWN",
    "gnaf_pid": "GASA_425388358"
   }
  },
  {
   "type": "Feature",
   "geometry": {
    "type": "Point",
    "coordinates": [
     138.17766176,
     -33.87211769
    ]
   },
   "properties": {
    "name": "LOT 784 AUGUSTA HIGHWAY LOCHIEL 5510",
    "locID": "Eis3ODQgQXVndXN0YSBId3ksIExvY2hpZWwgU0EgNTUxMCwgQXVzdHJhbGlhIjESLwoUChIJrxFuDdtTumoR4wXgBJdWWLYQkAYqFAoSCRG7K2-zXbpqEetJ2Ds_8jb5",
    "tech": "SATELLITE",
    "upgrade": "UNKNOWN",
    "gnaf_pid": "GASA_425388360"
   }
  },
  {
   "type": "Feature",
   "geometry": {
    "type": "Point",
    "coordinates": [
     138.18325393,
     -33.93421713
    ]
   },
   "properties": {
    "name": "LOT 115 BLYTH ROAD LOCHIEL 5510",
    "locID": "LOC000187328562",
    "tech": "WIRELESS",
    "upgrade": "NULL_NA",
    "gnaf_pid": "GASA_425388873"
   }
  },
  {
   "type": "Feature",
   "geometry": {
    "type": "Point",
    "coordinates": [
     138.16784701,
     -33.93099745
    ]
   },
   "properties": {
    "name": "LOT 659 BLYTH ROAD LOCHIEL 5510",
    "locID": "EiRCbHl0aCBSZCwgTG9jaGllbCBTQSA1NTEwLCBBdXN0cmFsaWEiLiosChQKEgm7NbXWtrW7ahFsaDzZ3DOYZBIUChIJ44wNz_5ZumoRgPSOYlQ2AwQ",
    "tech": "SATELLITE",
    "upgrade": "UNKNOWN",
    "gnaf_pid": "GASA_425388874"
   }
  },
  {
   "type": "Feature",
   "geometry": {
    "type": "Point",
    "coordinates": [
     138.14797256,
     -33.92455788
    ]
   },
   "properties": {
    "name": "LOT 212 GLIDING CLUB ROAD LOCHIEL 5510",
    "locID": "EitHbGlkaW5nIENsdWIgUmQsIExvY2hpZWwgU0EgNTUxMCwgQXVzdHJhbGlhIi4qLAoUChIJD44D_MNZumoRxLwC_bE09gUSFAoSCeOMDc_-WbpqEYD0jmJUNgME",
    "tech": "SATELLITE",
    "upgrade": "UNKNOWN",
    "gnaf_pid": "GASA_425390940"
   }
  },
  {
   "type": "Feature",
   "geometry": {
    "type": "Point",
    "coordinates": [
     138.1945078,
     -33.90145264
    ]
   },
   "properties": {
    "name": "LOT 545 LAKE ROAD LOCHIEL 5510",
    "locID": "LOC100071989562",
    "tech": "SATELLITE",
    "upgrade": "NULL_NA",
    "gnaf_pid": "GASA_425391971"
   }
  },
  {
   "type": "Feature",
   "geometry": {
    "type": "Point",
    "coordinates": [
     138.12084588,
     -33.89872589
    ]
   },
   "properties": {
    "name": "LOT 291E LANDSLIDE ROAD LOCHIEL 5510",
    "locID": "LOC000145154946",
    "tech": "WIRELESS",
    "upgrade": "NULL_NA",
    "gnaf_pid": "GASA_425392010"
   }
  },
  {
   "type": "Feature",
   "geometry": {
    "type": "Point",
    "coordinates": [
     138.12517764,
     -33.91889102
    ]
   },
   "properties": {
    "name": "LOT 4 LANDSLIDE ROAD LOCHIEL 5510",
    "locID": "LOC000147344338",
    "tech": "WIRELESS",
    "upgrade": "NULL_NA",
    "gnaf_pid": "GASA_425392011"
   }
  },
  {
   "type": "Feature",
   "geometry": {
    "type": "Point",
    "coordinates": [
     138.13093775,
     -33.90369199
    ]
   },
   "properties": {
    "name": "LOT 572 LANDSLIDE ROAD LOCHIEL 5510",
    "locID": "Eiw1NzIgTGFuZHNsaWRlIFJkLCBMb2NoaWVsIFNBIDU1MTAsIEF1c3RyYWxpYSIxEi8KFAoSCQenYuqFV7pqEWAMncEeHxQIELwEKhQKEgn3lyYyn1e6ahFF8jYMI4I2gQ",
    "tech": "WIRELESS",
    "upgrade": "UNKNOWN",
    "gnaf_pid": "GASA_425392012"
   }
  },
  {
   "type": "Feature",
   "geometry": {
    "type": "Point",
    "coordinates": [
     138.10283889,
     -33.94680006
    ]
   },
   "properties": {
    "name": "LOT 769 LINTON ROAD LOCHIEL 5510",
    "locID": "Eik3NjkgTGludG9uIFJkLCBMb2NoaWVsIFNBIDU1MTAsIEF1c3RyYWxpYSIxEi8KFAoSCUtgiU2QWLpqES-AD6covzoNEIEGKhQKEgl_HHxtFfa6ahHBv7kpUF6Zaw",
    "tech": "WIRELESS",
    "upgrade": "UNKNOWN",
    "gnaf_pid": "GASA_425392188"
   }
  },
  {
   "type": "Feature",
   "geometry": {
    "type": "Point",
    "coordinates": [
     138.15001429,
     -33.93426207
    ]
   },
   "properties": {
    "name": "LOT 211 NINNES ROAD LOCHIEL 5510",
    "locID": "LOC000147666743",
    "tech": "WIRELESS",
    "upgrade": "NULL_NA",
    "gnaf_pid": "GASA_425393133"
   }
  },
  {
   "type": "Feature",
   "geometry": {
    "type": "Point",
    "coordinates": [
     138.12670194,
     -33.94517073
    ]
   },
   "properties": {
    "name": "LOT 29 NINNES ROAD LOCHIEL 5510",
    "locID": "LOC000147666743",
    "tech": "WIRELESS",
    "upgrade": "NULL_NA",
    "gnaf_pid": "GASA_425393134"
   }
  },
  {
   "type": "Feature",
   "geometry": {
    "type": "Point",
    "coordinates": [
     138.14496298,
     -33.92975168
    ]
   },
   "properties": {
    "name": "LOT 65 NINNES ROAD LOCHIEL 5510",
    "locID": "LOC000147666743",
    "tech": "WIRELESS",
    "upgrade": "NULL_NA",
    "gnaf_pid": "GASA_425393135"
   }
  },
  {
   "type": "Feature",
   "geometry": {
    "type": "Point",
    "coordinates": [
     138.13401411,
     -33.94079503
    ]
   },
   "properties": {
    "name": "LOT 92 NINNES ROAD LOCHIEL 5510",
    "locID": "LOC000147666743",
    "tech": "WIRELESS",
    "upgrade": "NULL_NA",
    "gnaf_pid": "GASA_425393136"
   }
  },
  {
   "type": "Feature",
   "geometry": {
    "type": "Point",
    "coordinates": [
     138.20383758,
     -33.96823859
    ]
   },
   "properties": {
    "name": "LOT 21 PIT ROAD LOCHIEL 5510",
    "locID": "EiVQaXQgUmQsIE5hbnRhd2FycmEgU0EgNTU1MCwgQXVzdHJhbGlhIi4qLAoUChIJlfB60oBaumoReNQFDeAddEcSFAoSCXcGYiTsSLpqEcD0jmJUNgME",
    "tech": "SATELLITE",
    "upgrade": "UNKNOWN",
    "gnaf_pid": "GASA_425393839"
   }
  },
  {
   "type": "Feature",
   "geometry": {
    "type": "Point",
    "coordinates": [
     138.15222722,
     -33.9468712
    ]
   },
   "properties": {
    "name": "LOT 191 SOUTH HUMMOCKS ROAD LOCHIEL 5510",
    "locID": "Ei0xOTEgUyBIdW1tb2NrcyBSZCwgTG9jaGllbCBTQSA1NTEwLCBBdXN0cmFsaWEiMRIvChQKEgmvTHyljVm6ahHcruep0982AhC_ASoUChIJy55UvhRZumoRQ6K5EbgCfWk",
    "tech": "SATELLITE",
    "upgrade": "UNKNOWN",
    "gnaf_pid": "GASA_425394699"
   }
  },
  {
   "type": "Feature",
   "geometry": {
    "type": "Point",
    "coordinates": [
     138.14328711,
     -33.96624049
    ]
   },
   "properties": {
    "name": "LOT 586 SOUTH HUMMOCKS ROAD LOCHIEL 5510",
    "locID": "LOC000148250692",
    "tech": "SATELLITE",
    "upgrade": "NULL_NA",
    "gnaf_pid": "GASA_425394700"
   }
  },
  {
   "type": "Feature",
   "geometry": {
    "type": "Point",
    "coordinates": [
     138.12936508,
     -33.97033052
    ]
   },
   "properties": {
    "name": "LOT 664 SOUTH HUMMOCKS ROAD LOCHIEL 5510",
    "locID": "LOC000148250692",
    "tech": "SATELLITE",
    "upgrade": "NULL_NA",
    "gnaf_pid": "GASA_425394701"
   }
  },
  {
   "type": "Feature",
   "geometry": {
    "type": "Point",
    "coordinates": [
     138.15500264,
     -33.93874906
    ]
   },
   "properties": {
    "name": "LOT 206 TIKANA ROAD LOCHIEL 5510",
    "locID": "EikyMDYgVGlrYW5hIFJkLCBMb2NoaWVsIFNBIDU1MTAsIEF1c3RyYWxpYSIxEi8KFAoSCX_GC_OVWbpqEdxLoqotOMg3EM4BKhQKEglHfvjQklm6ahEcIVaRMAUcgg",
    "tech": "SATELLITE",
    "upgrade": "UNKNOWN",
    "gnaf_pid": "GASA_425395380"
   }
  },
  {
   "type": "Feature",
   "geometry": {
    "type": "Point",
    "coordinates": [
     138.15063699,
     -33.94313725
    ]
   },
   "properties": {
    "name": "LOT 209 WALLACE ROAD LOCHIEL 5510",
    "locID": "LOC000148396567",
    "tech": "SATELLITE",
    "upgrade": "NULL_NA",
    "gnaf_pid": "GASA_425395511"
   }
  },
  {
   "type": "Feature",
   "geometry": {
    "type": "Point",
    "coordinates": [
     138.16044334,
     -33.92913256
    ]
   },
   "properties": {
    "name": "3 BARR STREET LOCHIEL 5510",
    "locID": "ChIJL0EFMgBaumoR1tZfpMwa-1U",
    "tech": "SATELLITE",
    "upgrade": "UNKNOWN",
    "gnaf_pid": "GASA_425500260"
   }
  },
  {
   "type": "Feature",
   "geometry": {
    "type": "Point",
    "coordinates": [
     138.16072284,
     -33.92965877
    ]
   },
   "properties": {
    "name": "4 BARR STREET LOCHIEL 5510",
    "locID": "ChIJS4yAywFaumoRzhcZ7CpGQg8",
    "tech": "SATELLITE",
    "upgrade": "UNKNOWN",
    "gnaf_pid": "GASA_425500261"
   }
  },
  {
   "type": "Feature",
   "geometry": {
    "type": "Point",
    "coordinates": [
     138.15953439,
     -33.92927718
    ]
   },
   "properties": {
    "name": "5 BARR STREET LOCHIEL 5510",
    "locID": "LOC000150232664",
    "tech": "SATELLITE",
    "upgrade": "NULL_NA",
    "gnaf_pid": "GASA_425500262"
   }
  },
  {
   "type": "Feature",
   "geometry": {
    "type": "Point",
    "coordinates": [
     138.15782466,
     -33.9281272
    ]
   },
   "properties": {
    "name": "11 CAMERON STREET LOCHIEL 5510",
    "locID": "LOC000150232672",
    "tech": "SATELLITE",
    "upgrade": "NULL_NA",
    "gnaf_pid": "GASA_425500613"
   }
  },
  {
   "type": "Feature",
   "geometry": {
    "type": "Point",
    "coordinates": [
     138.15884298,
     -33.92812825
    ]
   },
   "properties": {
    "name": "12 CAMERON STREET LOCHIEL 5510",
    "locID": "ChIJV5BTl_9ZumoRuYMzaVGjDqY",
    "tech": "SATELLITE",
    "upgrade": "UNKNOWN",
    "gnaf_pid": "GASA_425500614"
   }
  },
  {
   "type": "Feature",
   "geometry": {
    "type": "Point",
    "coordinates": [
     138.15782556,
     -33.92841683
    ]
   },
   "properties": {
    "name": "13 CAMERON STREET LOCHIEL 5510",
    "locID": "LOC000150232686",
    "tech": "SATELLITE",
    "upgrade": "NULL_NA",
    "gnaf_pid": "GASA_425500615"
   }
  },
  {
   "type": "Feature",
   "geometry": {
    "type": "Point",
    "coordinates": [
     138.15884363,
     -33.92841637
    ]
   },
   "properties": {
    "name": "14 CAMERON STREET LOCHIEL 5510",
    "locID": "ChIJz49Wmf9ZumoRVzDoYLt2eJs",
    "tech": "SATELLITE",
    "upgrade": "UNKNOWN",
    "gnaf_pid": "GASA_425500616"
   }
  },
  {
   "type": "Feature",
   "geometry": {
    "type": "Point",
    "coordinates": [
     138.15884445,
     -33.92870568
    ]
   },
   "properties": {
    "name": "16 CAMERON STREET LOCHIEL 5510",
    "locID": "ChIJ6_YBnv9ZumoRx8q5qImK9io",
    "tech": "SATELLITE",
    "upgrade": "UNKNOWN",
    "gnaf_pid": "GASA_425500617"
   }
  },
  {
   "type": "Feature",
   "geometry": {
    "type": "Point",
    "coordinates": [
     138.15782596,
     -33.9289937
    ]
   },
   "properties": {
    "name": "17 CAMERON STREET LOCHIEL 5510",
    "locID": "LOC000150232693",
    "tech": "SATELLITE",
    "upgrade": "NULL_NA",
    "gnaf_pid": "GASA_425500618"
   }
  },
  {
   "type": "Feature",
   "geometry": {
    "type": "Point",
    "coordinates": [
     138.15884477,
     -33.9289933
    ]
   },
   "properties": {
    "name": "18 CAMERON STREET LOCHIEL 5510",
    "locID": "ChIJGdIDdP9ZumoR5CdHH2dmbjI",
    "tech": "SATELLITE",
    "upgrade": "UNKNOWN",
    "gnaf_pid": "GASA_425500619"
   }
  },
  {
   "type": "Feature",
   "geometry": {
    "type": "Point",
    "coordinates": [
     138.1578264,
     -33.92927886
    ]
   },
   "properties": {
    "name": "19 CAMERON STREET LOCHIEL 5510",
    "locID": "ChIJd7WwGf9ZumoRTEYKAD4jrGQ",
    "tech": "SATELLITE",
    "upgrade": "UNKNOWN",
    "gnaf_pid": "GASA_425500620"
   }
  },
  {
   "type": "Feature",
   "geometry": {
    "type": "Point",
    "coordinates": [
     138.15884573,
     -33.93202985
    ]
   },
   "properties": {
    "name": "36 CAMERON STREET LOCHIEL 5510",
    "locID": "ChIJz_eAvvhZumoRxFutx3lYD-E",
    "tech": "SATELLITE",
    "upgrade": "UNKNOWN",
    "gnaf_pid": "GASA_425500621"
   }
  },
  {
   "type": "Feature",
   "geometry": {
    "type": "Point",
    "coordinates": [
     138.15782506,
     -33.92784097
    ]
   },
   "properties": {
    "name": "9 CAMERON STREET LOCHIEL 5510",
    "locID": "LOC000150232722",
    "tech": "SATELLITE",
    "upgrade": "NULL_NA",
    "gnaf_pid": "GASA_425500622"
   }
  },
  {
   "type": "Feature",
   "geometry": {
    "type": "Point",
    "coordinates": [
     138.1558787,
     -33.93246407
    ]
   },
   "properties": {
    "name": "18-20 ELDER TERRACE LOCHIEL 5510",
    "locID": "LOC100071989734",
    "tech": "SATELLITE",
    "upgrade": "NULL_NA",
    "gnaf_pid": "GASA_425501384"
   }
  },
  {
   "type": "Feature",
   "geometry": {
    "type": "Point",
    "coordinates": [
     138.15953357,
     -33.92870445
    ]
   },
   "properties": {
    "name": "11 ELLIS STREET LOCHIEL 5510",
    "locID": "ChIJmVaxhv9ZumoRMQmqhNXCufk",
    "tech": "SATELLITE",
    "upgrade": "UNKNOWN",
    "gnaf_pid": "GASA_425501394"
   }
  },
  {
   "type": "Feature",
   "geometry": {
    "type": "Point",
    "coordinates": [
     138.16044245,
     -33.92870272
    ]
   },
   "properties": {
    "name": "12 ELLIS STREET LOCHIEL 5510",
    "locID": "ChIJjxjQOgBaumoR06Z6m83hKFM",
    "tech": "SATELLITE",
    "upgrade": "UNKNOWN",
    "gnaf_pid": "GASA_425501395"
   }
  },
  {
   "type": "Feature",
   "geometry": {
    "type": "Point",
    "coordinates": [
     138.15953388,
     -33.92899253
    ]
   },
   "properties": {
    "name": "13 ELLIS STREET LOCHIEL 5510",
    "locID": "ChIJJQHkgf9ZumoRsHZTkytuMS8",
    "tech": "SATELLITE",
    "upgrade": "UNKNOWN",
    "gnaf_pid": "GASA_425501396"
   }
  },
  {
   "type": "Feature",
   "geometry": {
    "type": "Point",
    "coordinates": [
     138.15953487,
     -33.93017647
    ]
   },
   "properties": {
    "name": "17-23 ELLIS STREET LOCHIEL 5510",
    "locID": "ChIJASAcXv9ZumoRalk1TbRqFz4",
    "tech": "SATELLITE",
    "upgrade": "UNKNOWN",
    "gnaf_pid": "GASA_425501397"
   }
  },
  {
   "type": "Feature",
   "geometry": {
    "type": "Point",
    "coordinates": [
     138.16042217,
     -33.92975299
    ]
   },
   "properties": {
    "name": "18 ELLIS STREET LOCHIEL 5510",
    "locID": "ChIJMT4hzgFaumoR1TjD68w5p5Q",
    "tech": "SATELLITE",
    "upgrade": "UNKNOWN",
    "gnaf_pid": "GASA_425501398"
   }
  },
  {
   "type": "Feature",
   "geometry": {
    "type": "Point",
    "coordinates": [
     138.16044446,
     -33.93003262
    ]
   },
   "properties": {
    "name": "20 ELLIS STREET LOCHIEL 5510",
    "locID": "ChIJZxJIxQFaumoRBXB3LbtG3fQ",
    "tech": "SATELLITE",
    "upgrade": "UNKNOWN",
    "gnaf_pid": "GASA_425501399"
   }
  },
  {
   "type": "Feature",
   "geometry": {
    "type": "Point",
    "coordinates": [
     138.16044514,
     -33.93032135
    ]
   },
   "properties": {
    "name": "22 ELLIS STREET LOCHIEL 5510",
    "locID": "LOC000150232746",
    "tech": "SATELLITE",
    "upgrade": "NULL_NA",
    "gnaf_pid": "GASA_425501400"
   }
  },
  {
   "type": "Feature",
   "geometry": {
    "type": "Point",
    "coordinates": [
     138.1604451,
     -33.93060673
    ]
   },
   "properties": {
    "name": "24 ELLIS STREET LOCHIEL 5510",
    "locID": "LOC000150232751",
    "tech": "SATELLITE",
    "upgrade": "NULL_NA",
    "gnaf_pid": "GASA_425501401"
   }
  },
  {
   "type": "Feature",
   "geometry": {
    "type": "Point",
    "coordinates": [
     138.15970768,
     -33.93088225
    ]
   },
   "properties": {
    "name": "25 ELLIS STREET LOCHIEL 5510",
    "locID": "ChIJ0VeVV_9ZumoR8RIhpvedhiQ",
    "tech": "SATELLITE",
    "upgrade": "UNKNOWN",
    "gnaf_pid": "GASA_425501402"
   }
  },
  {
   "type": "Feature",
   "geometry": {
    "type": "Point",
    "coordinates": [
     138.16044666,
     -33.93089363
    ]
   },
   "properties": {
    "name": "26 ELLIS STREET LOCHIEL 5510",
    "locID": "LOC000150232767",
    "tech": "SATELLITE",
    "upgrade": "NULL_NA",
    "gnaf_pid": "GASA_425501403"
   }
  },
  {
   "type": "Feature",
   "geometry": {
    "type": "Point",
    "coordinates": [
     138.15970846,
     -33.93117175
    ]
   },
   "properties": {
    "name": "27 ELLIS STREET LOCHIEL 5510",
    "locID": "ChIJA_y_Vf9ZumoRSWadbnfIkYA",
    "tech": "SATELLITE",
    "upgrade": "UNKNOWN",
    "gnaf_pid": "GASA_425501404"
   }
  },
  {
   "type": "Feature",
   "geometry": {
    "type": "Point",
    "coordinates": [
     138.16044725,
     -33.93118279
    ]
   },
   "properties": {
    "name": "28 ELLIS STREET LOCHIEL 5510",
    "locID": "LOC000150232780",
    "tech": "SATELLITE",
    "upgrade": "NULL_NA",
    "gnaf_pid": "GASA_425501405"
   }
  },
  {
   "type": "Feature",
   "geometry": {
    "type": "Point",
    "coordinates": [
     138.15953548,
     -33.93246194
    ]
   },
   "properties": {
    "name": "31 ELLIS STREET LOCHIEL 5510",
    "locID": "ChIJ3W9xjjdZumoRiOy0EucpFDA",
    "tech": "SATELLITE",
    "upgrade": "UNKNOWN",
    "gnaf_pid": "GASA_425501406"
   }
  },
  {
   "type": "Feature",
   "geometry": {
    "type": "Point",
    "coordinates": [
     138.15952902,
     -33.92670626
    ]
   },
   "properties": {
    "name": "3 ELLIS STREET LOCHIEL 5510",
    "locID": "LOC000186929449",
    "tech": "SATELLITE",
    "upgrade": "NULL_NA",
    "gnaf_pid": "GASA_425501407"
   }
  },
  {
   "type": "Feature",
   "geometry": {
    "type": "Point",
    "coordinates": [
     138.16113152,
     -33.92812532
    ]
   },
   "properties": {
    "name": "11-13 FRANCES TERRACE LOCHIEL 5510",
    "locID": "LOC000150232808",
    "tech": "SATELLITE",
    "upgrade": "NULL_NA",
    "gnaf_pid": "GASA_425501506"
   }
  },
  {
   "type": "Feature",
   "geometry": {
    "type": "Point",
    "coordinates": [
     138.1611335,
     -33.92870199
    ]
   },
   "properties": {
    "name": "15 FRANCES TERRACE LOCHIEL 5510",
    "locID": "ChIJOR3sQABaumoRZMg4g5bNs3g",
    "tech": "SATELLITE",
    "upgrade": "UNKNOWN",
    "gnaf_pid": "GASA_425501507"
   }
  },
  {
   "type": "Feature",
   "geometry": {
    "type": "Point",
    "coordinates": [
     138.16113397,
     -33.92899057
    ]
   },
   "properties": {
    "name": "17-19 FRANCES TERRACE LOCHIEL 5510",
    "locID": "ChIJkdKkRwBaumoRL3Try54BZXM",
    "tech": "SATELLITE",
    "upgrade": "UNKNOWN",
    "gnaf_pid": "GASA_425501508"
   }
  },
  {
   "type": "Feature",
   "geometry": {
    "type": "Point",
    "coordinates": [
     138.16112798,
     -33.92655963
    ]
   },
   "properties": {
    "name": "1-3 FRANCES TERRACE LOCHIEL 5510",
    "locID": "LOC000150232812",
    "tech": "SATELLITE",
    "upgrade": "NULL_NA",
    "gnaf_pid": "GASA_425501509"
   }
  },
  {
   "type": "Feature",
   "geometry": {
    "type": "Point",
    "coordinates": [
     138.1611352,
     -33.92989053
    ]
   },
   "properties": {
    "name": "21-23 FRANCES TERRACE LOCHIEL 5510",
    "locID": "ChIJd4G4tQFaumoRok1pq488_Hc",
    "tech": "SATELLITE",
    "upgrade": "UNKNOWN",
    "gnaf_pid": "GASA_425501510"
   }
  },
  {
   "type": "Feature",
   "geometry": {
    "type": "Point",
    "coordinates": [
     138.16113559,
     -33.9303221
    ]
   },
   "properties": {
    "name": "25 FRANCES TERRACE LOCHIEL 5510",
    "locID": "ChIJJ4E4uAFaumoRkSPc0XiUIPQ",
    "tech": "SATELLITE",
    "upgrade": "UNKNOWN",
    "gnaf_pid": "GASA_425501511"
   }
  },
  {
   "type": "Feature",
   "geometry": {
    "type": "Point",
    "coordinates": [
     138.16113513,
     -33.93060613
    ]
   },
   "properties": {
    "name": "27 FRANCES TERRACE LOCHIEL 5510",
    "locID": "LOC100078089791",
    "tech": "SATELLITE",
    "upgrade": "NULL_NA",
    "gnaf_pid": "GASA_425501512"
   }
  },
  {
   "type": "Feature",
   "geometry": {
    "type": "Point",
    "coordinates": [
     138.1611363,
     -33.93089202
    ]
   },
   "properties": {
    "name": "29 FRANCES TERRACE LOCHIEL 5510",
    "locID": "ChIJmQJtlQFaumoR7x8eIclbNnc",
    "tech": "SATELLITE",
    "upgrade": "UNKNOWN",
    "gnaf_pid": "GASA_425501513"
   }
  },
  {
   "type": "Feature",
   "geometry": {
    "type": "Point",
    "coordinates": [
     138.16113653,
     -33.93118207
    ]
   },
   "properties": {
    "name": "31 FRANCES TERRACE LOCHIEL 5510",
    "locID": "LOC000150232831",
    "tech": "SATELLITE",
    "upgrade": "NULL_NA",
    "gnaf_pid": "GASA_425501514"
   }
  },
  {
   "type": "Feature",
   "geometry": {
    "type": "Point",
    "coordinates": [
     138.16112962,
     -33.92713735
    ]
   },
   "properties": {
    "name": "5-7 FRANCES TERRACE LOCHIEL 5510",
    "locID": "LOC100078089791",
    "tech": "SATELLITE",
    "upgrade": "NULL_NA",
    "gnaf_pid": "GASA_425501515"
   }
  },
  {
   "type": "Feature",
   "geometry": {
    "type": "Point",
    "coordinates": [
     138.16113104,
     -33.92784088
    ]
   },
   "properties": {
    "name": "9 FRANCES TERRACE LOCHIEL 5510",
    "locID": "LOC000150232849",
    "tech": "SATELLITE",
    "upgrade": "NULL_NA",
    "gnaf_pid": "GASA_425501516"
   }
  },
  {
   "type": "Feature",
   "geometry": {
    "type": "Point",
    "coordinates": [
     138.15587836,
     -33.92989088
    ]
   },
   "properties": {
    "name": "16-18 HUGH TERRACE LOCHIEL 5510",
    "locID": "EihIdWdoIFRlcnJhY2UsIExvY2hpZWwgU0EgNTUxMCwgQXVzdHJhbGlhIi4qLAoUChIJMZLhq_5ZumoRAa6XWD54SrESFAoSCeOMDc_-WbpqEYD0jmJUNgME",
    "tech": "SATELLITE",
    "upgrade": "UNKNOWN",
    "gnaf_pid": "GASA_425502046"
   }
  },
  {
   "type": "Feature",
   "geometry": {
    "type": "Point",
    "coordinates": [
     138.15713411,
     -33.92927857
    ]
   },
   "properties": {
    "name": "14 JOHN STREET LOCHIEL 5510",
    "locID": "LOC000159264092",
    "tech": "SATELLITE",
    "upgrade": "NULL_NA",
    "gnaf_pid": "GASA_425502121"
   }
  },
  {
   "type": "Feature",
   "geometry": {
    "type": "Point",
    "coordinates": [
     138.15935966,
     -33.92798438
    ]
   },
   "properties": {
    "name": "10 ROBERT STREET LOCHIEL 5510",
    "locID": "LOC000150232865",
    "tech": "SATELLITE",
    "upgrade": "NULL_NA",
    "gnaf_pid": "GASA_425503635"
   }
  },
  {
   "type": "Feature",
   "geometry": {
    "type": "Point",
    "coordinates": [
     138.15884227,
     -33.92784233
    ]
   },
   "properties": {
    "name": "12 ROBERT STREET LOCHIEL 5510",
    "locID": "LOC000150232877",
    "tech": "SATELLITE",
    "upgrade": "NULL_NA",
    "gnaf_pid": "GASA_425503636"
   }
  },
  {
   "type": "Feature",
   "geometry": {
    "type": "Point",
    "coordinates": [
     138.15730911,
     -33.92798559
    ]
   },
   "properties": {
    "name": "16 ROBERT STREET LOCHIEL 5510",
    "locID": "ChIJexPNqv9ZumoR7Cpz7Y8ffkY",
    "tech": "SATELLITE",
    "upgrade": "UNKNOWN",
    "gnaf_pid": "GASA_425503637"
   }
  },
  {
   "type": "Feature",
   "geometry": {
    "type": "Point",
    "coordinates": [
     138.15696119,
     -33.92798634
    ]
   },
   "properties": {
    "name": "18 ROBERT STREET LOCHIEL 5510",
    "locID": "ChIJE0-w-P5ZumoRYhjsWefuWjY",
    "tech": "SATELLITE",
    "upgrade": "UNKNOWN",
    "gnaf_pid": "GASA_425503638"
   }
  },
  {
   "type": "Feature",
   "geometry": {
    "type": "Point",
    "coordinates": [
     138.15587392,
     -33.92685082
    ]
   },
   "properties": {
    "name": "19-25 ROBERT STREET LOCHIEL 5510",
    "locID": "ChIJgxeNaP5ZumoRFSVEb0fjz98",
    "tech": "SATELLITE",
    "upgrade": "UNKNOWN",
    "gnaf_pid": "GASA_425503639"
   }
  },
  {
   "type": "Feature",
   "geometry": {
    "type": "Point",
    "coordinates": [
     138.16043843,
     -33.92713796
    ]
   },
   "properties": {
    "name": "3-5 ROBERT STREET LOCHIEL 5510",
    "locID": "ChIJzdUNCABaumoR_tJUwrJSeLM",
    "tech": "SATELLITE",
    "upgrade": "UNKNOWN",
    "gnaf_pid": "GASA_425503640"
   }
  },
  {
   "type": "Feature",
   "geometry": {
    "type": "Point",
    "coordinates": [
     138.16044047,
     -33.92798325
    ]
   },
   "properties": {
    "name": "4-6 ROBERT STREET LOCHIEL 5510",
    "locID": "ChIJAXdQFwBaumoRNltSWt0bezg",
    "tech": "SATELLITE",
    "upgrade": "UNKNOWN",
    "gnaf_pid": "GASA_425503641"
   }
  },
  {
   "type": "Feature",
   "geometry": {
    "type": "Point",
    "coordinates": [
     138.15970444,
     -33.92812853
    ]
   },
   "properties": {
    "name": "8 ROBERT STREET LOCHIEL 5510",
    "locID": "LOC000150232923",
    "tech": "SATELLITE",
    "upgrade": "NULL_NA",
    "gnaf_pid": "GASA_425503642"
   }
  },
  {
   "type": "Feature",
   "geometry": {
    "type": "Point",
    "coordinates": [
     138.15747441,
     -33.92684901
    ]
   },
   "properties": {
    "name": "LOT 85 ROBERT STREET LOCHIEL 5510",
    "locID": "Eig4NSBSb2JlcnQgU3QsIExvY2hpZWwgU0EgNTUxMCwgQXVzdHJhbGlhIjASLgoUChIJwTxysv9ZumoRwDWJSVQ2AxMQVSoUChIJ1aDsvv9ZumoR9JkhAL8ijVE",
    "tech": "SATELLITE",
    "upgrade": "UNKNOWN",
    "gnaf_pid": "GASA_425503643"
   }
  },
  {
   "type": "Feature",
   "geometry": {
    "type": "Point",
    "coordinates": [
     138.15884671,
     -33.93174332
    ]
   },
   "properties": {
    "name": "10-12 SMITH STREET LOCHIEL 5510",
    "locID": "ChIJl0uAufhZumoRh4k-DL3cVYc",
    "tech": "SATELLITE",
    "upgrade": "UNKNOWN",
    "gnaf_pid": "GASA_425503933"
   }
  },
  {
   "type": "Feature",
   "geometry": {
    "type": "Point",
    "coordinates": [
     138.15622245,
     -33.93188904
    ]
   },
   "properties": {
    "name": "20-22 SMITH STREET LOCHIEL 5510",
    "locID": "LOC000150232947",
    "tech": "SATELLITE",
    "upgrade": "NULL_NA",
    "gnaf_pid": "GASA_425503934"
   }
  },
  {
   "type": "Feature",
   "geometry": {
    "type": "Point",
    "coordinates": [
     138.15553228,
     -33.93188917
    ]
   },
   "properties": {
    "name": "24-26 SMITH STREET LOCHIEL 5510",
    "locID": "ChIJtb_Ad_lZumoRBr8Zsk4RDeo",
    "tech": "SATELLITE",
    "upgrade": "UNKNOWN",
    "gnaf_pid": "GASA_425503935"
   }
  },
  {
   "type": "Feature",
   "geometry": {
    "type": "Point",
    "coordinates": [
     138.15970889,
     -33.93188421
    ]
   },
   "properties": {
    "name": "8 SMITH STREET LOCHIEL 5510",
    "locID": "ChIJSQRrqPhZumoRxNVEMVfrdI0",
    "tech": "SATELLITE",
    "upgrade": "UNKNOWN",
    "gnaf_pid": "GASA_425503936"
   }
  },
  {
   "type": "Feature",
   "geometry": {
    "type": "Point",
    "coordinates": [
     138.20020914,
     -33.95816844
    ]
   },
   "properties": {
    "name": "LOT 267 PIT ROAD LOCHIEL 5510",
    "locID": "EiJQaXQgUmQsIExvY2hpZWwgU0EgNTUxMCwgQXVzdHJhbGlhIi4qLAoUChIJlfB60oBaumoReNQFDeAddEcSFAoSCeOMDc_-WbpqEYD0jmJUNgME",
    "tech": "SATELLITE",
    "upgrade": "UNKNOWN",
    "gnaf_pid": "GASA_425713553"
   }
  },
  {
   "type": "Feature",
   "geometry": {
    "type": "Point",
    "coordinates": [
     138.08912433,
     -33.97895152
    ]
   },
   "properties": {
    "name": "LOT 512 PUMP STATION ROAD LOCHIEL 5510",
    "locID": "EipQdW1wIFN0YXRpb24gUmQsIE5pbm5lcyBTQSA1NTYwLCBBdXN0cmFsaWEiLiosChQKEgkPP73Ig1-6ahHrNkbcJwKFkRIUChIJT8wQDD30umoRsBWPYlQ2AwQ",
    "tech": "SATELLITE",
    "upgrade": "UNKNOWN",
    "gnaf_pid": "GASA_425713654"
   }
  },
  {
   "type": "Feature",
   "geometry": {
    "type": "Point",
    "coordinates": [
     138.1673729,
     -33.865731
    ]
   },
   "properties": {
    "name": "161 MARO CREEK LANE LOCHIEL 5510",
    "locID": "ChIJociD1E9RumoRuEOirCSwZJU",
    "tech": "SATELLITE",
    "upgrade": "UNKNOWN",
    "gnaf_pid": "GASA_425726224"
   }
  },
  {
   "type": "Feature",
   "geometry": {
    "type": "Point",
    "coordinates": [
     138.15299169,
     -33.87256226
    ]
   },
   "properties": {
    "name": "300 MARO CREEK LANE LOCHIEL 5510",
    "locID": "LOC100079388589",
    "tech": "SATELLITE",
    "upgrade": "NULL_NA",
    "gnaf_pid": "GASA_425726225"
   }
  },
  {
   "type": "Feature",
   "geometry": {
    "type": "Point",
    "coordinates": [
     138.13577747,
     -33.85864716
    ]
   },
   "properties": {
    "name": "3565 AUGUSTA HIGHWAY LOCHIEL 5510",
    "locID": "ChIJKbtkgkFRumoR0ICtu-95lqA",
    "tech": "SATELLITE",
    "upgrade": "UNKNOWN",
    "gnaf_pid": "GASA_720188849"
   }
  },
  {
   "type": "Feature",
   "geometry": {
    "type": "Point",
    "coordinates": [
     138.16078802,
     -33.92841245
    ]
   },
   "properties": {
    "name": "13 FRANCES TERRACE LOCHIEL 5510",
    "locID": "LOC000150232808",
    "tech": "SATELLITE",
    "upgrade": "NULL_NA",
    "gnaf_pid": "GASA_720300833"
   }
  },
  {
   "type": "Feature",
   "geometry": {
    "type": "Point",
    "coordinates": [
     138.15936622,
     -33.9318853
    ]
   },
   "properties": {
    "name": "LOT 36 SMITH STREET LOCHIEL 5510",
    "locID": "ChIJZymjpfhZumoRGjYEDLO1QEY",
    "tech": "SATELLITE",
    "upgrade": "UNKNOWN",
    "gnaf_pid": "GASA_720301609"
   }
  },
  {
   "type": "Feature",
   "geometry": {
    "type": "Point",
    "coordinates": [
     138.16113152,
     -33.92812532
    ]
   },
   "properties": {
    "name": "11 FRANCES TERRACE LOCHIEL 5510",
    "locID": "LOC000150232808",
    "tech": "SATELLITE",
    "upgrade": "NULL_NA",
    "gnaf_pid": "GASA_720302082"
   }
  },
  {
   "type": "Feature",
   "geometry": {
    "type": "Point",
    "coordinates": [
     138.15748283,
     -33.93203175
    ]
   },
   "properties": {
    "name": "14-18 SMITH STREET LOCHIEL 5510",
    "locID": "ChIJ6Tip4_hZumoRmXiUUqDHzL0",
    "tech": "SATELLITE",
    "upgrade": "UNKNOWN",
    "gnaf_pid": "GASA_720303502"
   }
  },
  {
   "type": "Feature",
   "geometry": {
    "type": "Point",
    "coordinates": [
     138.16607306,
     -33.94433902
    ]
   },
   "properties": {
    "name": "LOT 92 AUGUSTA HIGHWAY LOCHIEL 5510",
    "locID": "Eio5MiBBdWd1c3RhIEh3eSwgTG9jaGllbCBTQSA1NTEwLCBBdXN0cmFsaWEiMBIuChQKEgnr3FCXAVq6ahHynA90a0gpOhBcKhQKEgkRuytvs126ahHrSdg7P_I2-Q",
    "tech": "SATELLITE",
    "upgrade": "UNKNOWN",
    "gnaf_pid": "GASA_720847193"
   }
  },
  {
   "type": "Feature",
   "geometry": {
    "type": "Point",
    "coordinates": [
     138.17182703,
     -33.94900621
    ]
   },
   "properties": {
    "name": "LOT 89 AUGUSTA HIGHWAY LOCHIEL 5510",
    "locID": "Eio4OSBBdWd1c3RhIEh3eSwgTG9jaGllbCBTQSA1NTEwLCBBdXN0cmFsaWEiMBIuChQKEgnr3FCXAVq6ahHynA90a0gpOhBZKhQKEgkRuytvs126ahHrSdg7P_I2-Q",
    "tech": "SATELLITE",
    "upgrade": "UNKNOWN",
    "gnaf_pid": "GASA_720848168"
   }
  },
  {
   "type": "Feature",
   "geometry": {
    "type": "Point",
    "coordinates": [
     138.16802869,
     -33.94311237
    ]
   },
   "properties": {
    "name": "LOT 91 MOULDS ROAD LOCHIEL 5510",
    "locID": "Eig5MSBNb3VsZHMgUmQsIExvY2hpZWwgU0EgNTUxMCwgQXVzdHJhbGlhIjASLgoUChIJezCPtQ9aumoRZmxevZkVMrUQWyoUChIJ73QKh3RaumoR8BTrB97PHFw",
    "tech": "SATELLITE",
    "upgrade": "UNKNOWN",
    "gnaf_pid": "GASA_720848171"
   }
  },
  {
   "type": "Feature",
   "geometry": {
    "type": "Point",
    "coordinates": [
     138.16717727,
     -33.94822031
    ]
   },
   "properties": {
    "name": "LOT 90 AUGUSTA HIGHWAY LOCHIEL 5510",
    "locID": "Eio5MCBBdWd1c3RhIEh3eSwgTG9jaGllbCBTQSA1NTEwLCBBdXN0cmFsaWEiMBIuChQKEgnr3FCXAVq6ahHynA90a0gpOhBaKhQKEgkRuytvs126ahHrSdg7P_I2-Q",
    "tech": "SATELLITE",
    "upgrade": "UNKNOWN",
    "gnaf_pid": "GASA_720848600"
   }
  },
  {
   "type": "Feature",
   "geometry": {
    "type": "Point",
    "coordinates": [
     138.18335266,
     -33.96065393
    ]
   },
   "properties": {
    "name": "LOT 79 AUGUSTA HIGHWAY LOCHIEL 5510",
    "locID": "Eio3OSBBdWd1c3RhIEh3eSwgTG9jaGllbCBTQSA1NTEwLCBBdXN0cmFsaWEiMBIuChQKEgnr3FCXAVq6ahHynA90a0gpOhBPKhQKEgkRuytvs126ahHrSdg7P_I2-Q",
    "tech": "SATELLITE",
    "upgrade": "UNKNOWN",
    "gnaf_pid": "GASA_720849720"
   }
  },
  {
   "type": "Feature",
   "geometry": {
    "type": "Point",
    "coordinates": [
     138.18262026,
     -33.96367648
    ]
   },
   "properties": {
    "name": "LOT 83 AUGUSTA HIGHWAY LOCHIEL 5510",
    "locID": "Eio4MyBBdWd1c3RhIEh3eSwgTG9jaGllbCBTQSA1NTEwLCBBdXN0cmFsaWEiMBIuChQKEgnr3FCXAVq6ahHynA90a0gpOhBTKhQKEgkRuytvs126ahHrSdg7P_I2-Q",
    "tech": "SATELLITE",
    "upgrade": "UNKNOWN",
    "gnaf_pid": "GASA_720850137"
   }
  },
  {
   "type": "Feature",
   "geometry": {
    "type": "Point",
    "coordinates": [
     138.16596791,
     -33.94170521
    ]
   },
   "properties": {
    "name": "LOT 94 AUGUSTA HIGHWAY LOCHIEL 5510",
    "locID": "Eio5NCBBdWd1c3RhIEh3eSwgTG9jaGllbCBTQSA1NTEwLCBBdXN0cmFsaWEiMBIuChQKEgnr3FCXAVq6ahHynA90a0gpOhBeKhQKEgkRuytvs126ahHrSdg7P_I2-Q",
    "tech": "SATELLITE",
    "upgrade": "UNKNOWN",
    "gnaf_pid": "GASA_720887257"
   }
  },
  {
   "type": "Feature",
   "geometry": {
    "type": "Point",
    "coordinates": [
     138.1673729,
     -33.865731
    ]
   },
   "properties": {
    "name": "228 MARO CREEK LANE LOCHIEL 5510",
    "locID": "Ei0yMjggTWFybyBDcmVlayBMbiwgTG9jaGllbCBTQSA1NTEwLCBBdXN0cmFsaWEiMRIvChQKEgmhTZm2tVa6ahEE_2i-iElZAhDkASoUChIJmxEQ3k5RumoRlYuWM_BbCC0",
    "tech": "SATELLITE",
    "upgrade": "UNKNOWN",
    "gnaf_pid": "GASA_721008436"
   }
  },
  {
   "type": "Feature",
   "geometry": {
    "type": "Point",
    "coordinates": [
     138.15884608,
     -33.93246326
    ]
   },
   "properties": {
    "name": "LOT 67 ELDER TERRACE LOCHIEL 5510",
    "locID": "LOC100071989734",
    "tech": "SATELLITE",
    "upgrade": "NULL_NA",
    "gnaf_pid": "GASA_721072830"
   }
  }
 ]
}