{
 "type": "FeatureCollection",
 "generated": "2024-04-30T00:48:25.190914",
 "suburb": "MALINONG",
 "features": [
  {
   "type": "Feature",
   "geometry": {
    "type": "Point",
    "coordinates": [
     139.47989596,
     -35.52191411
    ]
   },
   "properties": {
    "name": "LOT 131 CROSBY ROAD MALINONG 5259",
    "locID": "LOC000130834880",
    "tech": "SATELLITE",
    "upgrade": "NULL_NA",
    "gnaf_pid": "GASA_424296657"
   }
  },
  {
   "type": "Feature",
   "geometry": {
    "type": "Point",
    "coordinates": [
     139.50646673,
     -35.49854901
    ]
   },
   "properties": {
    "name": "LOT 259 MALINONG ROAD MALINONG 5259",
    "locID": "LOC000114939964",
    "tech": "SATELLITE",
    "upgrade": "NULL_NA",
    "gnaf_pid": "GASA_424315953"
   }
  },
  {
   "type": "Feature",
   "geometry": {
    "type": "Point",
    "coordinates": [
     139.48643736,
     -35.52842053
    ]
   },
   "properties": {
    "name": "1210 CROSBY ROAD MALINONG 5259",
    "locID": "LOC000114147068",
    "tech": "SATELLITE",
    "upgrade": "NULL_NA",
    "gnaf_pid": "GASA_424698457"
   }
  },
  {
   "type": "Feature",
   "geometry": {
    "type": "Point",
    "coordinates": [
     139.43019333,
     -35.54711236
    ]
   },
   "properties": {
    "name": "785 CROSBY ROAD MALINONG 5259",
    "locID": "LOC100080738552",
    "tech": "SATELLITE",
    "upgrade": "NULL_NA",
    "gnaf_pid": "GASA_424698458"
   }
  },
  {
   "type": "Feature",
   "geometry": {
    "type": "Point",
    "coordinates": [
     139.50683443,
     -35.52003298
    ]
   },
   "properties": {
    "name": "1075 MALINONG ROAD MALINONG 5259",
    "locID": "LOC000110101477",
    "tech": "SATELLITE",
    "upgrade": "NULL_NA",
    "gnaf_pid": "GASA_424703343"
   }
  },
  {
   "type": "Feature",
   "geometry": {
    "type": "Point",
    "coordinates": [
     139.50673941,
     -35.53582901
    ]
   },
   "properties": {
    "name": "1250 MALINONG ROAD MALINONG 5259",
    "locID": "LOC000115067076",
    "tech": "SATELLITE",
    "upgrade": "NULL_NA",
    "gnaf_pid": "GASA_424703344"
   }
  },
  {
   "type": "Feature",
   "geometry": {
    "type": "Point",
    "coordinates": [
     139.50663109,
     -35.47872219
    ]
   },
   "properties": {
    "name": "618 MALINONG ROAD MALINONG 5259",
    "locID": "LOC000114939964",
    "tech": "SATELLITE",
    "upgrade": "NULL_NA",
    "gnaf_pid": "GASA_424703345"
   }
  },
  {
   "type": "Feature",
   "geometry": {
    "type": "Point",
    "coordinates": [
     139.50679317,
     -35.49806453
    ]
   },
   "properties": {
    "name": "831 MALINONG ROAD MALINONG 5259",
    "locID": "LOC000085851729",
    "tech": "SATELLITE",
    "upgrade": "NULL_NA",
    "gnaf_pid": "GASA_424703346"
   }
  },
  {
   "type": "Feature",
   "geometry": {
    "type": "Point",
    "coordinates": [
     139.50680412,
     -35.50113885
    ]
   },
   "properties": {
    "name": "865 MALINONG ROAD MALINONG 5259",
    "locID": "LOC000112931508",
    "tech": "SATELLITE",
    "upgrade": "NULL_NA",
    "gnaf_pid": "GASA_424703347"
   }
  },
  {
   "type": "Feature",
   "geometry": {
    "type": "Point",
    "coordinates": [
     139.50671601,
     -35.51234046
    ]
   },
   "properties": {
    "name": "990 MALINONG ROAD MALINONG 5259",
    "locID": "LOC000112939215",
    "tech": "SATELLITE",
    "upgrade": "NULL_NA",
    "gnaf_pid": "GASA_424703348"
   }
  },
  {
   "type": "Feature",
   "geometry": {
    "type": "Point",
    "coordinates": [
     139.4001322,
     -35.50152083
    ]
   },
   "properties": {
    "name": "336 MASONS LOOKOUT ROAD MALINONG 5259",
    "locID": "LOC000114514886",
    "tech": "SATELLITE",
    "upgrade": "NULL_NA",
    "gnaf_pid": "GASA_424703772"
   }
  },
  {
   "type": "Feature",
   "geometry": {
    "type": "Point",
    "coordinates": [
     139.48820219,
     -35.49386434
    ]
   },
   "properties": {
    "name": "1060 NINE MILE ROAD MALINONG 5259",
    "locID": "LOC000114858248",
    "tech": "SATELLITE",
    "upgrade": "NULL_NA",
    "gnaf_pid": "GASA_424705252"
   }
  },
  {
   "type": "Feature",
   "geometry": {
    "type": "Point",
    "coordinates": [
     139.48346113,
     -35.48935374
    ]
   },
   "properties": {
    "name": "995 NINE MILE ROAD MALINONG 5259",
    "locID": "LOC000112870073",
    "tech": "SATELLITE",
    "upgrade": "NULL_NA",
    "gnaf_pid": "GASA_424705253"
   }
  },
  {
   "type": "Feature",
   "geometry": {
    "type": "Point",
    "coordinates": [
     139.44029159,
     -35.46975154
    ]
   },
   "properties": {
    "name": "149 THOMAS ROAD MALINONG 5259",
    "locID": "LOC000114731090",
    "tech": "WIRELESS",
    "upgrade": "NULL_NA",
    "gnaf_pid": "GASA_424709601"
   }
  },
  {
   "type": "Feature",
   "geometry": {
    "type": "Point",
    "coordinates": [
     139.5883363,
     -35.51777276
    ]
   },
   "properties": {
    "name": "288 WERRIMBROOK ROAD MALINONG 5259",
    "locID": "LOC000115000394",
    "tech": "SATELLITE",
    "upgrade": "NULL_NA",
    "gnaf_pid": "GASA_424710389"
   }
  },
  {
   "type": "Feature",
   "geometry": {
    "type": "Point",
    "coordinates": [
     139.60413855,
     -35.49729502
    ]
   },
   "properties": {
    "name": "569 WERRIMBROOK ROAD MALINONG 5259",
    "locID": "LOC000113065933",
    "tech": "SATELLITE",
    "upgrade": "NULL_NA",
    "gnaf_pid": "GASA_424710391"
   }
  },
  {
   "type": "Feature",
   "geometry": {
    "type": "Point",
    "coordinates": [
     139.50683443,
     -35.52003298
    ]
   },
   "properties": {
    "name": "1075A MALINONG ROAD MALINONG 5259",
    "locID": "LOC000116260816",
    "tech": "SATELLITE",
    "upgrade": "NULL_NA",
    "gnaf_pid": "GASA_424823678"
   }
  },
  {
   "type": "Feature",
   "geometry": {
    "type": "Point",
    "coordinates": [
     139.50682645,
     -35.52014764
    ]
   },
   "properties": {
    "name": "1075B MALINONG ROAD MALINONG 5259",
    "locID": "LOC000116260828",
    "tech": "SATELLITE",
    "upgrade": "NULL_NA",
    "gnaf_pid": "GASA_424823679"
   }
  },
  {
   "type": "Feature",
   "geometry": {
    "type": "Point",
    "coordinates": [
     139.46177379,
     -35.54143261
    ]
   },
   "properties": {
    "name": "59 BAGSHAW ROAD MALINONG 5259",
    "locID": "LOC000130830319",
    "tech": "SATELLITE",
    "upgrade": "NULL_NA",
    "gnaf_pid": "GASA_425060785"
   }
  },
  {
   "type": "Feature",
   "geometry": {
    "type": "Point",
    "coordinates": [
     139.4456976,
     -35.50706578
    ]
   },
   "properties": {
    "name": "288 COCKS ROAD MALINONG 5259",
    "locID": "LOC000130825447",
    "tech": "SATELLITE",
    "upgrade": "NULL_NA",
    "gnaf_pid": "GASA_425062332"
   }
  },
  {
   "type": "Feature",
   "geometry": {
    "type": "Point",
    "coordinates": [
     139.44586667,
     -35.50704034
    ]
   },
   "properties": {
    "name": "289 COCKS ROAD MALINONG 5259",
    "locID": "LOC000130825452",
    "tech": "SATELLITE",
    "upgrade": "NULL_NA",
    "gnaf_pid": "GASA_425062333"
   }
  },
  {
   "type": "Feature",
   "geometry": {
    "type": "Point",
    "coordinates": [
     139.53646532,
     -35.50789018
    ]
   },
   "properties": {
    "name": "296 HAWKS NEST ROAD MALINONG 5259",
    "locID": "LOC000130825475",
    "tech": "SATELLITE",
    "upgrade": "NULL_NA",
    "gnaf_pid": "GASA_425064438"
   }
  },
  {
   "type": "Feature",
   "geometry": {
    "type": "Point",
    "coordinates": [
     139.56302484,
     -35.52523782
    ]
   },
   "properties": {
    "name": "630 HAWKS NEST ROAD MALINONG 5259",
    "locID": "LOC000130830357",
    "tech": "SATELLITE",
    "upgrade": "NULL_NA",
    "gnaf_pid": "GASA_425064439"
   }
  },
  {
   "type": "Feature",
   "geometry": {
    "type": "Point",
    "coordinates": [
     139.5686291,
     -35.5347862
    ]
   },
   "properties": {
    "name": "751 HAWKS NEST ROAD MALINONG 5259",
    "locID": "LOC000130834833",
    "tech": "SATELLITE",
    "upgrade": "NULL_NA",
    "gnaf_pid": "GASA_425064440"
   }
  },
  {
   "type": "Feature",
   "geometry": {
    "type": "Point",
    "coordinates": [
     139.48717235,
     -35.51186705
    ]
   },
   "properties": {
    "name": "LOT 70 MALINONG ROAD MALINONG 5259",
    "locID": "LOC000116260816",
    "tech": "SATELLITE",
    "upgrade": "NULL_NA",
    "gnaf_pid": "GASA_425255548"
   }
  },
  {
   "type": "Feature",
   "geometry": {
    "type": "Point",
    "coordinates": [
     139.44324491,
     -35.48591767
    ]
   },
   "properties": {
    "name": "LOT 484 NINE MILE ROAD MALINONG 5259",
    "locID": "LOC000112870073",
    "tech": "SATELLITE",
    "upgrade": "NULL_NA",
    "gnaf_pid": "GASA_425393132"
   }
  },
  {
   "type": "Feature",
   "geometry": {
    "type": "Point",
    "coordinates": [
     139.59202274,
     -35.54803132
    ]
   },
   "properties": {
    "name": "LOT 3 HAWKS NEST ROAD MALINONG 5259",
    "locID": "LOC000130825475",
    "tech": "SATELLITE",
    "upgrade": "NULL_NA",
    "gnaf_pid": "GASA_425721254"
   }
  },
  {
   "type": "Feature",
   "geometry": {
    "type": "Point",
    "coordinates": [
     139.51347924,
     -35.48946537
    ]
   },
   "properties": {
    "name": "LOT 117 MALINONG ROAD MALINONG 5259",
    "locID": "LOC000114939964",
    "tech": "SATELLITE",
    "upgrade": "NULL_NA",
    "gnaf_pid": "GASA_425846829"
   }
  },
  {
   "type": "Feature",
   "geometry": {
    "type": "Point",
    "coordinates": [
     139.53764265,
     -35.50270697
    ]
   },
   "properties": {
    "name": "LOT 113 HAWKS NEST ROAD MALINONG 5259",
    "locID": "LOC000130825475",
    "tech": "SATELLITE",
    "upgrade": "NULL_NA",
    "gnaf_pid": "GASA_719778948"
   }
  },
  {
   "type": "Feature",
   "geometry": {
    "type": "Point",
    "coordinates": [
     139.567889,
     -35.536879
    ]
   },
   "properties": {
    "name": "777 HAWKS NEST ROAD MALINONG 5259",
    "locID": "LOC000184461948",
    "tech": "WIRELESS",
    "upgrade": "SAT_CT",
    "gnaf_pid": "GASA_720585506",
    "tech_change_status": "Eligible To Order"
   }
  },
  {
   "type": "Feature",
   "geometry": {
    "type": "Point",
    "coordinates": [
     139.41344282,
     -35.52483093
    ]
   },
   "properties": {
    "name": "310 MASONS LOOKOUT ROAD MALINONG 5259",
    "locID": "LOC000114514886",
    "tech": "SATELLITE",
    "upgrade": "NULL_NA",
    "gnaf_pid": "GASA_721275770"
   }
  }
 ]
}