{
 "type": "FeatureCollection",
 "generated": "2024-07-22T22:39:59.285549",
 "suburb": "MOUNT WEDGE",
 "features": [
  {
   "type": "Feature",
   "geometry": {
    "type": "Point",
    "coordinates": [
     134.96960609,
     -33.38809191
    ]
   },
   "properties": {
    "name": "LOT 172 KOORINGAL ROAD MOUNT WEDGE 5670",
    "locID": "LOC000148407389",
    "tech": "SATELLITE",
    "upgrade": "NULL_NA",
    "gnaf_pid": "GASA_424312192",
    "tech_change_status": "Not Planned"
   }
  },
  {
   "type": "Feature",
   "geometry": {
    "type": "Point",
    "coordinates": [
     135.10785139,
     -33.41600629
    ]
   },
   "properties": {
    "name": "LOT 136 LARNE DRIVE MOUNT WEDGE 5670",
    "locID": "LOC000131732059",
    "tech": "SATELLITE",
    "upgrade": "NULL_NA",
    "gnaf_pid": "GASA_424521796",
    "tech_change_status": "Not Planned"
   }
  },
  {
   "type": "Feature",
   "geometry": {
    "type": "Point",
    "coordinates": [
     135.07576985,
     -33.34141539
    ]
   },
   "properties": {
    "name": "LOT 202 LARNE DRIVE MOUNT WEDGE 5670",
    "locID": "LOC000131732059",
    "tech": "SATELLITE",
    "upgrade": "NULL_NA",
    "gnaf_pid": "GASA_424521798",
    "tech_change_status": "Not Planned"
   }
  },
  {
   "type": "Feature",
   "geometry": {
    "type": "Point",
    "coordinates": [
     135.13954811,
     -33.50057582
    ]
   },
   "properties": {
    "name": "16936 BIRDSEYE HIGHWAY MOUNT WEDGE 5670",
    "locID": "LOC000131661936",
    "tech": "SATELLITE",
    "upgrade": "NULL_NA",
    "gnaf_pid": "GASA_424923134",
    "tech_change_status": "Not Planned"
   }
  },
  {
   "type": "Feature",
   "geometry": {
    "type": "Point",
    "coordinates": [
     135.15904478,
     -33.48427008
    ]
   },
   "properties": {
    "name": "186 HOODS LANE MOUNT WEDGE 5670",
    "locID": "LOC000131610057",
    "tech": "SATELLITE",
    "upgrade": "NULL_NA",
    "gnaf_pid": "GASA_424924397",
    "tech_change_status": "Not Planned"
   }
  },
  {
   "type": "Feature",
   "geometry": {
    "type": "Point",
    "coordinates": [
     135.09738327,
     -33.36748487
    ]
   },
   "properties": {
    "name": "1180 LARNE DRIVE MOUNT WEDGE 5670",
    "locID": "LOC100078081597",
    "tech": "SATELLITE",
    "upgrade": "NULL_NA",
    "gnaf_pid": "GASA_424924748",
    "tech_change_status": "Not Planned"
   }
  },
  {
   "type": "Feature",
   "geometry": {
    "type": "Point",
    "coordinates": [
     135.08527483,
     -33.44002983
    ]
   },
   "properties": {
    "name": "352 LARNE DRIVE MOUNT WEDGE 5670",
    "locID": "LOC000131732059",
    "tech": "SATELLITE",
    "upgrade": "NULL_NA",
    "gnaf_pid": "GASA_424924749",
    "tech_change_status": "Not Planned"
   }
  },
  {
   "type": "Feature",
   "geometry": {
    "type": "Point",
    "coordinates": [
     135.15881546,
     -33.46760326
    ]
   },
   "properties": {
    "name": "399 KYANCUTTA-MOUNT WEDGE ROAD MOUNT WEDGE 5670",
    "locID": "LOC000148249539",
    "tech": "SATELLITE",
    "upgrade": "NULL_NA",
    "gnaf_pid": "GASA_425139023",
    "tech_change_status": "Not Planned"
   }
  },
  {
   "type": "Feature",
   "geometry": {
    "type": "Point",
    "coordinates": [
     134.96701747,
     -33.41127699
    ]
   },
   "properties": {
    "name": "470 KOORINGAL ROAD MOUNT WEDGE 5670",
    "locID": "LOC000148407389",
    "tech": "SATELLITE",
    "upgrade": "NULL_NA",
    "gnaf_pid": "GASA_425502274",
    "tech_change_status": "Not Planned"
   }
  },
  {
   "type": "Feature",
   "geometry": {
    "type": "Point",
    "coordinates": [
     134.97542008,
     -33.35018353
    ]
   },
   "properties": {
    "name": "LOT 129 KOORINGAL ROAD MOUNT WEDGE 5670",
    "locID": "LOC000148407389",
    "tech": "SATELLITE",
    "upgrade": "NULL_NA",
    "gnaf_pid": "GASA_425722020",
    "tech_change_status": "Not Planned"
   }
  },
  {
   "type": "Feature",
   "geometry": {
    "type": "Point",
    "coordinates": [
     134.99268638,
     -33.41149306
    ]
   },
   "properties": {
    "name": "LOT 175 KOORINGAL ROAD MOUNT WEDGE 5670",
    "locID": "LOC000148407389",
    "tech": "SATELLITE",
    "upgrade": "NULL_NA",
    "gnaf_pid": "GASA_425722021",
    "tech_change_status": "Not Planned"
   }
  },
  {
   "type": "Feature",
   "geometry": {
    "type": "Point",
    "coordinates": [
     135.11161413,
     -33.30749207
    ]
   },
   "properties": {
    "name": "LOT 102 LARNE DRIVE MOUNT WEDGE 5670",
    "locID": "LOC000131732059",
    "tech": "SATELLITE",
    "upgrade": "NULL_NA",
    "gnaf_pid": "GASA_720300648",
    "tech_change_status": "Not Planned"
   }
  },
  {
   "type": "Feature",
   "geometry": {
    "type": "Point",
    "coordinates": [
     135.14272241,
     -33.47542414
    ]
   },
   "properties": {
    "name": "LOT 193 KYANCUTTA-MOUNT WEDGE ROAD MOUNT WEDGE 5670",
    "locID": "LOC000148249539",
    "tech": "SATELLITE",
    "upgrade": "NULL_NA",
    "gnaf_pid": "GASA_720303642",
    "tech_change_status": "Not Planned"
   }
  }
 ]
}