{
 "type": "FeatureCollection",
 "generated": "2023-10-22T05:02:16.271729",
 "suburb": "MOUNT BRYAN",
 "features": [
  {
   "type": "Feature",
   "geometry": {
    "type": "Point",
    "coordinates": [
     138.89513439,
     -33.54912566
    ]
   },
   "properties": {
    "name": "16 KELLETT STREET MOUNT BRYAN 5418",
    "locID": "ChIJUYe60uhNuWoRjAB-4CzkVQk",
    "tech": "SATELLITE",
    "upgrade": "UNKNOWN",
    "gnaf_pid": "GASA_416157339"
   }
  },
  {
   "type": "Feature",
   "geometry": {
    "type": "Point",
    "coordinates": [
     138.89206002,
     -33.5503044
    ]
   },
   "properties": {
    "name": "62 RAILWAY PARADE MOUNT BRYAN 5418",
    "locID": "ChIJTZVvcOVNuWoR6z-LVN0PQG0",
    "tech": "SATELLITE",
    "upgrade": "UNKNOWN",
    "gnaf_pid": "GASA_416164397"
   }
  },
  {
   "type": "Feature",
   "geometry": {
    "type": "Point",
    "coordinates": [
     138.89386314,
     -33.55082851
    ]
   },
   "properties": {
    "name": "15 RICHARD STREET MOUNT BRYAN 5418",
    "locID": "ChIJKSIp8-VNuWoRjoXg1_kLHaA",
    "tech": "SATELLITE",
    "upgrade": "UNKNOWN",
    "gnaf_pid": "GASA_416164398"
   }
  },
  {
   "type": "Feature",
   "geometry": {
    "type": "Point",
    "coordinates": [
     138.89500089,
     -33.55265968
    ]
   },
   "properties": {
    "name": "11 BOWMAN TERRACE MOUNT BRYAN 5418",
    "locID": "ChIJm33YjVlNuWoRMjyarDZdfGs",
    "tech": "SATELLITE",
    "upgrade": "UNKNOWN",
    "gnaf_pid": "GASA_416164399"
   }
  },
  {
   "type": "Feature",
   "geometry": {
    "type": "Point",
    "coordinates": [
     138.89464948,
     -33.5493867
    ]
   },
   "properties": {
    "name": "25 KELLETT STREET MOUNT BRYAN 5418",
    "locID": "ChIJxa77Nu9NuWoR7_dv3GYbTg0",
    "tech": "SATELLITE",
    "upgrade": "UNKNOWN",
    "gnaf_pid": "GASA_416164609"
   }
  },
  {
   "type": "Feature",
   "geometry": {
    "type": "Point",
    "coordinates": [
     138.89156321,
     -33.55075546
    ]
   },
   "properties": {
    "name": "15 RAILWAY PARADE MOUNT BRYAN 5418",
    "locID": "LOC000005262649",
    "tech": "SATELLITE",
    "upgrade": "NULL_NA",
    "gnaf_pid": "GASA_416164613"
   }
  },
  {
   "type": "Feature",
   "geometry": {
    "type": "Point",
    "coordinates": [
     138.89588759,
     -33.5507569
    ]
   },
   "properties": {
    "name": "2 GOODE TERRACE MOUNT BRYAN 5418",
    "locID": "ChIJE6b9pOhNuWoRpnOKuolDjfo",
    "tech": "SATELLITE",
    "upgrade": "UNKNOWN",
    "gnaf_pid": "GASA_416168197"
   }
  },
  {
   "type": "Feature",
   "geometry": {
    "type": "Point",
    "coordinates": [
     138.89335302,
     -33.55037408
    ]
   },
   "properties": {
    "name": "17 RAILWAY TERRACE MOUNT BRYAN 5418",
    "locID": "ChIJHQD9iOVNuWoRg9jAHwNrXvY",
    "tech": "SATELLITE",
    "upgrade": "UNKNOWN",
    "gnaf_pid": "GASA_416168198"
   }
  },
  {
   "type": "Feature",
   "geometry": {
    "type": "Point",
    "coordinates": [
     138.89335302,
     -33.55037408
    ]
   },
   "properties": {
    "name": "2 RAILWAY TERRACE MOUNT BRYAN 5418",
    "locID": "ChIJm3DjiOVNuWoRAQALbi-CX8s",
    "tech": "SATELLITE",
    "upgrade": "UNKNOWN",
    "gnaf_pid": "GASA_416168987"
   }
  },
  {
   "type": "Feature",
   "geometry": {
    "type": "Point",
    "coordinates": [
     138.89100766,
     -33.5505143
    ]
   },
   "properties": {
    "name": "1 COLLINS STREET MOUNT BRYAN 5418",
    "locID": "LOC000042945112",
    "tech": "SATELLITE",
    "upgrade": "NULL_NA",
    "gnaf_pid": "GASA_417106473"
   }
  },
  {
   "type": "Feature",
   "geometry": {
    "type": "Point",
    "coordinates": [
     138.89335302,
     -33.55037408
    ]
   },
   "properties": {
    "name": "7 RAILWAY TERRACE MOUNT BRYAN 5418",
    "locID": "LOC000012625755",
    "tech": "SATELLITE",
    "upgrade": "NULL_NA",
    "gnaf_pid": "GASA_417106485"
   }
  },
  {
   "type": "Feature",
   "geometry": {
    "type": "Point",
    "coordinates": [
     138.89206002,
     -33.5503044
    ]
   },
   "properties": {
    "name": "8 RAILWAY PARADE MOUNT BRYAN 5418",
    "locID": "ChIJTZVvcOVNuWoRGT0uxE6LdIA",
    "tech": "SATELLITE",
    "upgrade": "UNKNOWN",
    "gnaf_pid": "GASA_417106486"
   }
  },
  {
   "type": "Feature",
   "geometry": {
    "type": "Point",
    "coordinates": [
     138.89206002,
     -33.5503044
    ]
   },
   "properties": {
    "name": "10 RAILWAY PARADE MOUNT BRYAN 5418",
    "locID": "LOC000109245019",
    "tech": "SATELLITE",
    "upgrade": "NULL_NA",
    "gnaf_pid": "GASA_417106487"
   }
  },
  {
   "type": "Feature",
   "geometry": {
    "type": "Point",
    "coordinates": [
     138.89386314,
     -33.55082851
    ]
   },
   "properties": {
    "name": "24 RICHARD STREET MOUNT BRYAN 5418",
    "locID": "ChIJKSIp8-VNuWoRqrlF7S5XVVU",
    "tech": "SATELLITE",
    "upgrade": "UNKNOWN",
    "gnaf_pid": "GASA_417106488"
   }
  },
  {
   "type": "Feature",
   "geometry": {
    "type": "Point",
    "coordinates": [
     138.89386314,
     -33.55082851
    ]
   },
   "properties": {
    "name": "26 RICHARD STREET MOUNT BRYAN 5418",
    "locID": "ChIJKSIp8-VNuWoRi6PlQkSabjQ",
    "tech": "SATELLITE",
    "upgrade": "UNKNOWN",
    "gnaf_pid": "GASA_417106489"
   }
  },
  {
   "type": "Feature",
   "geometry": {
    "type": "Point",
    "coordinates": [
     138.89335302,
     -33.55037408
    ]
   },
   "properties": {
    "name": "15 RAILWAY TERRACE MOUNT BRYAN 5418",
    "locID": "ChIJHQD9iOVNuWoRIV9HZ3yDuTQ",
    "tech": "SATELLITE",
    "upgrade": "UNKNOWN",
    "gnaf_pid": "GASA_422374198"
   }
  },
  {
   "type": "Feature",
   "geometry": {
    "type": "Point",
    "coordinates": [
     138.89464948,
     -33.5493867
    ]
   },
   "properties": {
    "name": "23 KELLETT STREET MOUNT BRYAN 5418",
    "locID": "ChIJxa77Nu9NuWoRSeOGVynCLO4",
    "tech": "SATELLITE",
    "upgrade": "UNKNOWN",
    "gnaf_pid": "GASA_423120090"
   }
  },
  {
   "type": "Feature",
   "geometry": {
    "type": "Point",
    "coordinates": [
     138.89496175,
     -33.5354771
    ]
   },
   "properties": {
    "name": "LOT 191 BARRIER HIGHWAY MOUNT BRYAN 5418",
    "locID": "LOC000150766893",
    "tech": "SATELLITE",
    "upgrade": "NULL_NA",
    "gnaf_pid": "GASA_423413831"
   }
  },
  {
   "type": "Feature",
   "geometry": {
    "type": "Point",
    "coordinates": [
     138.91026442,
     -33.55643666
    ]
   },
   "properties": {
    "name": "LOT 186 GUM HILL ROAD MOUNT BRYAN 5418",
    "locID": "LOC000148403856",
    "tech": "SATELLITE",
    "upgrade": "NULL_NA",
    "gnaf_pid": "GASA_423415912"
   }
  },
  {
   "type": "Feature",
   "geometry": {
    "type": "Point",
    "coordinates": [
     138.90632134,
     -33.53014719
    ]
   },
   "properties": {
    "name": "LOT 197 WHITE HILL ROAD MOUNT BRYAN 5418",
    "locID": "LOC000131535671",
    "tech": "SATELLITE",
    "upgrade": "NULL_NA",
    "gnaf_pid": "GASA_423420760"
   }
  },
  {
   "type": "Feature",
   "geometry": {
    "type": "Point",
    "coordinates": [
     138.8942617,
     -33.54957529
    ]
   },
   "properties": {
    "name": "LOT 15 EAST TERRACE MOUNT BRYAN 5418",
    "locID": "LOC000109630376",
    "tech": "SATELLITE",
    "upgrade": "NULL_NA",
    "gnaf_pid": "GASA_423427830"
   }
  },
  {
   "type": "Feature",
   "geometry": {
    "type": "Point",
    "coordinates": [
     138.89335302,
     -33.55037408
    ]
   },
   "properties": {
    "name": "12 RAILWAY TERRACE MOUNT BRYAN 5418",
    "locID": "ChIJHQD9iOVNuWoRljid3g83uVo",
    "tech": "SATELLITE",
    "upgrade": "UNKNOWN",
    "gnaf_pid": "GASA_423432609"
   }
  },
  {
   "type": "Feature",
   "geometry": {
    "type": "Point",
    "coordinates": [
     138.89335302,
     -33.55037408
    ]
   },
   "properties": {
    "name": "3 RAILWAY TERRACE MOUNT BRYAN 5418",
    "locID": "ChIJHQD9iOVNuWoRlp7VEqCzZfU",
    "tech": "SATELLITE",
    "upgrade": "UNKNOWN",
    "gnaf_pid": "GASA_423432610"
   }
  },
  {
   "type": "Feature",
   "geometry": {
    "type": "Point",
    "coordinates": [
     138.89335302,
     -33.55037408
    ]
   },
   "properties": {
    "name": "5 RAILWAY TERRACE MOUNT BRYAN 5418",
    "locID": "LOC000012625755",
    "tech": "SATELLITE",
    "upgrade": "NULL_NA",
    "gnaf_pid": "GASA_423432611"
   }
  },
  {
   "type": "Feature",
   "geometry": {
    "type": "Point",
    "coordinates": [
     138.90513014,
     -33.59150576
    ]
   },
   "properties": {
    "name": "2 BELCUNDA ROAD MOUNT BRYAN 5418",
    "locID": "ChIJ0QD1N11OuWoRM0IV_X5WX58",
    "tech": "SATELLITE",
    "upgrade": "UNKNOWN",
    "gnaf_pid": "GASA_423863123"
   }
  },
  {
   "type": "Feature",
   "geometry": {
    "type": "Point",
    "coordinates": [
     138.89335302,
     -33.55037408
    ]
   },
   "properties": {
    "name": "LOT 12 RAILWAY TERRACE MOUNT BRYAN 5418",
    "locID": "ChIJHQD9iOVNuWoRljid3g83uVo",
    "tech": "SATELLITE",
    "upgrade": "UNKNOWN",
    "gnaf_pid": "GASA_423955098"
   }
  },
  {
   "type": "Feature",
   "geometry": {
    "type": "Point",
    "coordinates": [
     138.89117899,
     -33.55294263
    ]
   },
   "properties": {
    "name": "LOT 1 MOKOTA ROAD MOUNT BRYAN 5418",
    "locID": "LOC000109778551",
    "tech": "SATELLITE",
    "upgrade": "NULL_NA",
    "gnaf_pid": "GASA_424115007"
   }
  },
  {
   "type": "Feature",
   "geometry": {
    "type": "Point",
    "coordinates": [
     138.89701006,
     -33.51770017
    ]
   },
   "properties": {
    "name": "LOT 196 BARRIER HIGHWAY MOUNT BRYAN 5418",
    "locID": "LOC000150766893",
    "tech": "SATELLITE",
    "upgrade": "NULL_NA",
    "gnaf_pid": "GASA_424154942"
   }
  },
  {
   "type": "Feature",
   "geometry": {
    "type": "Point",
    "coordinates": [
     138.89474728,
     -33.55146439
    ]
   },
   "properties": {
    "name": "LOT 27 EAST TERRACE MOUNT BRYAN 5418",
    "locID": "Ei8yNyBFYXN0IFRlcnJhY2UsIE1vdW50IEJyeWFuIFNBIDU0MTgsIEF1c3RyYWxpYSIwEi4KFAoSCf-YJcTlTblqEeGfYjRKoFijEBsqFAoSCSmtQcDlTblqEQg9T5HZ-20Z",
    "tech": "SATELLITE",
    "upgrade": "UNKNOWN",
    "gnaf_pid": "GASA_424168148"
   }
  },
  {
   "type": "Feature",
   "geometry": {
    "type": "Point",
    "coordinates": [
     138.89465798,
     -33.55199882
    ]
   },
   "properties": {
    "name": "LOT 30 EAST TERRACE MOUNT BRYAN 5418",
    "locID": "Ei8zMCBFYXN0IFRlcnJhY2UsIE1vdW50IEJyeWFuIFNBIDU0MTgsIEF1c3RyYWxpYSIwEi4KFAoSCf-YJcTlTblqEeGfYjRKoFijEB4qFAoSCSmtQcDlTblqEQg9T5HZ-20Z",
    "tech": "SATELLITE",
    "upgrade": "UNKNOWN",
    "gnaf_pid": "GASA_424168150"
   }
  },
  {
   "type": "Feature",
   "geometry": {
    "type": "Point",
    "coordinates": [
     138.89556673,
     -33.5497283
    ]
   },
   "properties": {
    "name": "LOT 52 GOODE TERRACE MOUNT BRYAN 5418",
    "locID": "EjA1MiBHb29kZSBUZXJyYWNlLCBNb3VudCBCcnlhbiBTQSA1NDE4LCBBdXN0cmFsaWEiMBIuChQKEgmjRNsa5k25ahErib7kecQNTRA0KhQKEgmjp4Kp6E25ahHD_8mBZ8QEKw",
    "tech": "SATELLITE",
    "upgrade": "UNKNOWN",
    "gnaf_pid": "GASA_424174686"
   }
  },
  {
   "type": "Feature",
   "geometry": {
    "type": "Point",
    "coordinates": [
     138.89461734,
     -33.54803765
    ]
   },
   "properties": {
    "name": "LOT 102 KELLETT STREET MOUNT BRYAN 5418",
    "locID": "Ei4xMDIgS2VsbGV0dCBTdCwgTW91bnQgQnJ5YW4gU0EgNTQxOCwgQXVzdHJhbGlhIjASLgoUChIJMx_QK-9NuWoR3naaIDGo36EQZioUChIJMx_QK-9NuWoRy8BKLyGzkXc",
    "tech": "SATELLITE",
    "upgrade": "UNKNOWN",
    "gnaf_pid": "GASA_424183332"
   }
  },
  {
   "type": "Feature",
   "geometry": {
    "type": "Point",
    "coordinates": [
     138.89285805,
     -33.54975903
    ]
   },
   "properties": {
    "name": "LOT 185 RAILWAY PARADE MOUNT BRYAN 5418",
    "locID": "LOC000131530790",
    "tech": "SATELLITE",
    "upgrade": "NULL_NA",
    "gnaf_pid": "GASA_424203633"
   }
  },
  {
   "type": "Feature",
   "geometry": {
    "type": "Point",
    "coordinates": [
     138.89335302,
     -33.55037408
    ]
   },
   "properties": {
    "name": "LOT 10 RAILWAY TERRACE MOUNT BRYAN 5418",
    "locID": "ChIJU8TIu-VNuWoRJAdWm_avebM",
    "tech": "SATELLITE",
    "upgrade": "UNKNOWN",
    "gnaf_pid": "GASA_424203872"
   }
  },
  {
   "type": "Feature",
   "geometry": {
    "type": "Point",
    "coordinates": [
     138.89328144,
     -33.55282704
    ]
   },
   "properties": {
    "name": "LOT 1 RAILWAY TERRACE MOUNT BRYAN 5418",
    "locID": "LOC000109796601",
    "tech": "SATELLITE",
    "upgrade": "NULL_NA",
    "gnaf_pid": "GASA_424203874"
   }
  },
  {
   "type": "Feature",
   "geometry": {
    "type": "Point",
    "coordinates": [
     138.89394159,
     -33.54897598
    ]
   },
   "properties": {
    "name": "LOT 5 RAILWAY TERRACE MOUNT BRYAN 5418",
    "locID": "LOC100078084574",
    "tech": "SATELLITE",
    "upgrade": "NULL_NA",
    "gnaf_pid": "GASA_424203876"
   }
  },
  {
   "type": "Feature",
   "geometry": {
    "type": "Point",
    "coordinates": [
     138.91385771,
     -33.53679663
    ]
   },
   "properties": {
    "name": "LOT 7 WHITE HILL ROAD MOUNT BRYAN 5418",
    "locID": "LOC000131535671",
    "tech": "SATELLITE",
    "upgrade": "NULL_NA",
    "gnaf_pid": "GASA_424220120"
   }
  },
  {
   "type": "Feature",
   "geometry": {
    "type": "Point",
    "coordinates": [
     138.89374366,
     -33.55315158
    ]
   },
   "properties": {
    "name": "LOT 37 BOWMAN TERRACE MOUNT BRYAN 5418",
    "locID": "LOC000109629122",
    "tech": "SATELLITE",
    "upgrade": "NULL_NA",
    "gnaf_pid": "GASA_424223447"
   }
  },
  {
   "type": "Feature",
   "geometry": {
    "type": "Point",
    "coordinates": [
     138.89423303,
     -33.55205852
    ]
   },
   "properties": {
    "name": "LOT 7 EAST TERRACE MOUNT BRYAN 5418",
    "locID": "Ei43IEVhc3QgVGVycmFjZSwgTW91bnQgQnJ5YW4gU0EgNTQxOCwgQXVzdHJhbGlhIjASLgoUChIJ_5glxOVNuWoR4Z9iNEqgWKMQByoUChIJKa1BwOVNuWoRCD1Pkdn7bRk",
    "tech": "SATELLITE",
    "upgrade": "UNKNOWN",
    "gnaf_pid": "GASA_424224381"
   }
  },
  {
   "type": "Feature",
   "geometry": {
    "type": "Point",
    "coordinates": [
     138.89374366,
     -33.55315158
    ]
   },
   "properties": {
    "name": "LOT 28 BOWMAN TERRACE MOUNT BRYAN 5418",
    "locID": "EjEyOCBCb3dtYW4gVGVycmFjZSwgTW91bnQgQnJ5YW4gU0EgNTQxOCwgQXVzdHJhbGlhIjASLgoUChIJidgSW-RNuWoRUT1CSVQ2AxMQHCoUChIJr3hGSORNuWoRcNo84cwDpWk",
    "tech": "SATELLITE",
    "upgrade": "UNKNOWN",
    "gnaf_pid": "GASA_424230411"
   }
  },
  {
   "type": "Feature",
   "geometry": {
    "type": "Point",
    "coordinates": [
     138.89010154,
     -33.58790647
    ]
   },
   "properties": {
    "name": "LOT 110 BARRIER HIGHWAY MOUNT BRYAN 5418",
    "locID": "Ei8xMTAgQmFycmllciBId3ksIE1vdW50IEJyeWFuIFNBIDU0MTgsIEF1c3RyYWxpYSIwEi4KFAoSCXnbbnDlTblqEQJ3432Wh7cTEG4qFAoSCYOjVKThhrlqESE3VHJJGhqh",
    "tech": "SATELLITE",
    "upgrade": "UNKNOWN",
    "gnaf_pid": "GASA_424288627"
   }
  },
  {
   "type": "Feature",
   "geometry": {
    "type": "Point",
    "coordinates": [
     138.8905371,
     -33.56132135
    ]
   },
   "properties": {
    "name": "LOT 151 BARRIER HIGHWAY MOUNT BRYAN 5418",
    "locID": "Ei8xNTEgQmFycmllciBId3ksIE1vdW50IEJyeWFuIFNBIDU0MTgsIEF1c3RyYWxpYSIxEi8KFAoSCXnbbnDlTblqEQJ3432Wh7cTEJcBKhQKEgmDo1Sk4Ya5ahEhN1RySRoaoQ",
    "tech": "SATELLITE",
    "upgrade": "UNKNOWN",
    "gnaf_pid": "GASA_424288628"
   }
  },
  {
   "type": "Feature",
   "geometry": {
    "type": "Point",
    "coordinates": [
     138.89466739,
     -33.48235629
    ]
   },
   "properties": {
    "name": "LOT 190 BARRIER HIGHWAY MOUNT BRYAN 5418",
    "locID": "LOC000131517773",
    "tech": "SATELLITE",
    "upgrade": "NULL_NA",
    "gnaf_pid": "GASA_424288629"
   }
  },
  {
   "type": "Feature",
   "geometry": {
    "type": "Point",
    "coordinates": [
     138.89603828,
     -33.48760523
    ]
   },
   "properties": {
    "name": "LOT 192 BARRIER HIGHWAY MOUNT BRYAN 5418",
    "locID": "LOC000150766893",
    "tech": "SATELLITE",
    "upgrade": "NULL_NA",
    "gnaf_pid": "GASA_424288630"
   }
  },
  {
   "type": "Feature",
   "geometry": {
    "type": "Point",
    "coordinates": [
     138.89080272,
     -33.5882338
    ]
   },
   "properties": {
    "name": "LOT 197 BARRIER HIGHWAY MOUNT BRYAN 5418",
    "locID": "LOC000150766893",
    "tech": "SATELLITE",
    "upgrade": "NULL_NA",
    "gnaf_pid": "GASA_424288631"
   }
  },
  {
   "type": "Feature",
   "geometry": {
    "type": "Point",
    "coordinates": [
     138.89665416,
     -33.49509109
    ]
   },
   "properties": {
    "name": "LOT 199 BARRIER HIGHWAY MOUNT BRYAN 5418",
    "locID": "LOC000150766893",
    "tech": "SATELLITE",
    "upgrade": "NULL_NA",
    "gnaf_pid": "GASA_424288632"
   }
  },
  {
   "type": "Feature",
   "geometry": {
    "type": "Point",
    "coordinates": [
     138.89750966,
     -33.5022372
    ]
   },
   "properties": {
    "name": "LOT 461 BURTON ROAD MOUNT BRYAN 5418",
    "locID": "LOC000148253707",
    "tech": "SATELLITE",
    "upgrade": "NULL_NA",
    "gnaf_pid": "GASA_424292565"
   }
  },
  {
   "type": "Feature",
   "geometry": {
    "type": "Point",
    "coordinates": [
     138.89714304,
     -33.50285457
    ]
   },
   "properties": {
    "name": "LOT 463 BURTON ROAD MOUNT BRYAN 5418",
    "locID": "LOC000148253707",
    "tech": "SATELLITE",
    "upgrade": "NULL_NA",
    "gnaf_pid": "GASA_424292566"
   }
  },
  {
   "type": "Feature",
   "geometry": {
    "type": "Point",
    "coordinates": [
     138.94684819,
     -33.4832488
    ]
   },
   "properties": {
    "name": "LOT 91 CATTLE STATION ROAD MOUNT BRYAN 5418",
    "locID": "LOC000148403229",
    "tech": "SATELLITE",
    "upgrade": "NULL_NA",
    "gnaf_pid": "GASA_424293672"
   }
  },
  {
   "type": "Feature",
   "geometry": {
    "type": "Point",
    "coordinates": [
     138.91169904,
     -33.5106607
    ]
   },
   "properties": {
    "name": "LOT 55 CLAY ROAD MOUNT BRYAN 5418",
    "locID": "EidDbGF5IFJkLCBNb3VudCBCcnlhbiBTQSA1NDE4LCBBdXN0cmFsaWEiLiosChQKEgmPRtJH30y5ahHKgNalYgtwZxIUChIJ_xFovVJMuWoRANOOYlQ2AwQ",
    "tech": "SATELLITE",
    "upgrade": "UNKNOWN",
    "gnaf_pid": "GASA_424294818"
   }
  },
  {
   "type": "Feature",
   "geometry": {
    "type": "Point",
    "coordinates": [
     138.89388676,
     -33.55178995
    ]
   },
   "properties": {
    "name": "LOT 22 EAST TERRACE MOUNT BRYAN 5418",
    "locID": "Ei8yMiBFYXN0IFRlcnJhY2UsIE1vdW50IEJyeWFuIFNBIDU0MTgsIEF1c3RyYWxpYSIwEi4KFAoSCf-YJcTlTblqEeGfYjRKoFijEBYqFAoSCSmtQcDlTblqEQg9T5HZ-20Z",
    "tech": "SATELLITE",
    "upgrade": "UNKNOWN",
    "gnaf_pid": "GASA_424299111"
   }
  },
  {
   "type": "Feature",
   "geometry": {
    "type": "Point",
    "coordinates": [
     138.89479147,
     -33.5511959
    ]
   },
   "properties": {
    "name": "LOT 25 EAST TERRACE MOUNT BRYAN 5418",
    "locID": "Ei8yNSBFYXN0IFRlcnJhY2UsIE1vdW50IEJyeWFuIFNBIDU0MTgsIEF1c3RyYWxpYSIwEi4KFAoSCf-YJcTlTblqEeGfYjRKoFijEBkqFAoSCSmtQcDlTblqEQg9T5HZ-20Z",
    "tech": "SATELLITE",
    "upgrade": "UNKNOWN",
    "gnaf_pid": "GASA_424299112"
   }
  },
  {
   "type": "Feature",
   "geometry": {
    "type": "Point",
    "coordinates": [
     138.89613401,
     -33.54730412
    ]
   },
   "properties": {
    "name": "LOT 195 GILBERT TERRACE MOUNT BRYAN 5418",
    "locID": "Ei9HaWxiZXJ0IFRlcnJhY2UsIE1vdW50IEJyeWFuIFNBIDU0MTgsIEF1c3RyYWxpYSIuKiwKFAoSCU-zJdHuTblqEbaJSEOKj0DKEhQKEgn_EWi9Uky5ahEA045iVDYDBA",
    "tech": "SATELLITE",
    "upgrade": "UNKNOWN",
    "gnaf_pid": "GASA_424303422"
   }
  },
  {
   "type": "Feature",
   "geometry": {
    "type": "Point",
    "coordinates": [
     138.89567296,
     -33.54909689
    ]
   },
   "properties": {
    "name": "LOT 54 GOODE TERRACE MOUNT BRYAN 5418",
    "locID": "LOC000131522316",
    "tech": "SATELLITE",
    "upgrade": "NULL_NA",
    "gnaf_pid": "GASA_424304226"
   }
  },
  {
   "type": "Feature",
   "geometry": {
    "type": "Point",
    "coordinates": [
     138.89097577,
     -33.53606714
    ]
   },
   "properties": {
    "name": "LOT 80 HILLDROP ROAD MOUNT BRYAN 5418",
    "locID": "EitIaWxsZHJvcCBSZCwgTW91bnQgQnJ5YW4gU0EgNTQxOCwgQXVzdHJhbGlhIi4qLAoUChIJmXXkzIRNuWoR1Ooc4xUT9i4SFAoSCf8RaL1STLlqEQDTjmJUNgME",
    "tech": "SATELLITE",
    "upgrade": "UNKNOWN",
    "gnaf_pid": "GASA_424307630"
   }
  },
  {
   "type": "Feature",
   "geometry": {
    "type": "Point",
    "coordinates": [
     138.89547651,
     -33.54848497
    ]
   },
   "properties": {
    "name": "LOT 11 KELLETT STREET MOUNT BRYAN 5418",
    "locID": "Ei0xMSBLZWxsZXR0IFN0LCBNb3VudCBCcnlhbiBTQSA1NDE4LCBBdXN0cmFsaWEiMBIuChQKEgkzH9Ar7025ahHfdpogMajfoRALKhQKEgkzH9Ar7025ahHLwEovIbORdw",
    "tech": "SATELLITE",
    "upgrade": "UNKNOWN",
    "gnaf_pid": "GASA_424310922"
   }
  },
  {
   "type": "Feature",
   "geometry": {
    "type": "Point",
    "coordinates": [
     138.93593361,
     -33.55401106
    ]
   },
   "properties": {
    "name": "LOT 40 LINES ROAD MOUNT BRYAN 5418",
    "locID": "EihMaW5lcyBSZCwgTW91bnQgQnJ5YW4gU0EgNTQxOCwgQXVzdHJhbGlhIi4qLAoUChIJ8TVdyLVNuWoRVePJTIwG_7cSFAoSCf8RaL1STLlqEQDTjmJUNgME",
    "tech": "SATELLITE",
    "upgrade": "UNKNOWN",
    "gnaf_pid": "GASA_424313562"
   }
  },
  {
   "type": "Feature",
   "geometry": {
    "type": "Point",
    "coordinates": [
     138.93381167,
     -33.52096786
    ]
   },
   "properties": {
    "name": "LOT 226 OLD BELCUNDA ROAD MOUNT BRYAN 5418",
    "locID": "Ei9PbGQgQmVsY3VuZGEgUmQsIE1vdW50IEJyeWFuIFNBIDU0MTgsIEF1c3RyYWxpYSIuKiwKFAoSCQ1R7BqNTLlqEdOHRjp9enPlEhQKEgn_EWi9Uky5ahEA045iVDYDBA",
    "tech": "SATELLITE",
    "upgrade": "UNKNOWN",
    "gnaf_pid": "GASA_424322736"
   }
  },
  {
   "type": "Feature",
   "geometry": {
    "type": "Point",
    "coordinates": [
     138.92985107,
     -33.53191973
    ]
   },
   "properties": {
    "name": "LOT 2 OLD BELCUNDA ROAD MOUNT BRYAN 5418",
    "locID": "Ei9PbGQgQmVsY3VuZGEgUmQsIE1vdW50IEJyeWFuIFNBIDU0MTgsIEF1c3RyYWxpYSIuKiwKFAoSCQ1R7BqNTLlqEdOHRjp9enPlEhQKEgn_EWi9Uky5ahEA045iVDYDBA",
    "tech": "SATELLITE",
    "upgrade": "UNKNOWN",
    "gnaf_pid": "GASA_424322737"
   }
  },
  {
   "type": "Feature",
   "geometry": {
    "type": "Point",
    "coordinates": [
     138.89137384,
     -33.55109086
    ]
   },
   "properties": {
    "name": "LOT 8 RAILWAY PARADE MOUNT BRYAN 5418",
    "locID": "ChIJTZVvcOVNuWoRGT0uxE6LdIA",
    "tech": "SATELLITE",
    "upgrade": "UNKNOWN",
    "gnaf_pid": "GASA_424327702"
   }
  },
  {
   "type": "Feature",
   "geometry": {
    "type": "Point",
    "coordinates": [
     138.90502568,
     -33.49949341
    ]
   },
   "properties": {
    "name": "LOT 103 RAZORBACK ROAD MOUNT BRYAN 5418",
    "locID": "LOC000148407916",
    "tech": "SATELLITE",
    "upgrade": "NULL_NA",
    "gnaf_pid": "GASA_424328428"
   }
  },
  {
   "type": "Feature",
   "geometry": {
    "type": "Point",
    "coordinates": [
     138.94513279,
     -33.53567834
    ]
   },
   "properties": {
    "name": "LOT 383 WHITE HILL ROAD MOUNT BRYAN 5418",
    "locID": "Ei1XaGl0ZSBIaWxsIFJkLCBNb3VudCBCcnlhbiBTQSA1NDE4LCBBdXN0cmFsaWEiLiosChQKEglPPG28M7W-ahGLQRWOkmCA9BIUChIJ_xFovVJMuWoRANOOYlQ2AwQ",
    "tech": "SATELLITE",
    "upgrade": "UNKNOWN",
    "gnaf_pid": "GASA_424340502"
   }
  },
  {
   "type": "Feature",
   "geometry": {
    "type": "Point",
    "coordinates": [
     138.93397166,
     -33.51039574
    ]
   },
   "properties": {
    "name": "LOT 199 MOUNT BRYAN EAST ROAD MOUNT BRYAN 5418",
    "locID": "EjQxOTkgTW91bnQgQnJ5YW4gRSBSZCwgTW91bnQgQnJ5YW4gU0EgNTQxOCwgQXVzdHJhbGlhIjESLwoUChIJjeyxUB1NuWoR8a-L4Kg8p5wQxwEqFAoSCWG5kgOPs75qEUY0MHWbc0rA",
    "tech": "SATELLITE",
    "upgrade": "UNKNOWN",
    "gnaf_pid": "GASA_424427998"
   }
  },
  {
   "type": "Feature",
   "geometry": {
    "type": "Point",
    "coordinates": [
     138.94301239,
     -33.51299562
    ]
   },
   "properties": {
    "name": "LOT 220 MOUNT BRYAN EAST ROAD MOUNT BRYAN 5418",
    "locID": "EjQyMjAgTW91bnQgQnJ5YW4gRSBSZCwgTW91bnQgQnJ5YW4gU0EgNTQxOCwgQXVzdHJhbGlhIjESLwoUChIJjeyxUB1NuWoR8a-L4Kg8p5wQ3AEqFAoSCWG5kgOPs75qEUY0MHWbc0rA",
    "tech": "SATELLITE",
    "upgrade": "UNKNOWN",
    "gnaf_pid": "GASA_424427999"
   }
  },
  {
   "type": "Feature",
   "geometry": {
    "type": "Point",
    "coordinates": [
     138.89159078,
     -33.55057356
    ]
   },
   "properties": {
    "name": "LOT 11 RAILWAY PARADE MOUNT BRYAN 5418",
    "locID": "EjIxMSBSYWlsd2F5IFRlcnJhY2UsIE1vdW50IEJyeWFuIFNBIDU0MTgsIEF1c3RyYWxpYSIwEi4KFAoSCZf4gIjlTblqEUE8QklUNgMTEAsqFAoSCR84-ITlTblqEfudtq651-dB",
    "tech": "SATELLITE",
    "upgrade": "UNKNOWN",
    "gnaf_pid": "GASA_424428821"
   }
  },
  {
   "type": "Feature",
   "geometry": {
    "type": "Point",
    "coordinates": [
     138.89588759,
     -33.5507569
    ]
   },
   "properties": {
    "name": "LOT 186 GOODE TERRACE MOUNT BRYAN 5418",
    "locID": "LOC000131522300",
    "tech": "SATELLITE",
    "upgrade": "NULL_NA",
    "gnaf_pid": "GASA_424527572"
   }
  },
  {
   "type": "Feature",
   "geometry": {
    "type": "Point",
    "coordinates": [
     138.90513014,
     -33.59150576
    ]
   },
   "properties": {
    "name": "LOT 2 BELCUNDA ROAD MOUNT BRYAN 5418",
    "locID": "ChIJ0QD1N11OuWoRM0IV_X5WX58",
    "tech": "SATELLITE",
    "upgrade": "UNKNOWN",
    "gnaf_pid": "GASA_424653562"
   }
  },
  {
   "type": "Feature",
   "geometry": {
    "type": "Point",
    "coordinates": [
     138.89834057,
     -33.5001349
    ]
   },
   "properties": {
    "name": "102 BURTON ROAD MOUNT BRYAN 5418",
    "locID": "ChIJ99tlO0dNuWoRALwJMkeyY8w",
    "tech": "SATELLITE",
    "upgrade": "UNKNOWN",
    "gnaf_pid": "GASA_424807841"
   }
  },
  {
   "type": "Feature",
   "geometry": {
    "type": "Point",
    "coordinates": [
     138.88518711,
     -33.50548097
    ]
   },
   "properties": {
    "name": "LOT 8 DONARA ROAD MOUNT BRYAN 5418",
    "locID": "Eis4IERvbmFyYSBSZCwgTW91bnQgQnJ5YW4gU0EgNTQxOCwgQXVzdHJhbGlhIjASLgoUChIJQVvZFmxNuWoR8IxduHn5J-wQCCoUChIJKyRfw5lSuWoROFDVeLzuUe0",
    "tech": "SATELLITE",
    "upgrade": "UNKNOWN",
    "gnaf_pid": "GASA_424808002"
   }
  },
  {
   "type": "Feature",
   "geometry": {
    "type": "Point",
    "coordinates": [
     138.9056518,
     -33.58023715
    ]
   },
   "properties": {
    "name": "174 BELCUNDA ROAD MOUNT BRYAN 5418",
    "locID": "ChIJRz3eemlOuWoR_EUXwq1In08",
    "tech": "SATELLITE",
    "upgrade": "UNKNOWN",
    "gnaf_pid": "GASA_424830496"
   }
  },
  {
   "type": "Feature",
   "geometry": {
    "type": "Point",
    "coordinates": [
     138.89423303,
     -33.55205852
    ]
   },
   "properties": {
    "name": "LOT 19 EAST TERRACE MOUNT BRYAN 5418",
    "locID": "ChIJNxm3X-9NuWoRdu1sfDLVlTw",
    "tech": "SATELLITE",
    "upgrade": "UNKNOWN",
    "gnaf_pid": "GASA_424830831"
   }
  },
  {
   "type": "Feature",
   "geometry": {
    "type": "Point",
    "coordinates": [
     138.89423303,
     -33.55205852
    ]
   },
   "properties": {
    "name": "LOT 23 EAST TERRACE MOUNT BRYAN 5418",
    "locID": "LOC000022436545",
    "tech": "SATELLITE",
    "upgrade": "NULL_NA",
    "gnaf_pid": "GASA_424830832"
   }
  },
  {
   "type": "Feature",
   "geometry": {
    "type": "Point",
    "coordinates": [
     138.92557301,
     -33.53612356
    ]
   },
   "properties": {
    "name": "LOT 93 WHITE HILL ROAD MOUNT BRYAN 5418",
    "locID": "LOC000131535671",
    "tech": "SATELLITE",
    "upgrade": "NULL_NA",
    "gnaf_pid": "GASA_424832815"
   }
  },
  {
   "type": "Feature",
   "geometry": {
    "type": "Point",
    "coordinates": [
     138.89100766,
     -33.5505143
    ]
   },
   "properties": {
    "name": "LOT 51 COLLINS STREET MOUNT BRYAN 5418",
    "locID": "Ei01MSBDb2xsaW5zIExuLCBNb3VudCBCcnlhbiBTQSA1NDE4LCBBdXN0cmFsaWEiMBIuChQKEgnfyORF5U25ahFc6DfGKeqlnxAzKhQKEgmb2xNo5U25ahFVYcfDUVFG3g",
    "tech": "SATELLITE",
    "upgrade": "UNKNOWN",
    "gnaf_pid": "GASA_425135897"
   }
  },
  {
   "type": "Feature",
   "geometry": {
    "type": "Point",
    "coordinates": [
     138.89464948,
     -33.5493867
    ]
   },
   "properties": {
    "name": "7 KELLETT STREET MOUNT BRYAN 5418",
    "locID": "ChIJxa77Nu9NuWoR81V7UkXKk68",
    "tech": "SATELLITE",
    "upgrade": "UNKNOWN",
    "gnaf_pid": "GASA_425195256"
   }
  },
  {
   "type": "Feature",
   "geometry": {
    "type": "Point",
    "coordinates": [
     138.89121507,
     -33.5935882
    ]
   },
   "properties": {
    "name": "8117 BARRIER HIGHWAY MOUNT BRYAN 5418",
    "locID": "LOC100078085539",
    "tech": "SATELLITE",
    "upgrade": "NULL_NA",
    "gnaf_pid": "GASA_425302244"
   }
  },
  {
   "type": "Feature",
   "geometry": {
    "type": "Point",
    "coordinates": [
     138.89906813,
     -33.50374112
    ]
   },
   "properties": {
    "name": "9144 BARRIER HIGHWAY MOUNT BRYAN 5418",
    "locID": "LOC000150766886",
    "tech": "SATELLITE",
    "upgrade": "NULL_NA",
    "gnaf_pid": "GASA_425302245"
   }
  },
  {
   "type": "Feature",
   "geometry": {
    "type": "Point",
    "coordinates": [
     138.89507057,
     -33.48501946
    ]
   },
   "properties": {
    "name": "9356 BARRIER HIGHWAY MOUNT BRYAN 5418",
    "locID": "LOC000150766893",
    "tech": "SATELLITE",
    "upgrade": "NULL_NA",
    "gnaf_pid": "GASA_425302246"
   }
  },
  {
   "type": "Feature",
   "geometry": {
    "type": "Point",
    "coordinates": [
     138.91039431,
     -33.58460917
    ]
   },
   "properties": {
    "name": "389 BELCUNDA ROAD MOUNT BRYAN 5418",
    "locID": "ChIJFYpI_GdOuWoRkgT3GQXi8_k",
    "tech": "SATELLITE",
    "upgrade": "UNKNOWN",
    "gnaf_pid": "GASA_425302306"
   }
  },
  {
   "type": "Feature",
   "geometry": {
    "type": "Point",
    "coordinates": [
     138.89949933,
     -33.60232065
    ]
   },
   "properties": {
    "name": "622 BELCUNDA ROAD MOUNT BRYAN 5418",
    "locID": "LOC000148252786",
    "tech": "SATELLITE",
    "upgrade": "NULL_NA",
    "gnaf_pid": "GASA_425302307"
   }
  },
  {
   "type": "Feature",
   "geometry": {
    "type": "Point",
    "coordinates": [
     138.89588952,
     -33.49345023
    ]
   },
   "properties": {
    "name": "193 BURTON ROAD MOUNT BRYAN 5418",
    "locID": "LOC000148403181",
    "tech": "SATELLITE",
    "upgrade": "NULL_NA",
    "gnaf_pid": "GASA_425302647"
   }
  },
  {
   "type": "Feature",
   "geometry": {
    "type": "Point",
    "coordinates": [
     138.89822011,
     -33.50378911
    ]
   },
   "properties": {
    "name": "75 BURTON ROAD MOUNT BRYAN 5418",
    "locID": "LOC000148253707",
    "tech": "SATELLITE",
    "upgrade": "NULL_NA",
    "gnaf_pid": "GASA_425302648"
   }
  },
  {
   "type": "Feature",
   "geometry": {
    "type": "Point",
    "coordinates": [
     138.9406449,
     -33.49254913
    ]
   },
   "properties": {
    "name": "732 CATTLE STATION ROAD MOUNT BRYAN 5418",
    "locID": "LOC000148403229",
    "tech": "SATELLITE",
    "upgrade": "NULL_NA",
    "gnaf_pid": "GASA_425302742"
   }
  },
  {
   "type": "Feature",
   "geometry": {
    "type": "Point",
    "coordinates": [
     138.87728245,
     -33.4992135
    ]
   },
   "properties": {
    "name": "246 DONARA ROAD MOUNT BRYAN 5418",
    "locID": "LOC000148246991",
    "tech": "SATELLITE",
    "upgrade": "NULL_NA",
    "gnaf_pid": "GASA_425302997"
   }
  },
  {
   "type": "Feature",
   "geometry": {
    "type": "Point",
    "coordinates": [
     138.89465179,
     -33.51028421
    ]
   },
   "properties": {
    "name": "37 DONARA ROAD MOUNT BRYAN 5418",
    "locID": "LOC000148249161",
    "tech": "SATELLITE",
    "upgrade": "NULL_NA",
    "gnaf_pid": "GASA_425302998"
   }
  },
  {
   "type": "Feature",
   "geometry": {
    "type": "Point",
    "coordinates": [
     138.90127131,
     -33.55474698
    ]
   },
   "properties": {
    "name": "56 GUM HILL ROAD MOUNT BRYAN 5418",
    "locID": "LOC000148403856",
    "tech": "SATELLITE",
    "upgrade": "NULL_NA",
    "gnaf_pid": "GASA_425303461"
   }
  },
  {
   "type": "Feature",
   "geometry": {
    "type": "Point",
    "coordinates": [
     138.91227274,
     -33.56645086
    ]
   },
   "properties": {
    "name": "130 KOLINDA ROAD MOUNT BRYAN 5418",
    "locID": "LOC000148404250",
    "tech": "SATELLITE",
    "upgrade": "NULL_NA",
    "gnaf_pid": "GASA_425304025"
   }
  },
  {
   "type": "Feature",
   "geometry": {
    "type": "Point",
    "coordinates": [
     138.91600172,
     -33.55325462
    ]
   },
   "properties": {
    "name": "280 KOLINDA ROAD MOUNT BRYAN 5418",
    "locID": "LOC000148247674",
    "tech": "SATELLITE",
    "upgrade": "NULL_NA",
    "gnaf_pid": "GASA_425304026"
   }
  },
  {
   "type": "Feature",
   "geometry": {
    "type": "Point",
    "coordinates": [
     138.91630121,
     -33.55242946
    ]
   },
   "properties": {
    "name": "290 KOLINDA ROAD MOUNT BRYAN 5418",
    "locID": "LOC000148404266",
    "tech": "SATELLITE",
    "upgrade": "NULL_NA",
    "gnaf_pid": "GASA_425304027"
   }
  },
  {
   "type": "Feature",
   "geometry": {
    "type": "Point",
    "coordinates": [
     138.92412786,
     -33.52472334
    ]
   },
   "properties": {
    "name": "604 KOLINDA ROAD MOUNT BRYAN 5418",
    "locID": "LOC000148252434",
    "tech": "SATELLITE",
    "upgrade": "NULL_NA",
    "gnaf_pid": "GASA_425304028"
   }
  },
  {
   "type": "Feature",
   "geometry": {
    "type": "Point",
    "coordinates": [
     138.91735276,
     -33.54848915
    ]
   },
   "properties": {
    "name": "649 KOLINDA ROAD MOUNT BRYAN 5418",
    "locID": "ChIJc4kgrLVNuWoRrgPeNXav43E",
    "tech": "SATELLITE",
    "upgrade": "UNKNOWN",
    "gnaf_pid": "GASA_425304029"
   }
  },
  {
   "type": "Feature",
   "geometry": {
    "type": "Point",
    "coordinates": [
     138.91769997,
     -33.52312429
    ]
   },
   "properties": {
    "name": "195 POLVILLE ROAD MOUNT BRYAN 5418",
    "locID": "LOC000148404981",
    "tech": "SATELLITE",
    "upgrade": "NULL_NA",
    "gnaf_pid": "GASA_425304850"
   }
  },
  {
   "type": "Feature",
   "geometry": {
    "type": "Point",
    "coordinates": [
     138.90723431,
     -33.52098349
    ]
   },
   "properties": {
    "name": "95 POLVILLE ROAD MOUNT BRYAN 5418",
    "locID": "LOC000148404999",
    "tech": "SATELLITE",
    "upgrade": "NULL_NA",
    "gnaf_pid": "GASA_425304851"
   }
  },
  {
   "type": "Feature",
   "geometry": {
    "type": "Point",
    "coordinates": [
     138.86231434,
     -33.56083768
    ]
   },
   "properties": {
    "name": "285 RANGE ROAD MOUNT BRYAN 5418",
    "locID": "ChIJp5pPkPtRuWoR2tLjxqjMrQU",
    "tech": "SATELLITE",
    "upgrade": "UNKNOWN",
    "gnaf_pid": "GASA_425304980"
   }
  },
  {
   "type": "Feature",
   "geometry": {
    "type": "Point",
    "coordinates": [
     138.87689023,
     -33.54912842
    ]
   },
   "properties": {
    "name": "389 RANGE ROAD MOUNT BRYAN 5418",
    "locID": "LOC000148405188",
    "tech": "SATELLITE",
    "upgrade": "NULL_NA",
    "gnaf_pid": "GASA_425304981"
   }
  },
  {
   "type": "Feature",
   "geometry": {
    "type": "Point",
    "coordinates": [
     138.88142,
     -33.53417225
    ]
   },
   "properties": {
    "name": "560 RANGE ROAD MOUNT BRYAN 5418",
    "locID": "LOC000148405190",
    "tech": "SATELLITE",
    "upgrade": "NULL_NA",
    "gnaf_pid": "GASA_425304982"
   }
  },
  {
   "type": "Feature",
   "geometry": {
    "type": "Point",
    "coordinates": [
     138.89100766,
     -33.5505143
    ]
   },
   "properties": {
    "name": "LOT 29 COLLINS STREET MOUNT BRYAN 5418",
    "locID": "Ei0yOSBDb2xsaW5zIExuLCBNb3VudCBCcnlhbiBTQSA1NDE4LCBBdXN0cmFsaWEiMBIuChQKEgnfyORF5U25ahFc6DfGKeqlnxAdKhQKEgmb2xNo5U25ahFVYcfDUVFG3g",
    "tech": "SATELLITE",
    "upgrade": "UNKNOWN",
    "gnaf_pid": "GASA_425358187"
   }
  },
  {
   "type": "Feature",
   "geometry": {
    "type": "Point",
    "coordinates": [
     138.90830874,
     -33.52131938
    ]
   },
   "properties": {
    "name": "1 POLVILLE ROAD MOUNT BRYAN 5418",
    "locID": "LOC000148404981",
    "tech": "SATELLITE",
    "upgrade": "NULL_NA",
    "gnaf_pid": "GASA_425358707"
   }
  },
  {
   "type": "Feature",
   "geometry": {
    "type": "Point",
    "coordinates": [
     138.90848676,
     -33.52886889
    ]
   },
   "properties": {
    "name": "3534 MOUNT BRYAN EAST ROAD MOUNT BRYAN 5418",
    "locID": "LOC000148406875",
    "tech": "SATELLITE",
    "upgrade": "NULL_NA",
    "gnaf_pid": "GASA_425360734"
   }
  },
  {
   "type": "Feature",
   "geometry": {
    "type": "Point",
    "coordinates": [
     138.90829481,
     -33.5291772
    ]
   },
   "properties": {
    "name": "3537 MOUNT BRYAN EAST ROAD MOUNT BRYAN 5418",
    "locID": "LOC000148406881",
    "tech": "SATELLITE",
    "upgrade": "NULL_NA",
    "gnaf_pid": "GASA_425360735"
   }
  },
  {
   "type": "Feature",
   "geometry": {
    "type": "Point",
    "coordinates": [
     138.89445667,
     -33.61462918
    ]
   },
   "properties": {
    "name": "LOT 263 BARRIER HIGHWAY MOUNT BRYAN 5418",
    "locID": "LOC000150766893",
    "tech": "SATELLITE",
    "upgrade": "NULL_NA",
    "gnaf_pid": "GASA_425388563"
   }
  },
  {
   "type": "Feature",
   "geometry": {
    "type": "Point",
    "coordinates": [
     138.89860239,
     -33.61792761
    ]
   },
   "properties": {
    "name": "LOT 94 BARRIER HIGHWAY MOUNT BRYAN 5418",
    "locID": "Ei45NCBCYXJyaWVyIEh3eSwgTW91bnQgQnJ5YW4gU0EgNTQxOCwgQXVzdHJhbGlhIjASLgoUChIJedtucOVNuWoRAnfjfZaHtxMQXioUChIJg6NUpOGGuWoRITdUckkaGqE",
    "tech": "SATELLITE",
    "upgrade": "UNKNOWN",
    "gnaf_pid": "GASA_425388564"
   }
  },
  {
   "type": "Feature",
   "geometry": {
    "type": "Point",
    "coordinates": [
     138.87372191,
     -33.61253249
    ]
   },
   "properties": {
    "name": "LOT 314 GOYDER HIGHWAY MOUNT BRYAN 5418",
    "locID": "EipHb3lkZXIgSHd5LCBNb3VudCBCcnlhbiBTQSA1NDE4LCBBdXN0cmFsaWEiLiosChQKEgmn3Sz1_5G7ahFbgXUP-CWYPxIUChIJ_xFovVJMuWoRANOOYlQ2AwQ",
    "tech": "SATELLITE",
    "upgrade": "UNKNOWN",
    "gnaf_pid": "GASA_425391000"
   }
  },
  {
   "type": "Feature",
   "geometry": {
    "type": "Point",
    "coordinates": [
     138.88160141,
     -33.48313703
    ]
   },
   "properties": {
    "name": "LOT 205 BOUNDARY ROAD WEST MOUNT BRYAN 5418",
    "locID": "EitCb3VuZGFyeSBSZCwgTW91bnQgQnJ5YW4gU0EgNTQxOCwgQXVzdHJhbGlhIi4qLAoUChIJo-OhgE1NuWoRjcg6mxZo2MISFAoSCf8RaL1STLlqEQDTjmJUNgME",
    "tech": "SATELLITE",
    "upgrade": "UNKNOWN",
    "gnaf_pid": "GASA_425500441"
   }
  },
  {
   "type": "Feature",
   "geometry": {
    "type": "Point",
    "coordinates": [
     138.91733158,
     -33.48208832
    ]
   },
   "properties": {
    "name": "LOT 56 BOUNDARY ROAD WEST MOUNT BRYAN 5418",
    "locID": "EitCb3VuZGFyeSBSZCwgTW91bnQgQnJ5YW4gU0EgNTQxOCwgQXVzdHJhbGlhIi4qLAoUChIJo-OhgE1NuWoRjcg6mxZo2MISFAoSCf8RaL1STLlqEQDTjmJUNgME",
    "tech": "SATELLITE",
    "upgrade": "UNKNOWN",
    "gnaf_pid": "GASA_425500443"
   }
  },
  {
   "type": "Feature",
   "geometry": {
    "type": "Point",
    "coordinates": [
     138.88966085,
     -33.57566992
    ]
   },
   "properties": {
    "name": "15 BELCUNDA ROAD MOUNT BRYAN 5418",
    "locID": "LOC100071972301",
    "tech": "SATELLITE",
    "upgrade": "NULL_NA",
    "gnaf_pid": "GASA_425506208"
   }
  },
  {
   "type": "Feature",
   "geometry": {
    "type": "Point",
    "coordinates": [
     138.89349591,
     -33.57641946
    ]
   },
   "properties": {
    "name": "53 BELCUNDA ROAD MOUNT BRYAN 5418",
    "locID": "LOC000148407667",
    "tech": "SATELLITE",
    "upgrade": "NULL_NA",
    "gnaf_pid": "GASA_425506209"
   }
  },
  {
   "type": "Feature",
   "geometry": {
    "type": "Point",
    "coordinates": [
     138.9004531,
     -33.53655504
    ]
   },
   "properties": {
    "name": "3649 MOUNT BRYAN EAST ROAD MOUNT BRYAN 5418",
    "locID": "LOC000148407842",
    "tech": "SATELLITE",
    "upgrade": "NULL_NA",
    "gnaf_pid": "GASA_425507066"
   }
  },
  {
   "type": "Feature",
   "geometry": {
    "type": "Point",
    "coordinates": [
     138.9046116,
     -33.53168898
    ]
   },
   "properties": {
    "name": "3715 MOUNT BRYAN EAST ROAD MOUNT BRYAN 5418",
    "locID": "LOC100078083991",
    "tech": "SATELLITE",
    "upgrade": "NULL_NA",
    "gnaf_pid": "GASA_425507067"
   }
  },
  {
   "type": "Feature",
   "geometry": {
    "type": "Point",
    "coordinates": [
     138.87440592,
     -33.56366378
    ]
   },
   "properties": {
    "name": "222 RANGE ROAD MOUNT BRYAN 5418",
    "locID": "LOC000148407890",
    "tech": "SATELLITE",
    "upgrade": "NULL_NA",
    "gnaf_pid": "GASA_425507262"
   }
  },
  {
   "type": "Feature",
   "geometry": {
    "type": "Point",
    "coordinates": [
     138.88029125,
     -33.57377114
    ]
   },
   "properties": {
    "name": "74 RANGE ROAD MOUNT BRYAN 5418",
    "locID": "LOC000148407900",
    "tech": "SATELLITE",
    "upgrade": "NULL_NA",
    "gnaf_pid": "GASA_425507263"
   }
  },
  {
   "type": "Feature",
   "geometry": {
    "type": "Point",
    "coordinates": [
     138.91167299,
     -33.49650478
    ]
   },
   "properties": {
    "name": "161 RAZORBACK ROAD MOUNT BRYAN 5418",
    "locID": "LOC000148407916",
    "tech": "SATELLITE",
    "upgrade": "NULL_NA",
    "gnaf_pid": "GASA_425507264"
   }
  },
  {
   "type": "Feature",
   "geometry": {
    "type": "Point",
    "coordinates": [
     138.88378289,
     -33.48772714
    ]
   },
   "properties": {
    "name": "119 PETHERTON ROAD MOUNT BRYAN 5418",
    "locID": "LOC000148408487",
    "tech": "SATELLITE",
    "upgrade": "NULL_NA",
    "gnaf_pid": "GASA_425534330"
   }
  },
  {
   "type": "Feature",
   "geometry": {
    "type": "Point",
    "coordinates": [
     138.87419061,
     -33.48535189
    ]
   },
   "properties": {
    "name": "213 PETHERTON ROAD MOUNT BRYAN 5418",
    "locID": "LOC000148408494",
    "tech": "SATELLITE",
    "upgrade": "NULL_NA",
    "gnaf_pid": "GASA_425534331"
   }
  },
  {
   "type": "Feature",
   "geometry": {
    "type": "Point",
    "coordinates": [
     138.90137004,
     -33.57780364
    ]
   },
   "properties": {
    "name": "128 BELCUNDA ROAD MOUNT BRYAN 5418",
    "locID": "ChIJxc4eQGtOuWoRayLL5UdMXYs",
    "tech": "SATELLITE",
    "upgrade": "UNKNOWN",
    "gnaf_pid": "GASA_425597924"
   }
  },
  {
   "type": "Feature",
   "geometry": {
    "type": "Point",
    "coordinates": [
     138.92425532,
     -33.52055292
    ]
   },
   "properties": {
    "name": "3349 MOUNT BRYAN EAST ROAD MOUNT BRYAN 5418",
    "locID": "LOC000148248406",
    "tech": "SATELLITE",
    "upgrade": "NULL_NA",
    "gnaf_pid": "GASA_425599304"
   }
  },
  {
   "type": "Feature",
   "geometry": {
    "type": "Point",
    "coordinates": [
     138.9046116,
     -33.53168898
    ]
   },
   "properties": {
    "name": "3571 MOUNT BRYAN EAST ROAD MOUNT BRYAN 5418",
    "locID": "ChIJlXC9_KNNuWoRc2y1Rtt8Ehk",
    "tech": "SATELLITE",
    "upgrade": "UNKNOWN",
    "gnaf_pid": "GASA_425599305"
   }
  },
  {
   "type": "Feature",
   "geometry": {
    "type": "Point",
    "coordinates": [
     138.95482464,
     -33.50429112
    ]
   },
   "properties": {
    "name": "580 RAZORBACK ROAD MOUNT BRYAN 5418",
    "locID": "LOC000148251975",
    "tech": "SATELLITE",
    "upgrade": "NULL_NA",
    "gnaf_pid": "GASA_425630112"
   }
  },
  {
   "type": "Feature",
   "geometry": {
    "type": "Point",
    "coordinates": [
     138.86231434,
     -33.56083768
    ]
   },
   "properties": {
    "name": "285A RANGE ROAD MOUNT BRYAN 5418",
    "locID": "ChIJp5pPkPtRuWoRXLG6Ug-MJjM",
    "tech": "SATELLITE",
    "upgrade": "UNKNOWN",
    "gnaf_pid": "GASA_719536288"
   }
  },
  {
   "type": "Feature",
   "geometry": {
    "type": "Point",
    "coordinates": [
     138.95910715,
     -33.47946778
    ]
   },
   "properties": {
    "name": "LOT 457 CATTLE STATION ROAD MOUNT BRYAN 5418",
    "locID": "EjU0NTcgQ2F0dGxlIFN0YXRpb24gUmQsIE1vdW50IEJyeWFuIFNBIDU0MTgsIEF1c3RyYWxpYSIxEi8KFAoSCavGXK8Vs75qESg6Y8OGTa5nEMkDKhQKEgnj2af-37K-ahE9FLegJIKgNw",
    "tech": "SATELLITE",
    "upgrade": "UNKNOWN",
    "gnaf_pid": "GASA_719858662"
   }
  },
  {
   "type": "Feature",
   "geometry": {
    "type": "Point",
    "coordinates": [
     138.94822453,
     -33.59093523
    ]
   },
   "properties": {
    "name": "LOT 462 BELCUNDA ROAD MOUNT BRYAN 5418",
    "locID": "Ei80NjIgQmVsY3VuZGEgUmQsIE1vdW50IEJyeWFuIFNBIDU0MTgsIEF1c3RyYWxpYSIxEi8KFAoSCVWKKDZkTrlqEUD3SklUNgMTEM4DKhQKEglz0wTJR065ahE1APM9CPIOYA",
    "tech": "SATELLITE",
    "upgrade": "UNKNOWN",
    "gnaf_pid": "GASA_719862663"
   }
  },
  {
   "type": "Feature",
   "geometry": {
    "type": "Point",
    "coordinates": [
     138.93343388,
     -33.48340943
    ]
   },
   "properties": {
    "name": "LOT 92 CATTLE STATION ROAD MOUNT BRYAN 5418",
    "locID": "LOC000148403229",
    "tech": "SATELLITE",
    "upgrade": "NULL_NA",
    "gnaf_pid": "GASA_719862825"
   }
  },
  {
   "type": "Feature",
   "geometry": {
    "type": "Point",
    "coordinates": [
     138.89615,
     -33.549489
    ]
   },
   "properties": {
    "name": "46 GOODE TERRACE MOUNT BRYAN 5418",
    "locID": "ChIJl8vo3OhNuWoRC-Ihm3_siRE",
    "tech": "SATELLITE",
    "upgrade": "UNKNOWN",
    "gnaf_pid": "GASA_719863841"
   }
  },
  {
   "type": "Feature",
   "geometry": {
    "type": "Point",
    "coordinates": [
     138.89023904,
     -33.55196007
    ]
   },
   "properties": {
    "name": "LOT 63 MOKOTA ROAD MOUNT BRYAN 5418",
    "locID": "Eiw2MyBNb2tvdGEgUmQsIE1vdW50IEJyeWFuIFNBIDU0MTgsIEF1c3RyYWxpYSIwEi4KFAoSCbvy1sHkTblqEeg-sKTqMck6ED8qFAoSCWNFZLL-TblqEQrVsPY9QbsO",
    "tech": "SATELLITE",
    "upgrade": "UNKNOWN",
    "gnaf_pid": "GASA_720072067"
   }
  },
  {
   "type": "Feature",
   "geometry": {
    "type": "Point",
    "coordinates": [
     138.882719,
     -33.487433
    ]
   },
   "properties": {
    "name": "131 PETHERTON ROAD MOUNT BRYAN 5418",
    "locID": "ChIJAY3M_lZNuWoRu3_ly7_gI9Q",
    "tech": "SATELLITE",
    "upgrade": "UNKNOWN",
    "gnaf_pid": "GASA_720703795"
   }
  },
  {
   "type": "Feature",
   "geometry": {
    "type": "Point",
    "coordinates": [
     138.89335302,
     -33.55037408
    ]
   },
   "properties": {
    "name": "LOT 4 RAILWAY TERRACE MOUNT BRYAN 5418",
    "locID": "ChIJE_9YS-RNuWoRIMTYnOvHioY",
    "tech": "SATELLITE",
    "upgrade": "UNKNOWN",
    "gnaf_pid": "GASA_720892809"
   }
  },
  {
   "type": "Feature",
   "geometry": {
    "type": "Point",
    "coordinates": [
     138.89345804,
     -33.55181345
    ]
   },
   "properties": {
    "name": "10 RAILWAY TERRACE MOUNT BRYAN 5418",
    "locID": "ChIJU8TIu-VNuWoRJAdWm_avebM",
    "tech": "SATELLITE",
    "upgrade": "UNKNOWN",
    "gnaf_pid": "GASA_721110006"
   }
  },
  {
   "type": "Feature",
   "geometry": {
    "type": "Point",
    "coordinates": [
     138.89117899,
     -33.55294263
    ]
   },
   "properties": {
    "name": "1 MOKOTA ROAD MOUNT BRYAN 5418",
    "locID": "LOC000109778551",
    "tech": "SATELLITE",
    "upgrade": "NULL_NA",
    "gnaf_pid": "GASA_721110053"
   }
  },
  {
   "type": "Feature",
   "geometry": {
    "type": "Point",
    "coordinates": [
     138.89126472,
     -33.55008919
    ]
   },
   "properties": {
    "name": "12 COLLINS LANE MOUNT BRYAN 5418",
    "locID": "ChIJqdiJQuVNuWoRglOsk8mjJPs",
    "tech": "SATELLITE",
    "upgrade": "UNKNOWN",
    "gnaf_pid": "GASA_721110065"
   }
  },
  {
   "type": "Feature",
   "geometry": {
    "type": "Point",
    "coordinates": [
     138.89369275,
     -33.55290838
    ]
   },
   "properties": {
    "name": "3 BOWMAN TERRACE MOUNT BRYAN 5418",
    "locID": "LOC000142367527",
    "tech": "SATELLITE",
    "upgrade": "NULL_NA",
    "gnaf_pid": "GASA_721110084"
   }
  },
  {
   "type": "Feature",
   "geometry": {
    "type": "Point",
    "coordinates": [
     138.89528224,
     -33.55143734
    ]
   },
   "properties": {
    "name": "19 GOODE TERRACE MOUNT BRYAN 5418",
    "locID": "ChIJ-eRQBuZNuWoRyE7f4SyxbXk",
    "tech": "SATELLITE",
    "upgrade": "UNKNOWN",
    "gnaf_pid": "GASA_721110207"
   }
  },
  {
   "type": "Feature",
   "geometry": {
    "type": "Point",
    "coordinates": [
     138.89470219,
     -33.55173199
    ]
   },
   "properties": {
    "name": "12 EAST TERRACE MOUNT BRYAN 5418",
    "locID": "ChIJIWXd5uVNuWoRHwwfqBJ0lHU",
    "tech": "SATELLITE",
    "upgrade": "UNKNOWN",
    "gnaf_pid": "GASA_721110209"
   }
  },
  {
   "type": "Feature",
   "geometry": {
    "type": "Point",
    "coordinates": [
     138.8945359,
     -33.5527225
    ]
   },
   "properties": {
    "name": "4 EAST TERRACE MOUNT BRYAN 5418",
    "locID": "ChIJHwgf0uVNuWoRaULLAuwM1Zk",
    "tech": "SATELLITE",
    "upgrade": "UNKNOWN",
    "gnaf_pid": "GASA_721110358"
   }
  },
  {
   "type": "Feature",
   "geometry": {
    "type": "Point",
    "coordinates": [
     138.89335249,
     -33.5522494
    ]
   },
   "properties": {
    "name": "6 RAILWAY TERRACE MOUNT BRYAN 5418",
    "locID": "LOC100078084574",
    "tech": "SATELLITE",
    "upgrade": "NULL_NA",
    "gnaf_pid": "GASA_721110374"
   }
  },
  {
   "type": "Feature",
   "geometry": {
    "type": "Point",
    "coordinates": [
     138.89138633,
     -33.55189739
    ]
   },
   "properties": {
    "name": "3 RAILWAY PARADE MOUNT BRYAN 5418",
    "locID": "ChIJowqL4ORNuWoR4vLpZJUWi4I",
    "tech": "SATELLITE",
    "upgrade": "UNKNOWN",
    "gnaf_pid": "GASA_721110487"
   }
  },
  {
   "type": "Feature",
   "geometry": {
    "type": "Point",
    "coordinates": [
     138.89456565,
     -33.55254389
    ]
   },
   "properties": {
    "name": "6 EAST TERRACE MOUNT BRYAN 5418",
    "locID": "ChIJWVhP0OVNuWoRXOUPMFLCfxQ",
    "tech": "SATELLITE",
    "upgrade": "UNKNOWN",
    "gnaf_pid": "GASA_721110582"
   }
  },
  {
   "type": "Feature",
   "geometry": {
    "type": "Point",
    "coordinates": [
     138.89426055,
     -33.54817142
    ]
   },
   "properties": {
    "name": "19 KELLETT STREET MOUNT BRYAN 5418",
    "locID": "ChIJC--S2O5NuWoResI3YhYdmzk",
    "tech": "SATELLITE",
    "upgrade": "UNKNOWN",
    "gnaf_pid": "GASA_721110661"
   }
  },
  {
   "type": "Feature",
   "geometry": {
    "type": "Point",
    "coordinates": [
     138.891534,
     -33.55092873
    ]
   },
   "properties": {
    "name": "13 RAILWAY PARADE MOUNT BRYAN 5418",
    "locID": "ChIJZwqeFuVNuWoRlVSqiSFi88E",
    "tech": "SATELLITE",
    "upgrade": "UNKNOWN",
    "gnaf_pid": "GASA_721111262"
   }
  },
  {
   "type": "Feature",
   "geometry": {
    "type": "Point",
    "coordinates": [
     138.8938543,
     -33.54948957
    ]
   },
   "properties": {
    "name": "2 GEORGE STREET MOUNT BRYAN 5418",
    "locID": "ChIJgZXpae9NuWoRqlc_9VJ8MH4",
    "tech": "SATELLITE",
    "upgrade": "UNKNOWN",
    "gnaf_pid": "GASA_721111281"
   }
  },
  {
   "type": "Feature",
   "geometry": {
    "type": "Point",
    "coordinates": [
     138.89289569,
     -33.55333478
    ]
   },
   "properties": {
    "name": "2 BOWMAN TERRACE MOUNT BRYAN 5418",
    "locID": "ChIJJzYoXORNuWoRru6_53Uo-ew",
    "tech": "SATELLITE",
    "upgrade": "UNKNOWN",
    "gnaf_pid": "GASA_721111296"
   }
  },
  {
   "type": "Feature",
   "geometry": {
    "type": "Point",
    "coordinates": [
     138.89400675,
     -33.54859123
    ]
   },
   "properties": {
    "name": "34 RAILWAY TERRACE MOUNT BRYAN 5418",
    "locID": "ChIJOd4DI-9NuWoRMxOLtt0L5b8",
    "tech": "SATELLITE",
    "upgrade": "UNKNOWN",
    "gnaf_pid": "GASA_721111323"
   }
  },
  {
   "type": "Feature",
   "geometry": {
    "type": "Point",
    "coordinates": [
     138.89435771,
     -33.54915861
    ]
   },
   "properties": {
    "name": "30 RAILWAY TERRACE MOUNT BRYAN 5418",
    "locID": "ChIJvamJOe9NuWoR4Ppvy4PpCAY",
    "tech": "SATELLITE",
    "upgrade": "UNKNOWN",
    "gnaf_pid": "GASA_721111331"
   }
  },
  {
   "type": "Feature",
   "geometry": {
    "type": "Point",
    "coordinates": [
     138.89488583,
     -33.55304649
    ]
   },
   "properties": {
    "name": "9 BOWMAN TERRACE MOUNT BRYAN 5418",
    "locID": "ChIJjfvu1OVNuWoRAwtRcnVrf8M",
    "tech": "SATELLITE",
    "upgrade": "UNKNOWN",
    "gnaf_pid": "GASA_721111394"
   }
  },
  {
   "type": "Feature",
   "geometry": {
    "type": "Point",
    "coordinates": [
     138.89352928,
     -33.55264563
    ]
   },
   "properties": {
    "name": "4 RAILWAY TERRACE MOUNT BRYAN 5418",
    "locID": "ChIJE_9YS-RNuWoRIMTYnOvHioY",
    "tech": "SATELLITE",
    "upgrade": "UNKNOWN",
    "gnaf_pid": "GASA_721111574"
   }
  },
  {
   "type": "Feature",
   "geometry": {
    "type": "Point",
    "coordinates": [
     138.8943652,
     -33.55296552
    ]
   },
   "properties": {
    "name": "5 BOWMAN TERRACE MOUNT BRYAN 5418",
    "locID": "LOC000142367527",
    "tech": "SATELLITE",
    "upgrade": "NULL_NA",
    "gnaf_pid": "GASA_721111842"
   }
  },
  {
   "type": "Feature",
   "geometry": {
    "type": "Point",
    "coordinates": [
     138.8916146,
     -33.54962934
    ]
   },
   "properties": {
    "name": "25 RAILWAY PARADE MOUNT BRYAN 5418",
    "locID": "ChIJa62GYeVNuWoREJbvqq9ar0A",
    "tech": "SATELLITE",
    "upgrade": "UNKNOWN",
    "gnaf_pid": "GASA_721111964"
   }
  },
  {
   "type": "Feature",
   "geometry": {
    "type": "Point",
    "coordinates": [
     138.8910534,
     -33.55216683
    ]
   },
   "properties": {
    "name": "2 MOKOTA ROAD MOUNT BRYAN 5418",
    "locID": "ChIJyXux3ORNuWoRytJu0tE4M4M",
    "tech": "SATELLITE",
    "upgrade": "UNKNOWN",
    "gnaf_pid": "GASA_721112005"
   }
  },
  {
   "type": "Feature",
   "geometry": {
    "type": "Point",
    "coordinates": [
     138.89181784,
     -33.54920137
    ]
   },
   "properties": {
    "name": "29 RAILWAY PARADE MOUNT BRYAN 5418",
    "locID": "ChIJPdQbj-9NuWoROM2zxALyrqk",
    "tech": "SATELLITE",
    "upgrade": "UNKNOWN",
    "gnaf_pid": "GASA_721112031"
   }
  },
  {
   "type": "Feature",
   "geometry": {
    "type": "Point",
    "coordinates": [
     138.89519327,
     -33.55197242
    ]
   },
   "properties": {
    "name": "11 GOODE TERRACE MOUNT BRYAN 5418",
    "locID": "ChIJM5_2CuZNuWoRuhgyQLqKbEE",
    "tech": "SATELLITE",
    "upgrade": "UNKNOWN",
    "gnaf_pid": "GASA_721112222"
   }
  },
  {
   "type": "Feature",
   "geometry": {
    "type": "Point",
    "coordinates": [
     138.89131525,
     -33.5514494
    ]
   },
   "properties": {
    "name": "5 RAILWAY PARADE MOUNT BRYAN 5418",
    "locID": "LOC000005262649",
    "tech": "SATELLITE",
    "upgrade": "NULL_NA",
    "gnaf_pid": "GASA_721112238"
   }
  },
  {
   "type": "Feature",
   "geometry": {
    "type": "Point",
    "coordinates": [
     138.89392744,
     -33.55031501
    ]
   },
   "properties": {
    "name": "19 EAST TERRACE MOUNT BRYAN 5418",
    "locID": "ChIJNxm3X-9NuWoRdu1sfDLVlTw",
    "tech": "SATELLITE",
    "upgrade": "UNKNOWN",
    "gnaf_pid": "GASA_721112240"
   }
  },
  {
   "type": "Feature",
   "geometry": {
    "type": "Point",
    "coordinates": [
     138.89517492,
     -33.55021256
    ]
   },
   "properties": {
    "name": "20 EAST TERRACE MOUNT BRYAN 5418",
    "locID": "ChIJ-W_gsuhNuWoRPwdS9qDwxYw",
    "tech": "SATELLITE",
    "upgrade": "UNKNOWN",
    "gnaf_pid": "GASA_721112270"
   }
  },
  {
   "type": "Feature",
   "geometry": {
    "type": "Point",
    "coordinates": [
     138.89462602,
     -33.55300625
    ]
   },
   "properties": {
    "name": "7 BOWMAN TERRACE MOUNT BRYAN 5418",
    "locID": "ChIJwW0aLeRNuWoR0Z0pXRcQ40s",
    "tech": "SATELLITE",
    "upgrade": "UNKNOWN",
    "gnaf_pid": "GASA_721112277"
   }
  },
  {
   "type": "Feature",
   "geometry": {
    "type": "Point",
    "coordinates": [
     138.89355363,
     -33.55126087
    ]
   },
   "properties": {
    "name": "14 RAILWAY TERRACE MOUNT BRYAN 5418",
    "locID": "ChIJI2kllOVNuWoRwTWp-yOD4uk",
    "tech": "SATELLITE",
    "upgrade": "UNKNOWN",
    "gnaf_pid": "GASA_721112434"
   }
  },
  {
   "type": "Feature",
   "geometry": {
    "type": "Point",
    "coordinates": [
     138.89400188,
     -33.55112063
    ]
   },
   "properties": {
    "name": "15 EAST TERRACE MOUNT BRYAN 5418",
    "locID": "LOC000109630376",
    "tech": "SATELLITE",
    "upgrade": "NULL_NA",
    "gnaf_pid": "GASA_721112549"
   }
  },
  {
   "type": "Feature",
   "geometry": {
    "type": "Point",
    "coordinates": [
     138.89441761,
     -33.54863999
    ]
   },
   "properties": {
    "name": "15 KELLETT STREET MOUNT BRYAN 5418",
    "locID": "ChIJxfTsJe9NuWoRMm_IwsAEYcY",
    "tech": "SATELLITE",
    "upgrade": "UNKNOWN",
    "gnaf_pid": "GASA_721112579"
   }
  },
  {
   "type": "Feature",
   "geometry": {
    "type": "Point",
    "coordinates": [
     138.89050867,
     -33.55051377
    ]
   },
   "properties": {
    "name": "25 COLLINS STREET MOUNT BRYAN 5418",
    "locID": "ChIJ8a0sMeVNuWoRzBpfVFVMOrw",
    "tech": "SATELLITE",
    "upgrade": "UNKNOWN",
    "gnaf_pid": "GASA_721112580"
   }
  },
  {
   "type": "Feature",
   "geometry": {
    "type": "Point",
    "coordinates": [
     138.89147372,
     -33.55038011
    ]
   },
   "properties": {
    "name": "10 COLLINS STREET MOUNT BRYAN 5418",
    "locID": "ChIJC_NKauVNuWoRxIU27FKtDTs",
    "tech": "SATELLITE",
    "upgrade": "UNKNOWN",
    "gnaf_pid": "GASA_721201066"
   }
  }
 ]
}