{
 "type": "FeatureCollection",
 "generated": "2024-04-30T03:16:52.086925",
 "suburb": "MOUNT OBSERVATION",
 "features": [
  {
   "type": "Feature",
   "geometry": {
    "type": "Point",
    "coordinates": [
     138.73893758,
     -35.34594022
    ]
   },
   "properties": {
    "name": "2069 BULL CREEK ROAD MOUNT OBSERVATION 5255",
    "locID": "LOC000130394743",
    "tech": "SATELLITE",
    "upgrade": "NULL_NA",
    "gnaf_pid": "GASA_424955100"
   }
  },
  {
   "type": "Feature",
   "geometry": {
    "type": "Point",
    "coordinates": [
     138.73540299,
     -35.3503087
    ]
   },
   "properties": {
    "name": "2127A BULL CREEK ROAD MOUNT OBSERVATION 5255",
    "locID": "LOC000150238320",
    "tech": "SATELLITE",
    "upgrade": "NULL_NA",
    "gnaf_pid": "GASA_425105971"
   }
  },
  {
   "type": "Feature",
   "geometry": {
    "type": "Point",
    "coordinates": [
     138.74999861,
     -35.35376678
    ]
   },
   "properties": {
    "name": "2127C BULL CREEK ROAD MOUNT OBSERVATION 5255",
    "locID": "LOC000152650316",
    "tech": "SATELLITE",
    "upgrade": "NULL_NA",
    "gnaf_pid": "GASA_425105973"
   }
  },
  {
   "type": "Feature",
   "geometry": {
    "type": "Point",
    "coordinates": [
     138.7354,
     -35.350296
    ]
   },
   "properties": {
    "name": "2127 BULL CREEK ROAD MOUNT OBSERVATION 5255",
    "locID": "LOC000183674894",
    "tech": "WIRELESS",
    "upgrade": "NULL_NA",
    "gnaf_pid": "GASA_425353105"
   }
  },
  {
   "type": "Feature",
   "geometry": {
    "type": "Point",
    "coordinates": [
     138.74828331,
     -35.34245451
    ]
   },
   "properties": {
    "name": "LOT 1 BULL CREEK ROAD MOUNT OBSERVATION 5255",
    "locID": "LOC000110383556",
    "tech": "WIRELESS",
    "upgrade": "NULL_NA",
    "gnaf_pid": "GASA_425719502"
   }
  },
  {
   "type": "Feature",
   "geometry": {
    "type": "Point",
    "coordinates": [
     138.75411502,
     -35.33432216
    ]
   },
   "properties": {
    "name": "LOT 92 BULL CREEK ROAD MOUNT OBSERVATION 5255",
    "locID": "LOC000130394743",
    "tech": "SATELLITE",
    "upgrade": "NULL_NA",
    "gnaf_pid": "GASA_719776199"
   }
  },
  {
   "type": "Feature",
   "geometry": {
    "type": "Point",
    "coordinates": [
     138.75079905,
     -35.35384839
    ]
   },
   "properties": {
    "name": "LOT 534 BULL CREEK ROAD MOUNT OBSERVATION 5255",
    "locID": "LOC000130394743",
    "tech": "SATELLITE",
    "upgrade": "NULL_NA",
    "gnaf_pid": "GASA_719776675"
   }
  },
  {
   "type": "Feature",
   "geometry": {
    "type": "Point",
    "coordinates": [
     138.75684776,
     -35.34890966
    ]
   },
   "properties": {
    "name": "LOT 6 BULL CREEK ROAD MOUNT OBSERVATION 5255",
    "locID": "LOC000110383556",
    "tech": "WIRELESS",
    "upgrade": "NULL_NA",
    "gnaf_pid": "GASA_719777351"
   }
  },
  {
   "type": "Feature",
   "geometry": {
    "type": "Point",
    "coordinates": [
     138.777741,
     -35.358428
    ]
   },
   "properties": {
    "name": "295D BRAESIDE ROAD MOUNT OBSERVATION 5255",
    "locID": "LOC000153099073",
    "tech": "WIRELESS",
    "upgrade": "NULL_NA",
    "gnaf_pid": "GASA_720415395"
   }
  }
 ]
}