{
 "type": "FeatureCollection",
 "generated": "2023-10-22T05:17:59.280959",
 "suburb": "MOUNT WEDGE",
 "features": [
  {
   "type": "Feature",
   "geometry": {
    "type": "Point",
    "coordinates": [
     135.16610226,
     -33.47144325
    ]
   },
   "properties": {
    "name": "LOT 72 HOODS LANE MOUNT WEDGE 5670",
    "locID": "EihIb29kcyBMbiwgTW91bnQgV2VkZ2UgU0EgNTY3MCwgQXVzdHJhbGlhIi4qLAoUChIJN3OGf6U6qGoRRnZY6HirnssSFAoSCUUqQ0ryI6hqEeDwjmJUNgME",
    "tech": "SATELLITE",
    "upgrade": "UNKNOWN",
    "gnaf_pid": "GASA_424308448"
   }
  },
  {
   "type": "Feature",
   "geometry": {
    "type": "Point",
    "coordinates": [
     134.96960609,
     -33.38809191
    ]
   },
   "properties": {
    "name": "LOT 172 KOORINGAL ROAD MOUNT WEDGE 5670",
    "locID": "LOC000148407389",
    "tech": "SATELLITE",
    "upgrade": "NULL_NA",
    "gnaf_pid": "GASA_424312192"
   }
  },
  {
   "type": "Feature",
   "geometry": {
    "type": "Point",
    "coordinates": [
     135.10785139,
     -33.41600629
    ]
   },
   "properties": {
    "name": "LOT 136 LARNE DRIVE MOUNT WEDGE 5670",
    "locID": "LOC000131732059",
    "tech": "SATELLITE",
    "upgrade": "NULL_NA",
    "gnaf_pid": "GASA_424521796"
   }
  },
  {
   "type": "Feature",
   "geometry": {
    "type": "Point",
    "coordinates": [
     135.07576985,
     -33.34141539
    ]
   },
   "properties": {
    "name": "LOT 202 LARNE DRIVE MOUNT WEDGE 5670",
    "locID": "LOC000131732059",
    "tech": "SATELLITE",
    "upgrade": "NULL_NA",
    "gnaf_pid": "GASA_424521798"
   }
  },
  {
   "type": "Feature",
   "geometry": {
    "type": "Point",
    "coordinates": [
     135.1347462,
     -33.50015992
    ]
   },
   "properties": {
    "name": "LOT 218 BIRDSEYE HIGHWAY MOUNT WEDGE 5670",
    "locID": "EjAyMTggQmlyZHNleWUgSHd5LCBNb3VudCBXZWRnZSBTQSA1NjcwLCBBdXN0cmFsaWEiMRIvChQKEgmJ3oEJdDCoahH_C8fYGLTYXhDaASoUChIJo4R7eELUrCoRqL_1x88-YXM",
    "tech": "SATELLITE",
    "upgrade": "UNKNOWN",
    "gnaf_pid": "GASA_424732536"
   }
  },
  {
   "type": "Feature",
   "geometry": {
    "type": "Point",
    "coordinates": [
     135.13954811,
     -33.50057582
    ]
   },
   "properties": {
    "name": "16936 BIRDSEYE HIGHWAY MOUNT WEDGE 5670",
    "locID": "LOC000131661936",
    "tech": "SATELLITE",
    "upgrade": "NULL_NA",
    "gnaf_pid": "GASA_424923134"
   }
  },
  {
   "type": "Feature",
   "geometry": {
    "type": "Point",
    "coordinates": [
     135.15904478,
     -33.48427008
    ]
   },
   "properties": {
    "name": "186 HOODS LANE MOUNT WEDGE 5670",
    "locID": "LOC000131610057",
    "tech": "SATELLITE",
    "upgrade": "NULL_NA",
    "gnaf_pid": "GASA_424924397"
   }
  },
  {
   "type": "Feature",
   "geometry": {
    "type": "Point",
    "coordinates": [
     135.09722168,
     -33.36750412
    ]
   },
   "properties": {
    "name": "1179 LARNE DRIVE MOUNT WEDGE 5670",
    "locID": "ChIJMdo-abkjqGoRqWZHfBIlcKc",
    "tech": "SATELLITE",
    "upgrade": "UNKNOWN",
    "gnaf_pid": "GASA_424924747"
   }
  },
  {
   "type": "Feature",
   "geometry": {
    "type": "Point",
    "coordinates": [
     135.09738327,
     -33.36748487
    ]
   },
   "properties": {
    "name": "1180 LARNE DRIVE MOUNT WEDGE 5670",
    "locID": "LOC100078081597",
    "tech": "SATELLITE",
    "upgrade": "NULL_NA",
    "gnaf_pid": "GASA_424924748"
   }
  },
  {
   "type": "Feature",
   "geometry": {
    "type": "Point",
    "coordinates": [
     135.08527483,
     -33.44002983
    ]
   },
   "properties": {
    "name": "352 LARNE DRIVE MOUNT WEDGE 5670",
    "locID": "LOC000131732059",
    "tech": "SATELLITE",
    "upgrade": "NULL_NA",
    "gnaf_pid": "GASA_424924749"
   }
  },
  {
   "type": "Feature",
   "geometry": {
    "type": "Point",
    "coordinates": [
     135.12386466,
     -33.49164811
    ]
   },
   "properties": {
    "name": "2139 ROCKY VALLEY ROAD MOUNT WEDGE 5670",
    "locID": "ChIJhWKKTJYvqGoRpDa7hW0GwEo",
    "tech": "SATELLITE",
    "upgrade": "UNKNOWN",
    "gnaf_pid": "GASA_424925557"
   }
  },
  {
   "type": "Feature",
   "geometry": {
    "type": "Point",
    "coordinates": [
     135.15881546,
     -33.46760326
    ]
   },
   "properties": {
    "name": "399 KYANCUTTA-MOUNT WEDGE ROAD MOUNT WEDGE 5670",
    "locID": "LOC000148249539",
    "tech": "SATELLITE",
    "upgrade": "NULL_NA",
    "gnaf_pid": "GASA_425139023"
   }
  },
  {
   "type": "Feature",
   "geometry": {
    "type": "Point",
    "coordinates": [
     134.96701747,
     -33.41127699
    ]
   },
   "properties": {
    "name": "470 KOORINGAL ROAD MOUNT WEDGE 5670",
    "locID": "LOC000148407389",
    "tech": "SATELLITE",
    "upgrade": "NULL_NA",
    "gnaf_pid": "GASA_425502274"
   }
  },
  {
   "type": "Feature",
   "geometry": {
    "type": "Point",
    "coordinates": [
     134.9739066,
     -33.44718018
    ]
   },
   "properties": {
    "name": "60 KOORINGAL ROAD MOUNT WEDGE 5670",
    "locID": "ChIJqclhIm0trSoRuBuCIebGmww",
    "tech": "SATELLITE",
    "upgrade": "UNKNOWN",
    "gnaf_pid": "GASA_425509666"
   }
  },
  {
   "type": "Feature",
   "geometry": {
    "type": "Point",
    "coordinates": [
     134.97542008,
     -33.35018353
    ]
   },
   "properties": {
    "name": "LOT 129 KOORINGAL ROAD MOUNT WEDGE 5670",
    "locID": "LOC000148407389",
    "tech": "SATELLITE",
    "upgrade": "NULL_NA",
    "gnaf_pid": "GASA_425722020"
   }
  },
  {
   "type": "Feature",
   "geometry": {
    "type": "Point",
    "coordinates": [
     134.99268638,
     -33.41149306
    ]
   },
   "properties": {
    "name": "LOT 175 KOORINGAL ROAD MOUNT WEDGE 5670",
    "locID": "LOC000148407389",
    "tech": "SATELLITE",
    "upgrade": "NULL_NA",
    "gnaf_pid": "GASA_425722021"
   }
  },
  {
   "type": "Feature",
   "geometry": {
    "type": "Point",
    "coordinates": [
     134.97119704,
     -33.31688841
    ]
   },
   "properties": {
    "name": "LOT 277 MOUNT DAMPER ROAD MOUNT WEDGE 5670",
    "locID": "Ei0yNzcgTW91bnQgRGFtcGVyIFJkLCBUYWxpYSBTQSA1NjcwLCBBdXN0cmFsaWEiMRIvChQKEgnRx46SHDatKhEd4l7i6ztE8BCVAioUChIJe_qkSmoCqGoRu3DQPuGo--A",
    "tech": "SATELLITE",
    "upgrade": "UNKNOWN",
    "gnaf_pid": "GASA_425722809"
   }
  },
  {
   "type": "Feature",
   "geometry": {
    "type": "Point",
    "coordinates": [
     135.14349992,
     -33.39063885
    ]
   },
   "properties": {
    "name": "LOT 130 WOMBAT FLAT ROAD MOUNT WEDGE 5670",
    "locID": "EixXb21iYXQgRmxhdCBSZCwgQ29vbGlsbGllIFNBIDU2NzAsIEF1c3RyYWxpYSIuKiwKFAoSCc-PKPyfPKhqEQRJ6nbfw1HuEhQKEgmNxz-VVEeoahHgGI9iVDYDBA",
    "tech": "SATELLITE",
    "upgrade": "UNKNOWN",
    "gnaf_pid": "GASA_425803106"
   }
  },
  {
   "type": "Feature",
   "geometry": {
    "type": "Point",
    "coordinates": [
     135.06105158,
     -33.46578963
    ]
   },
   "properties": {
    "name": "60 ROCKY VALLEY ROAD MOUNT WEDGE 5670",
    "locID": "ChIJuRwaMccoqGoRdiK2oO_PjdQ",
    "tech": "SATELLITE",
    "upgrade": "UNKNOWN",
    "gnaf_pid": "GASA_719475644"
   }
  },
  {
   "type": "Feature",
   "geometry": {
    "type": "Point",
    "coordinates": [
     135.02971212,
     -33.41032476
    ]
   },
   "properties": {
    "name": "LOT 214 ROCKY VALLEY ROAD MOUNT WEDGE 5670",
    "locID": "Ei4yMTQgUm9ja3kgVmFsbGV5IFJkLCBDb2x0b24gU0EgNTY3MCwgQXVzdHJhbGlhIjESLwoUChIJYXp2YsctrSoRpH1-MAbK2TEQ1gEqFAoSCXcn-J-6KahqEbAYXGnzcJi5",
    "tech": "SATELLITE",
    "upgrade": "UNKNOWN",
    "gnaf_pid": "GASA_720299886"
   }
  },
  {
   "type": "Feature",
   "geometry": {
    "type": "Point",
    "coordinates": [
     135.16847817,
     -33.52712961
    ]
   },
   "properties": {
    "name": "LOT 157 BIRDSEYE HIGHWAY MOUNT WEDGE 5670",
    "locID": "EjAxNTcgQmlyZHNleWUgSHd5LCBNb3VudCBXZWRnZSBTQSA1NjcwLCBBdXN0cmFsaWEiMRIvChQKEgmJ3oEJdDCoahH_C8fYGLTYXhCdASoUChIJo4R7eELUrCoRqL_1x88-YXM",
    "tech": "SATELLITE",
    "upgrade": "UNKNOWN",
    "gnaf_pid": "GASA_720300611"
   }
  },
  {
   "type": "Feature",
   "geometry": {
    "type": "Point",
    "coordinates": [
     135.11161413,
     -33.30749207
    ]
   },
   "properties": {
    "name": "LOT 102 LARNE DRIVE MOUNT WEDGE 5670",
    "locID": "LOC000131732059",
    "tech": "SATELLITE",
    "upgrade": "NULL_NA",
    "gnaf_pid": "GASA_720300648"
   }
  },
  {
   "type": "Feature",
   "geometry": {
    "type": "Point",
    "coordinates": [
     135.03037556,
     -33.29724471
    ]
   },
   "properties": {
    "name": "LOT 101 MOUNT DAMPER ROAD MOUNT WEDGE 5670",
    "locID": "Ei0xMDEgTW91bnQgRGFtcGVyIFJkLCBUYWxpYSBTQSA1NjcwLCBBdXN0cmFsaWEiMBIuChQKEgk93pQrMEitKhGgJkBJVDYDExBlKhQKEgl7-qRKagKoahG7cNA-4aj74A",
    "tech": "SATELLITE",
    "upgrade": "UNKNOWN",
    "gnaf_pid": "GASA_720302672"
   }
  },
  {
   "type": "Feature",
   "geometry": {
    "type": "Point",
    "coordinates": [
     135.14272241,
     -33.47542414
    ]
   },
   "properties": {
    "name": "LOT 193 KYANCUTTA-MOUNT WEDGE ROAD MOUNT WEDGE 5670",
    "locID": "LOC000148249539",
    "tech": "SATELLITE",
    "upgrade": "NULL_NA",
    "gnaf_pid": "GASA_720303642"
   }
  },
  {
   "type": "Feature",
   "geometry": {
    "type": "Point",
    "coordinates": [
     135.14504016,
     -33.5006992
    ]
   },
   "properties": {
    "name": "LOT 180 BIRDSEYE HIGHWAY MOUNT WEDGE 5670",
    "locID": "EjAxODAgQmlyZHNleWUgSHd5LCBNb3VudCBXZWRnZSBTQSA1NjcwLCBBdXN0cmFsaWEiMRIvChQKEgmJ3oEJdDCoahH_C8fYGLTYXhC0ASoUChIJo4R7eELUrCoRqL_1x88-YXM",
    "tech": "SATELLITE",
    "upgrade": "UNKNOWN",
    "gnaf_pid": "GASA_720304121"
   }
  },
  {
   "type": "Feature",
   "geometry": {
    "type": "Point",
    "coordinates": [
     135.15542274,
     -33.48031812
    ]
   },
   "properties": {
    "name": "LOT 295 HOODS LANE MOUNT WEDGE 5670",
    "locID": "EiwyOTUgSG9vZHMgTG4sIE1vdW50IFdlZGdlIFNBIDU2NzAsIEF1c3RyYWxpYSIxEi8KFAoSCYPx2f-lOqhqERBJJbuye3QqEKcCKhQKEgk3c4Z_pTqoahFGdljoeKueyw",
    "tech": "SATELLITE",
    "upgrade": "UNKNOWN",
    "gnaf_pid": "GASA_720304227"
   }
  },
  {
   "type": "Feature",
   "geometry": {
    "type": "Point",
    "coordinates": [
     135.13957135,
     -33.52697154
    ]
   },
   "properties": {
    "name": "LOT 142 BIRDSEYE HIGHWAY MOUNT WEDGE 5670",
    "locID": "EjAxNDIgQmlyZHNleWUgSHd5LCBNb3VudCBXZWRnZSBTQSA1NjcwLCBBdXN0cmFsaWEiMRIvChQKEgmJ3oEJdDCoahH_C8fYGLTYXhCOASoUChIJo4R7eELUrCoRqL_1x88-YXM",
    "tech": "SATELLITE",
    "upgrade": "UNKNOWN",
    "gnaf_pid": "GASA_721276390"
   }
  }
 ]
}