{
 "type": "FeatureCollection",
 "generated": "2023-10-22T05:11:22.759334",
 "suburb": "MOUNT OBSERVATION",
 "features": [
  {
   "type": "Feature",
   "geometry": {
    "type": "Point",
    "coordinates": [
     138.74977743,
     -35.33221114
    ]
   },
   "properties": {
    "name": "1877 BULL CREEK ROAD MOUNT OBSERVATION 5255",
    "locID": "ChIJXbeGcorStmoRiRXV5WYht6c",
    "tech": "SATELLITE",
    "upgrade": "UNKNOWN",
    "gnaf_pid": "GASA_424955099"
   }
  },
  {
   "type": "Feature",
   "geometry": {
    "type": "Point",
    "coordinates": [
     138.73893758,
     -35.34594022
    ]
   },
   "properties": {
    "name": "2069 BULL CREEK ROAD MOUNT OBSERVATION 5255",
    "locID": "LOC000130394743",
    "tech": "SATELLITE",
    "upgrade": "NULL_NA",
    "gnaf_pid": "GASA_424955100"
   }
  },
  {
   "type": "Feature",
   "geometry": {
    "type": "Point",
    "coordinates": [
     138.76599529,
     -35.35590308
    ]
   },
   "properties": {
    "name": "295A BRAESIDE ROAD MOUNT OBSERVATION 5255",
    "locID": "ChIJEzKUkIbNtmoR_AIQQSierHQ",
    "tech": "WIRELESS",
    "upgrade": "UNKNOWN",
    "gnaf_pid": "GASA_425105818"
   }
  },
  {
   "type": "Feature",
   "geometry": {
    "type": "Point",
    "coordinates": [
     138.76111944,
     -35.35489311
    ]
   },
   "properties": {
    "name": "295B BRAESIDE ROAD MOUNT OBSERVATION 5255",
    "locID": "ChIJj-FWgHjStmoRfwE1RWcR56c",
    "tech": "WIRELESS",
    "upgrade": "UNKNOWN",
    "gnaf_pid": "GASA_425105819"
   }
  },
  {
   "type": "Feature",
   "geometry": {
    "type": "Point",
    "coordinates": [
     138.76062084,
     -35.35527678
    ]
   },
   "properties": {
    "name": "295C BRAESIDE ROAD MOUNT OBSERVATION 5255",
    "locID": "ChIJ61JOIoLNtmoRjD8QDJ_m6-I",
    "tech": "SATELLITE",
    "upgrade": "UNKNOWN",
    "gnaf_pid": "GASA_425105820"
   }
  },
  {
   "type": "Feature",
   "geometry": {
    "type": "Point",
    "coordinates": [
     138.74338612,
     -35.33888153
    ]
   },
   "properties": {
    "name": "1979 BULL CREEK ROAD MOUNT OBSERVATION 5255",
    "locID": "ChIJY6OMu57StmoRH2BZJblgAag",
    "tech": "SATELLITE",
    "upgrade": "UNKNOWN",
    "gnaf_pid": "GASA_425105970"
   }
  },
  {
   "type": "Feature",
   "geometry": {
    "type": "Point",
    "coordinates": [
     138.73540299,
     -35.3503087
    ]
   },
   "properties": {
    "name": "2127A BULL CREEK ROAD MOUNT OBSERVATION 5255",
    "locID": "LOC000150238320",
    "tech": "SATELLITE",
    "upgrade": "NULL_NA",
    "gnaf_pid": "GASA_425105971"
   }
  },
  {
   "type": "Feature",
   "geometry": {
    "type": "Point",
    "coordinates": [
     138.74638897,
     -35.35324992
    ]
   },
   "properties": {
    "name": "2127B BULL CREEK ROAD MOUNT OBSERVATION 5255",
    "locID": "ChIJdTYJfG_NtmoRmWZSMM9iONc",
    "tech": "SATELLITE",
    "upgrade": "UNKNOWN",
    "gnaf_pid": "GASA_425105972"
   }
  },
  {
   "type": "Feature",
   "geometry": {
    "type": "Point",
    "coordinates": [
     138.74999861,
     -35.35376678
    ]
   },
   "properties": {
    "name": "2127C BULL CREEK ROAD MOUNT OBSERVATION 5255",
    "locID": "LOC000152650316",
    "tech": "SATELLITE",
    "upgrade": "NULL_NA",
    "gnaf_pid": "GASA_425105973"
   }
  },
  {
   "type": "Feature",
   "geometry": {
    "type": "Point",
    "coordinates": [
     138.75007633,
     -35.35374238
    ]
   },
   "properties": {
    "name": "2127D BULL CREEK ROAD MOUNT OBSERVATION 5255",
    "locID": "ChIJubUW7HrNtmoRHKV7HJvAqkc",
    "tech": "SATELLITE",
    "upgrade": "UNKNOWN",
    "gnaf_pid": "GASA_425105974"
   }
  },
  {
   "type": "Feature",
   "geometry": {
    "type": "Point",
    "coordinates": [
     138.7354,
     -35.350296
    ]
   },
   "properties": {
    "name": "2127 BULL CREEK ROAD MOUNT OBSERVATION 5255",
    "locID": "LOC000183674894",
    "tech": "WIRELESS",
    "upgrade": "NULL_NA",
    "gnaf_pid": "GASA_425353105"
   }
  },
  {
   "type": "Feature",
   "geometry": {
    "type": "Point",
    "coordinates": [
     138.74828331,
     -35.34245451
    ]
   },
   "properties": {
    "name": "LOT 1 BULL CREEK ROAD MOUNT OBSERVATION 5255",
    "locID": "LOC000110383556",
    "tech": "WIRELESS",
    "upgrade": "NULL_NA",
    "gnaf_pid": "GASA_425719502"
   }
  },
  {
   "type": "Feature",
   "geometry": {
    "type": "Point",
    "coordinates": [
     138.75411502,
     -35.33432216
    ]
   },
   "properties": {
    "name": "LOT 92 BULL CREEK ROAD MOUNT OBSERVATION 5255",
    "locID": "LOC000130394743",
    "tech": "SATELLITE",
    "upgrade": "NULL_NA",
    "gnaf_pid": "GASA_719776199"
   }
  },
  {
   "type": "Feature",
   "geometry": {
    "type": "Point",
    "coordinates": [
     138.75079905,
     -35.35384839
    ]
   },
   "properties": {
    "name": "LOT 534 BULL CREEK ROAD MOUNT OBSERVATION 5255",
    "locID": "LOC000130394743",
    "tech": "SATELLITE",
    "upgrade": "NULL_NA",
    "gnaf_pid": "GASA_719776675"
   }
  },
  {
   "type": "Feature",
   "geometry": {
    "type": "Point",
    "coordinates": [
     138.75684776,
     -35.34890966
    ]
   },
   "properties": {
    "name": "LOT 6 BULL CREEK ROAD MOUNT OBSERVATION 5255",
    "locID": "LOC000110383556",
    "tech": "WIRELESS",
    "upgrade": "NULL_NA",
    "gnaf_pid": "GASA_719777351"
   }
  },
  {
   "type": "Feature",
   "geometry": {
    "type": "Point",
    "coordinates": [
     138.777741,
     -35.358428
    ]
   },
   "properties": {
    "name": "295D BRAESIDE ROAD MOUNT OBSERVATION 5255",
    "locID": "LOC000153099073",
    "tech": "WIRELESS",
    "upgrade": "NULL_NA",
    "gnaf_pid": "GASA_720415395"
   }
  },
  {
   "type": "Feature",
   "geometry": {
    "type": "Point",
    "coordinates": [
     138.75643387,
     -35.32928386
    ]
   },
   "properties": {
    "name": "1877A BULL CREEK ROAD MOUNT OBSERVATION 5255",
    "locID": "ChIJXbeGcorStmoRiRXV5WYht6c",
    "tech": "SATELLITE",
    "upgrade": "UNKNOWN",
    "gnaf_pid": "GASA_721004778"
   }
  }
 ]
}