{
 "type": "FeatureCollection",
 "generated": "2024-07-23T01:01:49.439532",
 "suburb": "PARATOO",
 "features": [
  {
   "type": "Feature",
   "geometry": {
    "type": "Point",
    "coordinates": [
     139.2918134,
     -32.7047562
    ]
   },
   "properties": {
    "name": "LOT 13 OLD WHYDOWN ROAD PARATOO 5422",
    "locID": "LOC000131381932",
    "tech": "SATELLITE",
    "upgrade": "NULL_NA",
    "gnaf_pid": "GASA_424398541",
    "tech_change_status": "Not Planned"
   }
  },
  {
   "type": "Feature",
   "geometry": {
    "type": "Point",
    "coordinates": [
     139.21970293,
     -32.71418306
    ]
   },
   "properties": {
    "name": "LOT 315 ORROROO-PARATOO ROAD PARATOO 5422",
    "locID": "LOC000114315452",
    "tech": "SATELLITE",
    "upgrade": "NULL_NA",
    "gnaf_pid": "GASA_424398708",
    "tech_change_status": "Not Planned"
   }
  },
  {
   "type": "Feature",
   "geometry": {
    "type": "Point",
    "coordinates": [
     139.12043447,
     -32.72535096
    ]
   },
   "properties": {
    "name": "LOT 318 ORROROO-PARATOO ROAD PARATOO 5422",
    "locID": "LOC000114315452",
    "tech": "SATELLITE",
    "upgrade": "NULL_NA",
    "gnaf_pid": "GASA_424398709",
    "tech_change_status": "Not Planned"
   }
  },
  {
   "type": "Feature",
   "geometry": {
    "type": "Point",
    "coordinates": [
     139.20719832,
     -32.73982724
    ]
   },
   "properties": {
    "name": "LOT 10 WHITES WELL ROAD PARATOO 5422",
    "locID": "LOC000131381921",
    "tech": "SATELLITE",
    "upgrade": "NULL_NA",
    "gnaf_pid": "GASA_424408751",
    "tech_change_status": "Not Planned"
   }
  },
  {
   "type": "Feature",
   "geometry": {
    "type": "Point",
    "coordinates": [
     139.19556956,
     -32.62666441
    ]
   },
   "properties": {
    "name": "319 MCCOYS WELL ROAD PARATOO 5422",
    "locID": "LOC000131386521",
    "tech": "SATELLITE",
    "upgrade": "NULL_NA",
    "gnaf_pid": "GASA_424903079",
    "tech_change_status": "Not Planned"
   }
  },
  {
   "type": "Feature",
   "geometry": {
    "type": "Point",
    "coordinates": [
     139.25749747,
     -32.70451247
    ]
   },
   "properties": {
    "name": "1071 OLD WHYDOWN ROAD PARATOO 5422",
    "locID": "LOC000131381932",
    "tech": "SATELLITE",
    "upgrade": "NULL_NA",
    "gnaf_pid": "GASA_424903547",
    "tech_change_status": "Not Planned"
   }
  },
  {
   "type": "Feature",
   "geometry": {
    "type": "Point",
    "coordinates": [
     139.21680365,
     -32.70886608
    ]
   },
   "properties": {
    "name": "1029 WHITES WELL ROAD PARATOO 5422",
    "locID": "LOC000131381921",
    "tech": "SATELLITE",
    "upgrade": "NULL_NA",
    "gnaf_pid": "GASA_425070434",
    "tech_change_status": "Not Planned"
   }
  },
  {
   "type": "Feature",
   "geometry": {
    "type": "Point",
    "coordinates": [
     139.29924533,
     -32.68962966
    ]
   },
   "properties": {
    "name": "LOT 312 ORROROO-PARATOO ROAD PARATOO 5422",
    "locID": "LOC000114315452",
    "tech": "SATELLITE",
    "upgrade": "NULL_NA",
    "gnaf_pid": "GASA_720185516",
    "tech_change_status": "Not Planned"
   }
  },
  {
   "type": "Feature",
   "geometry": {
    "type": "Point",
    "coordinates": [
     139.3330496,
     -32.73255608
    ]
   },
   "properties": {
    "name": "LOT 288 BARRIER HIGHWAY PARATOO 5422",
    "locID": "LOC000116322186",
    "tech": "SATELLITE",
    "upgrade": "NULL_NA",
    "gnaf_pid": "GASA_720187669",
    "tech_change_status": "Not Planned"
   }
  },
  {
   "type": "Feature",
   "geometry": {
    "type": "Point",
    "coordinates": [
     139.30032725,
     -32.69792848
    ]
   },
   "properties": {
    "name": "LOT 313 ORROROO-PARATOO ROAD PARATOO 5422",
    "locID": "LOC000114315452",
    "tech": "SATELLITE",
    "upgrade": "NULL_NA",
    "gnaf_pid": "GASA_720189199",
    "tech_change_status": "Not Planned"
   }
  },
  {
   "type": "Feature",
   "geometry": {
    "type": "Point",
    "coordinates": [
     139.34106236,
     -32.67797969
    ]
   },
   "properties": {
    "name": "LOT 100 ORROROO-PARATOO ROAD PARATOO 5422",
    "locID": "LOC000114315452",
    "tech": "SATELLITE",
    "upgrade": "NULL_NA",
    "gnaf_pid": "GASA_720189286",
    "tech_change_status": "Not Planned"
   }
  },
  {
   "type": "Feature",
   "geometry": {
    "type": "Point",
    "coordinates": [
     139.33539147,
     -32.7327069
    ]
   },
   "properties": {
    "name": "LOT 17 BARRIER HIGHWAY PARATOO 5422",
    "locID": "LOC000116322186",
    "tech": "SATELLITE",
    "upgrade": "NULL_NA",
    "gnaf_pid": "GASA_720190233",
    "tech_change_status": "Not Planned"
   }
  }
 ]
}