{
 "type": "FeatureCollection",
 "generated": "2023-10-22T07:25:19.166995",
 "suburb": "PARAFIELD",
 "features": [
  {
   "type": "Feature",
   "geometry": {
    "type": "Point",
    "coordinates": [
     138.64349646,
     -34.79411661
    ]
   },
   "properties": {
    "name": "SHOP 1, 11 LAWRENCE HARGRAVE WAY PARAFIELD 5106",
    "locID": "LOC000008460670",
    "tech": "FTTP",
    "upgrade": "NULL_NA",
    "gnaf_pid": "GASA_416818551"
   }
  },
  {
   "type": "Feature",
   "geometry": {
    "type": "Point",
    "coordinates": [
     138.64349646,
     -34.79411661
    ]
   },
   "properties": {
    "name": "SHOP 2, 11 LAWRENCE HARGRAVE WAY PARAFIELD 5106",
    "locID": "LOC000008460670",
    "tech": "FTTP",
    "upgrade": "NULL_NA",
    "gnaf_pid": "GASA_416818552"
   }
  },
  {
   "type": "Feature",
   "geometry": {
    "type": "Point",
    "coordinates": [
     138.64333987,
     -34.79435214
    ]
   },
   "properties": {
    "name": "SHOP 3, 11 LAWRENCE HARGRAVE WAY PARAFIELD 5106",
    "locID": "LOC000008460670",
    "tech": "FTTP",
    "upgrade": "NULL_NA",
    "gnaf_pid": "GASA_416818553"
   }
  },
  {
   "type": "Feature",
   "geometry": {
    "type": "Point",
    "coordinates": [
     138.64336775,
     -34.79201489
    ]
   },
   "properties": {
    "name": "SHOP 3, 8 LAWRENCE HARGRAVE WAY PARAFIELD 5106",
    "locID": "ChIJ-eaLDQO0sGoRDm-DUtt52F0",
    "tech": "FTTP",
    "upgrade": "UNKNOWN",
    "gnaf_pid": "GASA_416818554"
   }
  },
  {
   "type": "Feature",
   "geometry": {
    "type": "Point",
    "coordinates": [
     138.63684416,
     -34.78840774
    ]
   },
   "properties": {
    "name": "25 TIGER MOTH LANE PARAFIELD 5106",
    "locID": "ChIJwdIsVqq2sGoRSsNQxo8Z8ZI",
    "tech": "FTTP",
    "upgrade": "UNKNOWN",
    "gnaf_pid": "GASA_416819236"
   }
  },
  {
   "type": "Feature",
   "geometry": {
    "type": "Point",
    "coordinates": [
     138.63749207,
     -34.78769225
    ]
   },
   "properties": {
    "name": "15 BUTLER AVENUE PARAFIELD 5106",
    "locID": "LOC000097047083",
    "tech": "FTTP",
    "upgrade": "NULL_NA",
    "gnaf_pid": "GASA_416819237"
   }
  },
  {
   "type": "Feature",
   "geometry": {
    "type": "Point",
    "coordinates": [
     138.63749207,
     -34.78769225
    ]
   },
   "properties": {
    "name": "167 BUTLER AVENUE PARAFIELD 5106",
    "locID": "ChIJoyjXlKq2sGoRy6BNcR8kSkA",
    "tech": "FTTP",
    "upgrade": "UNKNOWN",
    "gnaf_pid": "GASA_416819238"
   }
  },
  {
   "type": "Feature",
   "geometry": {
    "type": "Point",
    "coordinates": [
     138.63530686,
     -34.78698478
    ]
   },
   "properties": {
    "name": "7 DAKOTA DRIVE PARAFIELD 5106",
    "locID": "ChIJ01SZlOC3sGoRRpTMVfIaS-U",
    "tech": "FTTP",
    "upgrade": "UNKNOWN",
    "gnaf_pid": "GASA_416819239"
   }
  },
  {
   "type": "Feature",
   "geometry": {
    "type": "Point",
    "coordinates": [
     138.63530686,
     -34.78698478
    ]
   },
   "properties": {
    "name": "9 DAKOTA DRIVE PARAFIELD 5106",
    "locID": "LOC000183353603",
    "tech": "FTTP",
    "upgrade": "NULL_NA",
    "gnaf_pid": "GASA_416819240"
   }
  },
  {
   "type": "Feature",
   "geometry": {
    "type": "Point",
    "coordinates": [
     138.63530686,
     -34.78698478
    ]
   },
   "properties": {
    "name": "26 DAKOTA DRIVE PARAFIELD 5106",
    "locID": "ChIJrWoufqu2sGoRhB2SMx3bhak",
    "tech": "FTTP",
    "upgrade": "UNKNOWN",
    "gnaf_pid": "GASA_416819241"
   }
  },
  {
   "type": "Feature",
   "geometry": {
    "type": "Point",
    "coordinates": [
     138.63530686,
     -34.78698478
    ]
   },
   "properties": {
    "name": "27 DAKOTA DRIVE PARAFIELD 5106",
    "locID": "LOC000187498409",
    "tech": "FTTP",
    "upgrade": "NULL_NA",
    "gnaf_pid": "GASA_416819242"
   }
  },
  {
   "type": "Feature",
   "geometry": {
    "type": "Point",
    "coordinates": [
     138.63757088,
     -34.78662632
    ]
   },
   "properties": {
    "name": "38 LOCKHEED LANE PARAFIELD 5106",
    "locID": "ChIJJUgRyqq2sGoRHb3IKHP1-_E",
    "tech": "FTTP",
    "upgrade": "UNKNOWN",
    "gnaf_pid": "GASA_416819243"
   }
  },
  {
   "type": "Feature",
   "geometry": {
    "type": "Point",
    "coordinates": [
     138.6351673,
     -34.78928094
    ]
   },
   "properties": {
    "name": "8 KITTYHAWK LANE PARAFIELD 5106",
    "locID": "LOC000074079911",
    "tech": "FTTP",
    "upgrade": "NULL_NA",
    "gnaf_pid": "GASA_416819246"
   }
  },
  {
   "type": "Feature",
   "geometry": {
    "type": "Point",
    "coordinates": [
     138.6351673,
     -34.78928094
    ]
   },
   "properties": {
    "name": "35 KITTYHAWK LANE PARAFIELD 5106",
    "locID": "LOC000003493696",
    "tech": "FTTP",
    "upgrade": "NULL_NA",
    "gnaf_pid": "GASA_416819247"
   }
  },
  {
   "type": "Feature",
   "geometry": {
    "type": "Point",
    "coordinates": [
     138.6351673,
     -34.78928094
    ]
   },
   "properties": {
    "name": "39 KITTYHAWK LANE PARAFIELD 5106",
    "locID": "LOC000072270532",
    "tech": "FTTP",
    "upgrade": "NULL_NA",
    "gnaf_pid": "GASA_416819248"
   }
  },
  {
   "type": "Feature",
   "geometry": {
    "type": "Point",
    "coordinates": [
     138.6351673,
     -34.78928094
    ]
   },
   "properties": {
    "name": "54 KITTYHAWK LANE PARAFIELD 5106",
    "locID": "ChIJ91gD-au2sGoRLi3N4wzjrOI",
    "tech": "FTTP",
    "upgrade": "UNKNOWN",
    "gnaf_pid": "GASA_416819249"
   }
  },
  {
   "type": "Feature",
   "geometry": {
    "type": "Point",
    "coordinates": [
     138.6351673,
     -34.78928094
    ]
   },
   "properties": {
    "name": "55 KITTYHAWK LANE PARAFIELD 5106",
    "locID": "LOC000006288541",
    "tech": "FTTP",
    "upgrade": "NULL_NA",
    "gnaf_pid": "GASA_416819250"
   }
  },
  {
   "type": "Feature",
   "geometry": {
    "type": "Point",
    "coordinates": [
     138.6351673,
     -34.78928094
    ]
   },
   "properties": {
    "name": "155 KITTYHAWK LANE PARAFIELD 5106",
    "locID": "ChIJyemIwqu2sGoRuU_9cfm3Rtw",
    "tech": "FTTP",
    "upgrade": "UNKNOWN",
    "gnaf_pid": "GASA_416819251"
   }
  },
  {
   "type": "Feature",
   "geometry": {
    "type": "Point",
    "coordinates": [
     138.63626381,
     -34.78788952
    ]
   },
   "properties": {
    "name": "39 MOLLISON ROAD PARAFIELD 5106",
    "locID": "ChIJ-VWpsKu2sGoRKXbh8jast3k",
    "tech": "FTTP",
    "upgrade": "UNKNOWN",
    "gnaf_pid": "GASA_416819252"
   }
  },
  {
   "type": "Feature",
   "geometry": {
    "type": "Point",
    "coordinates": [
     138.6378351,
     -34.78848101
    ]
   },
   "properties": {
    "name": "171 ANDERSON DRIVE PARAFIELD 5106",
    "locID": "LOC000182509155",
    "tech": "FTTP",
    "upgrade": "NULL_NA",
    "gnaf_pid": "GASA_416822092"
   }
  },
  {
   "type": "Feature",
   "geometry": {
    "type": "Point",
    "coordinates": [
     138.6378351,
     -34.78848101
    ]
   },
   "properties": {
    "name": "50B ANDERSON DRIVE PARAFIELD 5106",
    "locID": "LOC000092984402",
    "tech": "FTTP",
    "upgrade": "NULL_NA",
    "gnaf_pid": "GASA_416822093"
   }
  },
  {
   "type": "Feature",
   "geometry": {
    "type": "Point",
    "coordinates": [
     138.6378351,
     -34.78848101
    ]
   },
   "properties": {
    "name": "59 ANDERSON DRIVE PARAFIELD 5106",
    "locID": "LOC000049680624",
    "tech": "FTTP",
    "upgrade": "NULL_NA",
    "gnaf_pid": "GASA_416822094"
   }
  },
  {
   "type": "Feature",
   "geometry": {
    "type": "Point",
    "coordinates": [
     138.6378351,
     -34.78848101
    ]
   },
   "properties": {
    "name": "51 ANDERSON DRIVE PARAFIELD 5106",
    "locID": "LOC100064745098",
    "tech": "FTTP",
    "upgrade": "NULL_NA",
    "gnaf_pid": "GASA_416822095"
   }
  },
  {
   "type": "Feature",
   "geometry": {
    "type": "Point",
    "coordinates": [
     138.6378351,
     -34.78848101
    ]
   },
   "properties": {
    "name": "65 ANDERSON DRIVE PARAFIELD 5106",
    "locID": "ChIJTxpxjKq2sGoRskN1RVrJvN8",
    "tech": "FTTP",
    "upgrade": "UNKNOWN",
    "gnaf_pid": "GASA_416822096"
   }
  },
  {
   "type": "Feature",
   "geometry": {
    "type": "Point",
    "coordinates": [
     138.6378351,
     -34.78848101
    ]
   },
   "properties": {
    "name": "57 ANDERSON DRIVE PARAFIELD 5106",
    "locID": "LOC100072891228",
    "tech": "FTTP",
    "upgrade": "NULL_NA",
    "gnaf_pid": "GASA_416822097"
   }
  },
  {
   "type": "Feature",
   "geometry": {
    "type": "Point",
    "coordinates": [
     138.6378351,
     -34.78848101
    ]
   },
   "properties": {
    "name": "56 ANDERSON DRIVE PARAFIELD 5106",
    "locID": "ChIJFWJkRaq2sGoRslUrmSmYAa0",
    "tech": "FTTP",
    "upgrade": "UNKNOWN",
    "gnaf_pid": "GASA_416822098"
   }
  },
  {
   "type": "Feature",
   "geometry": {
    "type": "Point",
    "coordinates": [
     138.6378351,
     -34.78848101
    ]
   },
   "properties": {
    "name": "7 ANDERSON DRIVE PARAFIELD 5106",
    "locID": "ChIJTxpxjKq2sGoRmXm5ZLzwf10",
    "tech": "FTTP",
    "upgrade": "UNKNOWN",
    "gnaf_pid": "GASA_416822099"
   }
  },
  {
   "type": "Feature",
   "geometry": {
    "type": "Point",
    "coordinates": [
     138.6378351,
     -34.78848101
    ]
   },
   "properties": {
    "name": "11 ANDERSON DRIVE PARAFIELD 5106",
    "locID": "LOC000034188822",
    "tech": "FTTP",
    "upgrade": "NULL_NA",
    "gnaf_pid": "GASA_416822100"
   }
  },
  {
   "type": "Feature",
   "geometry": {
    "type": "Point",
    "coordinates": [
     138.6378351,
     -34.78848101
    ]
   },
   "properties": {
    "name": "169 ANDERSON DRIVE PARAFIELD 5106",
    "locID": "LOC000103259538",
    "tech": "FTTP",
    "upgrade": "NULL_NA",
    "gnaf_pid": "GASA_416822103"
   }
  },
  {
   "type": "Feature",
   "geometry": {
    "type": "Point",
    "coordinates": [
     138.6378351,
     -34.78848101
    ]
   },
   "properties": {
    "name": "52 ANDERSON DRIVE PARAFIELD 5106",
    "locID": "LOC000044724289",
    "tech": "FTTP",
    "upgrade": "NULL_NA",
    "gnaf_pid": "GASA_416822104"
   }
  },
  {
   "type": "Feature",
   "geometry": {
    "type": "Point",
    "coordinates": [
     138.6378351,
     -34.78848101
    ]
   },
   "properties": {
    "name": "58 ANDERSON DRIVE PARAFIELD 5106",
    "locID": "LOC000071421620",
    "tech": "FTTP",
    "upgrade": "NULL_NA",
    "gnaf_pid": "GASA_416822105"
   }
  },
  {
   "type": "Feature",
   "geometry": {
    "type": "Point",
    "coordinates": [
     138.6378351,
     -34.78848101
    ]
   },
   "properties": {
    "name": "16 ANDERSON DRIVE PARAFIELD 5106",
    "locID": "LOC000157127771",
    "tech": "FTTP",
    "upgrade": "NULL_NA",
    "gnaf_pid": "GASA_416822106"
   }
  },
  {
   "type": "Feature",
   "geometry": {
    "type": "Point",
    "coordinates": [
     138.64336775,
     -34.79201489
    ]
   },
   "properties": {
    "name": "8 LAWRENCE HARGRAVE WAY PARAFIELD 5106",
    "locID": "ChIJ-eaLDQO0sGoRDm-DUtt52F0",
    "tech": "FTTP",
    "upgrade": "UNKNOWN",
    "gnaf_pid": "GASA_416822112"
   }
  },
  {
   "type": "Feature",
   "geometry": {
    "type": "Point",
    "coordinates": [
     138.64336775,
     -34.79201489
    ]
   },
   "properties": {
    "name": "SHOP 1, 10 LAWRENCE HARGRAVE WAY PARAFIELD 5106",
    "locID": "LOC000180021536",
    "tech": "FTTP",
    "upgrade": "NULL_NA",
    "gnaf_pid": "GASA_416822113"
   }
  },
  {
   "type": "Feature",
   "geometry": {
    "type": "Point",
    "coordinates": [
     138.64336775,
     -34.79201489
    ]
   },
   "properties": {
    "name": "SHOP 2, 10 LAWRENCE HARGRAVE WAY PARAFIELD 5106",
    "locID": "LOC000180021536",
    "tech": "FTTP",
    "upgrade": "NULL_NA",
    "gnaf_pid": "GASA_416822114"
   }
  },
  {
   "type": "Feature",
   "geometry": {
    "type": "Point",
    "coordinates": [
     138.64336775,
     -34.79201489
    ]
   },
   "properties": {
    "name": "SHOP 3, 10 LAWRENCE HARGRAVE WAY PARAFIELD 5106",
    "locID": "LOC000180021536",
    "tech": "FTTP",
    "upgrade": "NULL_NA",
    "gnaf_pid": "GASA_416822115"
   }
  },
  {
   "type": "Feature",
   "geometry": {
    "type": "Point",
    "coordinates": [
     138.6440337,
     -34.79082673
    ]
   },
   "properties": {
    "name": "14 KINGS ROAD PARAFIELD 5106",
    "locID": "LOC000157128558",
    "tech": "FTTP",
    "upgrade": "NULL_NA",
    "gnaf_pid": "GASA_422041504"
   }
  },
  {
   "type": "Feature",
   "geometry": {
    "type": "Point",
    "coordinates": [
     138.64336775,
     -34.79201489
    ]
   },
   "properties": {
    "name": "10 LAWRENCE HARGRAVE WAY PARAFIELD 5106",
    "locID": "LOC000180021536",
    "tech": "FTTP",
    "upgrade": "NULL_NA",
    "gnaf_pid": "GASA_422050123"
   }
  },
  {
   "type": "Feature",
   "geometry": {
    "type": "Point",
    "coordinates": [
     138.64349646,
     -34.79411661
    ]
   },
   "properties": {
    "name": "11 LAWRENCE HARGRAVE WAY PARAFIELD 5106",
    "locID": "LOC000008460670",
    "tech": "FTTP",
    "upgrade": "NULL_NA",
    "gnaf_pid": "GASA_422050124"
   }
  },
  {
   "type": "Feature",
   "geometry": {
    "type": "Point",
    "coordinates": [
     138.64562915,
     -34.7916449
    ]
   },
   "properties": {
    "name": "17 LAWRENCE HARGRAVE WAY PARAFIELD 5106",
    "locID": "LOC000152551922",
    "tech": "FTTP",
    "upgrade": "NULL_NA",
    "gnaf_pid": "GASA_423685512"
   }
  },
  {
   "type": "Feature",
   "geometry": {
    "type": "Point",
    "coordinates": [
     138.63530686,
     -34.78698478
    ]
   },
   "properties": {
    "name": "28 DAKOTA DRIVE PARAFIELD 5106",
    "locID": "LOC000157128251",
    "tech": "FTTP",
    "upgrade": "NULL_NA",
    "gnaf_pid": "GASA_423696587"
   }
  },
  {
   "type": "Feature",
   "geometry": {
    "type": "Point",
    "coordinates": [
     138.6378351,
     -34.78848101
    ]
   },
   "properties": {
    "name": "2 ANDERSON DRIVE PARAFIELD 5106",
    "locID": "ChIJTxpxjKq2sGoRNnsl_MWrJgQ",
    "tech": "FTTP",
    "upgrade": "UNKNOWN",
    "gnaf_pid": "GASA_423742172"
   }
  },
  {
   "type": "Feature",
   "geometry": {
    "type": "Point",
    "coordinates": [
     138.6351673,
     -34.78928094
    ]
   },
   "properties": {
    "name": "5 KITTYHAWK LANE PARAFIELD 5106",
    "locID": "LOC000098855996",
    "tech": "FTTP",
    "upgrade": "NULL_NA",
    "gnaf_pid": "GASA_423867152"
   }
  },
  {
   "type": "Feature",
   "geometry": {
    "type": "Point",
    "coordinates": [
     138.6302566,
     -34.78395732
    ]
   },
   "properties": {
    "name": "LOT 94 KINGS ROAD PARAFIELD 5106",
    "locID": "ChIJfVoxxTWxsGoRy4WdABdqL7I",
    "tech": "HFC",
    "upgrade": "UNKNOWN",
    "gnaf_pid": "GASA_424111312"
   }
  },
  {
   "type": "Feature",
   "geometry": {
    "type": "Point",
    "coordinates": [
     138.6378351,
     -34.78848101
    ]
   },
   "properties": {
    "name": "61 ANDERSON DRIVE PARAFIELD 5106",
    "locID": "LOC000180244759",
    "tech": "FTTP",
    "upgrade": "NULL_NA",
    "gnaf_pid": "GASA_424146111"
   }
  },
  {
   "type": "Feature",
   "geometry": {
    "type": "Point",
    "coordinates": [
     138.64494508,
     -34.7909968
    ]
   },
   "properties": {
    "name": "LOT 12 KINGS ROAD PARAFIELD 5106",
    "locID": "LOC000130302783",
    "tech": "FTTP",
    "upgrade": "NULL_NA",
    "gnaf_pid": "GASA_424184174"
   }
  },
  {
   "type": "Feature",
   "geometry": {
    "type": "Point",
    "coordinates": [
     138.62814791,
     -34.78636315
    ]
   },
   "properties": {
    "name": "LOT 201 KINGS ROAD PARAFIELD 5106",
    "locID": "LOC000021724976",
    "tech": "HFC",
    "upgrade": "NULL_NA",
    "gnaf_pid": "GASA_424184175"
   }
  },
  {
   "type": "Feature",
   "geometry": {
    "type": "Point",
    "coordinates": [
     138.64349646,
     -34.79411661
    ]
   },
   "properties": {
    "name": "SHOP 5, 11 LAWRENCE HARGRAVE WAY PARAFIELD 5106",
    "locID": "LOC000008460670",
    "tech": "FTTP",
    "upgrade": "NULL_NA",
    "gnaf_pid": "GASA_424572488"
   }
  },
  {
   "type": "Feature",
   "geometry": {
    "type": "Point",
    "coordinates": [
     138.63530686,
     -34.78698478
    ]
   },
   "properties": {
    "name": "13 DAKOTA DRIVE PARAFIELD 5106",
    "locID": "LOC000157128192",
    "tech": "FTTP",
    "upgrade": "NULL_NA",
    "gnaf_pid": "GASA_424646561"
   }
  },
  {
   "type": "Feature",
   "geometry": {
    "type": "Point",
    "coordinates": [
     138.63530686,
     -34.78698478
    ]
   },
   "properties": {
    "name": "19 DAKOTA DRIVE PARAFIELD 5106",
    "locID": "ChIJ4TavE6u2sGoR2mSjoi8k9i0",
    "tech": "FTTP",
    "upgrade": "UNKNOWN",
    "gnaf_pid": "GASA_424646562"
   }
  },
  {
   "type": "Feature",
   "geometry": {
    "type": "Point",
    "coordinates": [
     138.63684416,
     -34.78840774
    ]
   },
   "properties": {
    "name": "18 TIGER MOTH LANE PARAFIELD 5106",
    "locID": "LOC000183320130",
    "tech": "FTTP",
    "upgrade": "NULL_NA",
    "gnaf_pid": "GASA_424647379"
   }
  },
  {
   "type": "Feature",
   "geometry": {
    "type": "Point",
    "coordinates": [
     138.63053597,
     -34.79678719
    ]
   },
   "properties": {
    "name": "LOT 10 ANDERSON DRIVE PARAFIELD 5106",
    "locID": "EiwxMCBBbmRlcnNvbiBEciwgUGFyYWZpZWxkIFNBIDUxMDYsIEF1c3RyYWxpYSIwEi4KFAoSCUkA1pmqtrBqEXKVq1JmC3CDEAoqFAoSCXkqiIuqtrBqET3R-BWyTEzj",
    "tech": "FTTP",
    "upgrade": "UNKNOWN",
    "gnaf_pid": "GASA_424816826"
   }
  },
  {
   "type": "Feature",
   "geometry": {
    "type": "Point",
    "coordinates": [
     138.61811555,
     -34.79754669
    ]
   },
   "properties": {
    "name": "LOT 2 ELDER SMITH ROAD PARAFIELD 5106",
    "locID": "LOC000130295580",
    "tech": "FTTP",
    "upgrade": "FTTP_NA",
    "gnaf_pid": "GASA_424820103"
   }
  },
  {
   "type": "Feature",
   "geometry": {
    "type": "Point",
    "coordinates": [
     138.6378351,
     -34.78848101
    ]
   },
   "properties": {
    "name": "UNIT 1, 65 ANDERSON DRIVE PARAFIELD 5106",
    "locID": "ChIJTxpxjKq2sGoRskN1RVrJvN8",
    "tech": "FTTP",
    "upgrade": "UNKNOWN",
    "gnaf_pid": "GASA_424833030"
   }
  },
  {
   "type": "Feature",
   "geometry": {
    "type": "Point",
    "coordinates": [
     138.6378351,
     -34.78848101
    ]
   },
   "properties": {
    "name": "UNIT 2, 65 ANDERSON DRIVE PARAFIELD 5106",
    "locID": "ChIJTxpxjKq2sGoRskN1RVrJvN8",
    "tech": "FTTP",
    "upgrade": "UNKNOWN",
    "gnaf_pid": "GASA_424833031"
   }
  },
  {
   "type": "Feature",
   "geometry": {
    "type": "Point",
    "coordinates": [
     138.6378351,
     -34.78848101
    ]
   },
   "properties": {
    "name": "UNIT 3, 65 ANDERSON DRIVE PARAFIELD 5106",
    "locID": "ChIJTxpxjKq2sGoRskN1RVrJvN8",
    "tech": "FTTP",
    "upgrade": "UNKNOWN",
    "gnaf_pid": "GASA_424833032"
   }
  },
  {
   "type": "Feature",
   "geometry": {
    "type": "Point",
    "coordinates": [
     138.6378351,
     -34.78848101
    ]
   },
   "properties": {
    "name": "UNIT 4, 65 ANDERSON DRIVE PARAFIELD 5106",
    "locID": "ChIJTxpxjKq2sGoRskN1RVrJvN8",
    "tech": "FTTP",
    "upgrade": "UNKNOWN",
    "gnaf_pid": "GASA_424833033"
   }
  },
  {
   "type": "Feature",
   "geometry": {
    "type": "Point",
    "coordinates": [
     138.6378351,
     -34.78848101
    ]
   },
   "properties": {
    "name": "169A ANDERSON DRIVE PARAFIELD 5106",
    "locID": "ChIJTxpxjKq2sGoRWO-TPeQn-3g",
    "tech": "FTTP",
    "upgrade": "UNKNOWN",
    "gnaf_pid": "GASA_424833034"
   }
  },
  {
   "type": "Feature",
   "geometry": {
    "type": "Point",
    "coordinates": [
     138.6378351,
     -34.78848101
    ]
   },
   "properties": {
    "name": "33 ANDERSON DRIVE PARAFIELD 5106",
    "locID": "ChIJTxpxjKq2sGoRv40B87PMZII",
    "tech": "FTTP",
    "upgrade": "UNKNOWN",
    "gnaf_pid": "GASA_424833035"
   }
  },
  {
   "type": "Feature",
   "geometry": {
    "type": "Point",
    "coordinates": [
     138.63530686,
     -34.78698478
    ]
   },
   "properties": {
    "name": "UNIT 1, 9 DAKOTA DRIVE PARAFIELD 5106",
    "locID": "LOC000183353603",
    "tech": "FTTP",
    "upgrade": "NULL_NA",
    "gnaf_pid": "GASA_424834364"
   }
  },
  {
   "type": "Feature",
   "geometry": {
    "type": "Point",
    "coordinates": [
     138.6440337,
     -34.79082673
    ]
   },
   "properties": {
    "name": "SHOP 1, 14 KINGS ROAD PARAFIELD 5106",
    "locID": "LOC000157128558",
    "tech": "FTTP",
    "upgrade": "NULL_NA",
    "gnaf_pid": "GASA_424835905"
   }
  },
  {
   "type": "Feature",
   "geometry": {
    "type": "Point",
    "coordinates": [
     138.6440337,
     -34.79082673
    ]
   },
   "properties": {
    "name": "SHOP 2, 14 KINGS ROAD PARAFIELD 5106",
    "locID": "LOC000157128558",
    "tech": "FTTP",
    "upgrade": "NULL_NA",
    "gnaf_pid": "GASA_424835906"
   }
  },
  {
   "type": "Feature",
   "geometry": {
    "type": "Point",
    "coordinates": [
     138.63912146,
     -34.7869714
    ]
   },
   "properties": {
    "name": "8 KINGS ROAD PARAFIELD 5106",
    "locID": "LOC000116151892",
    "tech": "FTTP",
    "upgrade": "NULL_NA",
    "gnaf_pid": "GASA_424835907"
   }
  },
  {
   "type": "Feature",
   "geometry": {
    "type": "Point",
    "coordinates": [
     138.6351673,
     -34.78928094
    ]
   },
   "properties": {
    "name": "UNIT 1, 55 KITTYHAWK LANE PARAFIELD 5106",
    "locID": "ChIJcQfy46u2sGoRaPkmVKS-2Rw",
    "tech": "FTTP",
    "upgrade": "UNKNOWN",
    "gnaf_pid": "GASA_424835910"
   }
  },
  {
   "type": "Feature",
   "geometry": {
    "type": "Point",
    "coordinates": [
     138.6351673,
     -34.78928094
    ]
   },
   "properties": {
    "name": "32 KITTYHAWK LANE PARAFIELD 5106",
    "locID": "LOC000116148036",
    "tech": "FTTP",
    "upgrade": "NULL_NA",
    "gnaf_pid": "GASA_424835911"
   }
  },
  {
   "type": "Feature",
   "geometry": {
    "type": "Point",
    "coordinates": [
     138.6351673,
     -34.78928094
    ]
   },
   "properties": {
    "name": "65 KITTYHAWK LANE PARAFIELD 5106",
    "locID": "LOC100070721502",
    "tech": "FTTP",
    "upgrade": "NULL_NA",
    "gnaf_pid": "GASA_424835912"
   }
  },
  {
   "type": "Feature",
   "geometry": {
    "type": "Point",
    "coordinates": [
     138.64336775,
     -34.79201489
    ]
   },
   "properties": {
    "name": "SHOP 2, 8 LAWRENCE HARGRAVE WAY PARAFIELD 5106",
    "locID": "ChIJ-eaLDQO0sGoRDm-DUtt52F0",
    "tech": "FTTP",
    "upgrade": "UNKNOWN",
    "gnaf_pid": "GASA_424836012"
   }
  },
  {
   "type": "Feature",
   "geometry": {
    "type": "Point",
    "coordinates": [
     138.64349646,
     -34.79411661
    ]
   },
   "properties": {
    "name": "SHOP 4, 11 LAWRENCE HARGRAVE WAY PARAFIELD 5106",
    "locID": "LOC000008460670",
    "tech": "FTTP",
    "upgrade": "NULL_NA",
    "gnaf_pid": "GASA_424836013"
   }
  },
  {
   "type": "Feature",
   "geometry": {
    "type": "Point",
    "coordinates": [
     138.63757088,
     -34.78662632
    ]
   },
   "properties": {
    "name": "177 LOCKHEED LANE PARAFIELD 5106",
    "locID": "LOC000157130334",
    "tech": "FTTP",
    "upgrade": "NULL_NA",
    "gnaf_pid": "GASA_424836129"
   }
  },
  {
   "type": "Feature",
   "geometry": {
    "type": "Point",
    "coordinates": [
     138.63757088,
     -34.78662632
    ]
   },
   "properties": {
    "name": "40 LOCKHEED LANE PARAFIELD 5106",
    "locID": "ChIJJUgRyqq2sGoRgoGf9ADYZrU",
    "tech": "FTTP",
    "upgrade": "UNKNOWN",
    "gnaf_pid": "GASA_424836130"
   }
  },
  {
   "type": "Feature",
   "geometry": {
    "type": "Point",
    "coordinates": [
     138.63757088,
     -34.78662632
    ]
   },
   "properties": {
    "name": "40A LOCKHEED LANE PARAFIELD 5106",
    "locID": "ChIJ4Tqj16q2sGoRMH0sKkWf9s0",
    "tech": "FTTP",
    "upgrade": "UNKNOWN",
    "gnaf_pid": "GASA_424836131"
   }
  },
  {
   "type": "Feature",
   "geometry": {
    "type": "Point",
    "coordinates": [
     138.6378351,
     -34.78848101
    ]
   },
   "properties": {
    "name": "44 ANDERSON DRIVE PARAFIELD 5106",
    "locID": "ChIJTxpxjKq2sGoRkGX7ayhNlnM",
    "tech": "FTTP",
    "upgrade": "UNKNOWN",
    "gnaf_pid": "GASA_425716021"
   }
  },
  {
   "type": "Feature",
   "geometry": {
    "type": "Point",
    "coordinates": [
     138.64562915,
     -34.7916449
    ]
   },
   "properties": {
    "name": "3 LAWRENCE HARGRAVE WAY PARAFIELD 5106",
    "locID": "LOC000180638710",
    "tech": "FTTP",
    "upgrade": "NULL_NA",
    "gnaf_pid": "GASA_425718361"
   }
  },
  {
   "type": "Feature",
   "geometry": {
    "type": "Point",
    "coordinates": [
     138.64253513,
     -34.79557152
    ]
   },
   "properties": {
    "name": "LOT 10 LAWRENCE HARGRAVE WAY PARAFIELD 5106",
    "locID": "LOC000180021536",
    "tech": "FTTP",
    "upgrade": "NULL_NA",
    "gnaf_pid": "GASA_719047398"
   }
  },
  {
   "type": "Feature",
   "geometry": {
    "type": "Point",
    "coordinates": [
     138.64280005,
     -34.79359151
    ]
   },
   "properties": {
    "name": "LOT 12 LAWRENCE HARGRAVE WAY PARAFIELD 5106",
    "locID": "LOC000157130306",
    "tech": "FTTP",
    "upgrade": "NULL_NA",
    "gnaf_pid": "GASA_719280014"
   }
  },
  {
   "type": "Feature",
   "geometry": {
    "type": "Point",
    "coordinates": [
     138.6378351,
     -34.78848101
    ]
   },
   "properties": {
    "name": "125 ANDERSON DRIVE PARAFIELD 5106",
    "locID": "ChIJTxpxjKq2sGoRmhyLyg5xrt0",
    "tech": "FTTP",
    "upgrade": "UNKNOWN",
    "gnaf_pid": "GASA_719550018"
   }
  },
  {
   "type": "Feature",
   "geometry": {
    "type": "Point",
    "coordinates": [
     138.64402194,
     -34.79087688
    ]
   },
   "properties": {
    "name": "SITE 14, LOT 12 KINGS ROAD PARAFIELD 5106",
    "locID": "LOC000130302783",
    "tech": "FTTP",
    "upgrade": "NULL_NA",
    "gnaf_pid": "GASA_719650439"
   }
  },
  {
   "type": "Feature",
   "geometry": {
    "type": "Point",
    "coordinates": [
     138.64336775,
     -34.79201489
    ]
   },
   "properties": {
    "name": "SHOP 1, 8 LAWRENCE HARGRAVE WAY PARAFIELD 5106",
    "locID": "ChIJ-eaLDQO0sGoRDm-DUtt52F0",
    "tech": "FTTP",
    "upgrade": "UNKNOWN",
    "gnaf_pid": "GASA_721273975"
   }
  },
  {
   "type": "Feature",
   "geometry": {
    "type": "Point",
    "coordinates": [
     138.6393793,
     -34.79886837
    ]
   },
   "properties": {
    "name": "17 NOBBY BUCKLEY DRIVE PARAFIELD 5106",
    "locID": "ChIJNZx7gx20sGoRhaxost5gODY",
    "tech": "FTTP",
    "upgrade": "UNKNOWN",
    "gnaf_pid": "GASA_721274290"
   }
  },
  {
   "type": "Feature",
   "geometry": {
    "type": "Point",
    "coordinates": [
     138.64271729,
     -34.79530191
    ]
   },
   "properties": {
    "name": "SHOP 2, 19 LAWRENCE HARGRAVE WAY PARAFIELD 5106",
    "locID": "ChIJ7QOWnwO0sGoRxBq6YKO03y0",
    "tech": "FTTP",
    "upgrade": "UNKNOWN",
    "gnaf_pid": "GASA_721274505"
   }
  },
  {
   "type": "Feature",
   "geometry": {
    "type": "Point",
    "coordinates": [
     138.64562915,
     -34.7916449
    ]
   },
   "properties": {
    "name": "SHOP 2, 3 LAWRENCE HARGRAVE WAY PARAFIELD 5106",
    "locID": "LOC000180638710",
    "tech": "FTTP",
    "upgrade": "NULL_NA",
    "gnaf_pid": "GASA_721274537"
   }
  },
  {
   "type": "Feature",
   "geometry": {
    "type": "Point",
    "coordinates": [
     138.63578857,
     -34.80308854
    ]
   },
   "properties": {
    "name": "81 NOBBY BUCKLEY DRIVE PARAFIELD 5106",
    "locID": "ChIJRVG7yKG2sGoRurbKS9AZ8iU",
    "tech": "FTTP",
    "upgrade": "UNKNOWN",
    "gnaf_pid": "GASA_721274558"
   }
  },
  {
   "type": "Feature",
   "geometry": {
    "type": "Point",
    "coordinates": [
     138.64562915,
     -34.7916449
    ]
   },
   "properties": {
    "name": "SHOP 3, 3 LAWRENCE HARGRAVE WAY PARAFIELD 5106",
    "locID": "LOC000008444528",
    "tech": "FTTP",
    "upgrade": "NULL_NA",
    "gnaf_pid": "GASA_721274687"
   }
  },
  {
   "type": "Feature",
   "geometry": {
    "type": "Point",
    "coordinates": [
     138.64220961,
     -34.7960288
    ]
   },
   "properties": {
    "name": "SHOP 4, 21 LAWRENCE HARGRAVE WAY PARAFIELD 5106",
    "locID": "ChIJkwkyEQO0sGoR3k9_j4_oU0Q",
    "tech": "FTTP",
    "upgrade": "UNKNOWN",
    "gnaf_pid": "GASA_721274720"
   }
  },
  {
   "type": "Feature",
   "geometry": {
    "type": "Point",
    "coordinates": [
     138.64582474,
     -34.79138401
    ]
   },
   "properties": {
    "name": "SITE 15, 16 KINGS ROAD PARAFIELD 5106",
    "locID": "ChIJi0fMDwe0sGoRktAi_IER3TA",
    "tech": "FTTP",
    "upgrade": "UNKNOWN",
    "gnaf_pid": "GASA_721274762"
   }
  },
  {
   "type": "Feature",
   "geometry": {
    "type": "Point",
    "coordinates": [
     138.64285114,
     -34.7951004
    ]
   },
   "properties": {
    "name": "SHOP 1, 19 LAWRENCE HARGRAVE WAY PARAFIELD 5106",
    "locID": "ChIJ7QOWnwO0sGoRxBq6YKO03y0",
    "tech": "FTTP",
    "upgrade": "UNKNOWN",
    "gnaf_pid": "GASA_721275168"
   }
  },
  {
   "type": "Feature",
   "geometry": {
    "type": "Point",
    "coordinates": [
     138.64494508,
     -34.7909968
    ]
   },
   "properties": {
    "name": "15 KINGS ROAD PARAFIELD 5106",
    "locID": "ChIJnbdZPAe0sGoRX3c-_W7iBko",
    "tech": "FTTP",
    "upgrade": "UNKNOWN",
    "gnaf_pid": "GASA_721276190"
   }
  },
  {
   "type": "Feature",
   "geometry": {
    "type": "Point",
    "coordinates": [
     138.64562915,
     -34.7916449
    ]
   },
   "properties": {
    "name": "SHOP 1, 3 LAWRENCE HARGRAVE WAY PARAFIELD 5106",
    "locID": "LOC000008444528",
    "tech": "FTTP",
    "upgrade": "NULL_NA",
    "gnaf_pid": "GASA_721276258"
   }
  },
  {
   "type": "Feature",
   "geometry": {
    "type": "Point",
    "coordinates": [
     138.64338256,
     -34.79201403
    ]
   },
   "properties": {
    "name": "SITE 1A, 8-10 LAWRENCE HARGRAVE WAY PARAFIELD 5106",
    "locID": "ChIJ-eaLDQO0sGoRDm-DUtt52F0",
    "tech": "FTTP",
    "upgrade": "UNKNOWN",
    "gnaf_pid": "GASA_721276307"
   }
  },
  {
   "type": "Feature",
   "geometry": {
    "type": "Point",
    "coordinates": [
     138.64449526,
     -34.79301993
    ]
   },
   "properties": {
    "name": "SITE 12, 7-9 LAWRENCE HARGRAVE WAY PARAFIELD 5106",
    "locID": "LOC000075791786",
    "tech": "FTTP",
    "upgrade": "NULL_NA",
    "gnaf_pid": "GASA_721276443"
   }
  },
  {
   "type": "Feature",
   "geometry": {
    "type": "Point",
    "coordinates": [
     138.64067577,
     -34.79681458
    ]
   },
   "properties": {
    "name": "1-15 NOBBY BUCKLEY DRIVE PARAFIELD 5106",
    "locID": "LOC000192901825",
    "tech": "FTTP",
    "upgrade": "NULL_NA",
    "gnaf_pid": "GASA_721276815"
   }
  },
  {
   "type": "Feature",
   "geometry": {
    "type": "Point",
    "coordinates": [
     138.64501985,
     -34.79192601
    ]
   },
   "properties": {
    "name": "SITE 13, 5 LAWRENCE HARGRAVE WAY PARAFIELD 5106",
    "locID": "LOC000008460670",
    "tech": "FTTP",
    "upgrade": "NULL_NA",
    "gnaf_pid": "GASA_721276987"
   }
  },
  {
   "type": "Feature",
   "geometry": {
    "type": "Point",
    "coordinates": [
     138.64336775,
     -34.79201489
    ]
   },
   "properties": {
    "name": "SHOP 4, 10 LAWRENCE HARGRAVE WAY PARAFIELD 5106",
    "locID": "LOC000180021536",
    "tech": "FTTP",
    "upgrade": "NULL_NA",
    "gnaf_pid": "GASA_721277054"
   }
  },
  {
   "type": "Feature",
   "geometry": {
    "type": "Point",
    "coordinates": [
     138.6456344,
     -34.79163472
    ]
   },
   "properties": {
    "name": "SITE 17, 3 LAWRENCE HARGRAVE WAY PARAFIELD 5106",
    "locID": "LOC000180638710",
    "tech": "FTTP",
    "upgrade": "NULL_NA",
    "gnaf_pid": "GASA_721277279"
   }
  },
  {
   "type": "Feature",
   "geometry": {
    "type": "Point",
    "coordinates": [
     138.64235851,
     -34.79581707
    ]
   },
   "properties": {
    "name": "SHOP 2, 21 LAWRENCE HARGRAVE WAY PARAFIELD 5106",
    "locID": "ChIJkwkyEQO0sGoR3k9_j4_oU0Q",
    "tech": "FTTP",
    "upgrade": "UNKNOWN",
    "gnaf_pid": "GASA_721277507"
   }
  },
  {
   "type": "Feature",
   "geometry": {
    "type": "Point",
    "coordinates": [
     138.63800798,
     -34.8005353
    ]
   },
   "properties": {
    "name": "19 NOBBY BUCKLEY DRIVE PARAFIELD 5106",
    "locID": "ChIJs1aUs6C2sGoRe2U1BV4VZSs",
    "tech": "FTTP",
    "upgrade": "UNKNOWN",
    "gnaf_pid": "GASA_721277875"
   }
  },
  {
   "type": "Feature",
   "geometry": {
    "type": "Point",
    "coordinates": [
     138.6393793,
     -34.79886837
    ]
   },
   "properties": {
    "name": "SHOP 5, 17 NOBBY BUCKLEY DRIVE PARAFIELD 5106",
    "locID": "ChIJNZx7gx20sGoRhaxost5gODY",
    "tech": "FTTP",
    "upgrade": "UNKNOWN",
    "gnaf_pid": "GASA_721304241"
   }
  },
  {
   "type": "Feature",
   "geometry": {
    "type": "Point",
    "coordinates": [
     138.6393793,
     -34.79886837
    ]
   },
   "properties": {
    "name": "SHOP 4, 17 NOBBY BUCKLEY DRIVE PARAFIELD 5106",
    "locID": "ChIJNZx7gx20sGoRhaxost5gODY",
    "tech": "FTTP",
    "upgrade": "UNKNOWN",
    "gnaf_pid": "GASA_721304254"
   }
  },
  {
   "type": "Feature",
   "geometry": {
    "type": "Point",
    "coordinates": [
     138.64336775,
     -34.79201489
    ]
   },
   "properties": {
    "name": "SHOP 5, 10 LAWRENCE HARGRAVE WAY PARAFIELD 5106",
    "locID": "LOC000180021515",
    "tech": "FTTP",
    "upgrade": "NULL_NA",
    "gnaf_pid": "GASA_721304292"
   }
  },
  {
   "type": "Feature",
   "geometry": {
    "type": "Point",
    "coordinates": [
     138.63800798,
     -34.8005353
    ]
   },
   "properties": {
    "name": "SHOP 1, 19 NOBBY BUCKLEY DRIVE PARAFIELD 5106",
    "locID": "ChIJs1aUs6C2sGoRe2U1BV4VZSs",
    "tech": "FTTP",
    "upgrade": "UNKNOWN",
    "gnaf_pid": "GASA_721304304"
   }
  },
  {
   "type": "Feature",
   "geometry": {
    "type": "Point",
    "coordinates": [
     138.63854103,
     -34.80029778
    ]
   },
   "properties": {
    "name": "3 KESTERS ROAD PARAFIELD 5106",
    "locID": "LOC000191551871",
    "tech": "FTTP",
    "upgrade": "NULL_NA",
    "gnaf_pid": "GASA_721304307"
   }
  },
  {
   "type": "Feature",
   "geometry": {
    "type": "Point",
    "coordinates": [
     138.64280005,
     -34.79359151
    ]
   },
   "properties": {
    "name": "13 LAWRENCE HARGRAVE WAY PARAFIELD 5106",
    "locID": "LOC000157130119",
    "tech": "FTTP",
    "upgrade": "NULL_NA",
    "gnaf_pid": "GASA_721304325"
   }
  },
  {
   "type": "Feature",
   "geometry": {
    "type": "Point",
    "coordinates": [
     138.64319613,
     -34.79043732
    ]
   },
   "properties": {
    "name": "20 HORRIE MILLER DRIVE PARAFIELD 5106",
    "locID": "ChIJyQW12gC0sGoRzlOijwUlokQ",
    "tech": "FTTP",
    "upgrade": "UNKNOWN",
    "gnaf_pid": "GASA_721304368"
   }
  },
  {
   "type": "Feature",
   "geometry": {
    "type": "Point",
    "coordinates": [
     138.64220961,
     -34.7960288
    ]
   },
   "properties": {
    "name": "SHOP 5, 21 LAWRENCE HARGRAVE WAY PARAFIELD 5106",
    "locID": "ChIJkwkyEQO0sGoR3k9_j4_oU0Q",
    "tech": "FTTP",
    "upgrade": "UNKNOWN",
    "gnaf_pid": "GASA_721304371"
   }
  },
  {
   "type": "Feature",
   "geometry": {
    "type": "Point",
    "coordinates": [
     138.63912146,
     -34.7869714
    ]
   },
   "properties": {
    "name": "18 KINGS ROAD PARAFIELD 5106",
    "locID": "ChIJEZRB__-zsGoRJro8wL3mcPo",
    "tech": "FTTP",
    "upgrade": "UNKNOWN",
    "gnaf_pid": "GASA_721304432"
   }
  },
  {
   "type": "Feature",
   "geometry": {
    "type": "Point",
    "coordinates": [
     138.63800798,
     -34.8005353
    ]
   },
   "properties": {
    "name": "SHOP 2, 19 NOBBY BUCKLEY DRIVE PARAFIELD 5106",
    "locID": "ChIJs1aUs6C2sGoRe2U1BV4VZSs",
    "tech": "FTTP",
    "upgrade": "UNKNOWN",
    "gnaf_pid": "GASA_721304453"
   }
  },
  {
   "type": "Feature",
   "geometry": {
    "type": "Point",
    "coordinates": [
     138.64280005,
     -34.79359151
    ]
   },
   "properties": {
    "name": "SHOP 4, 15 LAWRENCE HARGRAVE WAY PARAFIELD 5106",
    "locID": "LOC000184025442",
    "tech": "FTTP",
    "upgrade": "NULL_NA",
    "gnaf_pid": "GASA_721304465"
   }
  },
  {
   "type": "Feature",
   "geometry": {
    "type": "Point",
    "coordinates": [
     138.64220961,
     -34.7960288
    ]
   },
   "properties": {
    "name": "SHOP 1, 21 LAWRENCE HARGRAVE WAY PARAFIELD 5106",
    "locID": "ChIJkwkyEQO0sGoR3k9_j4_oU0Q",
    "tech": "FTTP",
    "upgrade": "UNKNOWN",
    "gnaf_pid": "GASA_721304469"
   }
  },
  {
   "type": "Feature",
   "geometry": {
    "type": "Point",
    "coordinates": [
     138.63854103,
     -34.80029778
    ]
   },
   "properties": {
    "name": "1 KESTERS ROAD PARAFIELD 5106",
    "locID": "LOC000191551859",
    "tech": "FTTP",
    "upgrade": "NULL_NA",
    "gnaf_pid": "GASA_721304473"
   }
  },
  {
   "type": "Feature",
   "geometry": {
    "type": "Point",
    "coordinates": [
     138.64271729,
     -34.79530191
    ]
   },
   "properties": {
    "name": "19 LAWRENCE HARGRAVE WAY PARAFIELD 5106",
    "locID": "ChIJ7QOWnwO0sGoRxBq6YKO03y0",
    "tech": "FTTP",
    "upgrade": "UNKNOWN",
    "gnaf_pid": "GASA_721304498"
   }
  },
  {
   "type": "Feature",
   "geometry": {
    "type": "Point",
    "coordinates": [
     138.6393793,
     -34.79886837
    ]
   },
   "properties": {
    "name": "SHOP 3, 17 NOBBY BUCKLEY DRIVE PARAFIELD 5106",
    "locID": "ChIJNZx7gx20sGoRhaxost5gODY",
    "tech": "FTTP",
    "upgrade": "UNKNOWN",
    "gnaf_pid": "GASA_721304499"
   }
  },
  {
   "type": "Feature",
   "geometry": {
    "type": "Point",
    "coordinates": [
     138.64220961,
     -34.7960288
    ]
   },
   "properties": {
    "name": "SHOP 3, 21 LAWRENCE HARGRAVE WAY PARAFIELD 5106",
    "locID": "ChIJkwkyEQO0sGoR3k9_j4_oU0Q",
    "tech": "FTTP",
    "upgrade": "UNKNOWN",
    "gnaf_pid": "GASA_721304506"
   }
  },
  {
   "type": "Feature",
   "geometry": {
    "type": "Point",
    "coordinates": [
     138.64280005,
     -34.79359151
    ]
   },
   "properties": {
    "name": "15 LAWRENCE HARGRAVE WAY PARAFIELD 5106",
    "locID": "LOC000184025442",
    "tech": "FTTP",
    "upgrade": "NULL_NA",
    "gnaf_pid": "GASA_721304516"
   }
  },
  {
   "type": "Feature",
   "geometry": {
    "type": "Point",
    "coordinates": [
     138.64280005,
     -34.79359151
    ]
   },
   "properties": {
    "name": "SHOP 2, 15 LAWRENCE HARGRAVE WAY PARAFIELD 5106",
    "locID": "LOC000184025442",
    "tech": "FTTP",
    "upgrade": "NULL_NA",
    "gnaf_pid": "GASA_721304530"
   }
  },
  {
   "type": "Feature",
   "geometry": {
    "type": "Point",
    "coordinates": [
     138.64501985,
     -34.79192601
    ]
   },
   "properties": {
    "name": "5 LAWRENCE HARGRAVE WAY PARAFIELD 5106",
    "locID": "LOC000008460670",
    "tech": "FTTP",
    "upgrade": "NULL_NA",
    "gnaf_pid": "GASA_721304545"
   }
  },
  {
   "type": "Feature",
   "geometry": {
    "type": "Point",
    "coordinates": [
     138.64280005,
     -34.79359151
    ]
   },
   "properties": {
    "name": "SHOP 3, 15 LAWRENCE HARGRAVE WAY PARAFIELD 5106",
    "locID": "LOC000184025442",
    "tech": "FTTP",
    "upgrade": "NULL_NA",
    "gnaf_pid": "GASA_721304576"
   }
  },
  {
   "type": "Feature",
   "geometry": {
    "type": "Point",
    "coordinates": [
     138.64220961,
     -34.7960288
    ]
   },
   "properties": {
    "name": "21 LAWRENCE HARGRAVE WAY PARAFIELD 5106",
    "locID": "ChIJkwkyEQO0sGoR3k9_j4_oU0Q",
    "tech": "FTTP",
    "upgrade": "UNKNOWN",
    "gnaf_pid": "GASA_721304584"
   }
  },
  {
   "type": "Feature",
   "geometry": {
    "type": "Point",
    "coordinates": [
     138.64280005,
     -34.79359151
    ]
   },
   "properties": {
    "name": "SHOP 1, 15 LAWRENCE HARGRAVE WAY PARAFIELD 5106",
    "locID": "LOC000184025442",
    "tech": "FTTP",
    "upgrade": "NULL_NA",
    "gnaf_pid": "GASA_721304596"
   }
  },
  {
   "type": "Feature",
   "geometry": {
    "type": "Point",
    "coordinates": [
     138.6393793,
     -34.79886837
    ]
   },
   "properties": {
    "name": "SHOP 2, 17 NOBBY BUCKLEY DRIVE PARAFIELD 5106",
    "locID": "ChIJNZx7gx20sGoRhaxost5gODY",
    "tech": "FTTP",
    "upgrade": "UNKNOWN",
    "gnaf_pid": "GASA_721304597"
   }
  },
  {
   "type": "Feature",
   "geometry": {
    "type": "Point",
    "coordinates": [
     138.6440337,
     -34.79082673
    ]
   },
   "properties": {
    "name": "SHOP 3, 14 KINGS ROAD PARAFIELD 5106",
    "locID": "LOC000157128558",
    "tech": "FTTP",
    "upgrade": "NULL_NA",
    "gnaf_pid": "GASA_721304611"
   }
  },
  {
   "type": "Feature",
   "geometry": {
    "type": "Point",
    "coordinates": [
     138.64582474,
     -34.79138401
    ]
   },
   "properties": {
    "name": "16 KINGS ROAD PARAFIELD 5106",
    "locID": "ChIJi0fMDwe0sGoRktAi_IER3TA",
    "tech": "FTTP",
    "upgrade": "UNKNOWN",
    "gnaf_pid": "GASA_721304628"
   }
  },
  {
   "type": "Feature",
   "geometry": {
    "type": "Point",
    "coordinates": [
     138.6393793,
     -34.79886837
    ]
   },
   "properties": {
    "name": "SHOP 1, 17 NOBBY BUCKLEY DRIVE PARAFIELD 5106",
    "locID": "ChIJNZx7gx20sGoRhaxost5gODY",
    "tech": "FTTP",
    "upgrade": "UNKNOWN",
    "gnaf_pid": "GASA_721304650"
   }
  },
  {
   "type": "Feature",
   "geometry": {
    "type": "Point",
    "coordinates": [
     138.6393793,
     -34.79886837
    ]
   },
   "properties": {
    "name": "SHOP 6, 17 NOBBY BUCKLEY DRIVE PARAFIELD 5106",
    "locID": "ChIJNZx7gx20sGoRhaxost5gODY",
    "tech": "FTTP",
    "upgrade": "UNKNOWN",
    "gnaf_pid": "GASA_721304749"
   }
  },
  {
   "type": "Feature",
   "geometry": {
    "type": "Point",
    "coordinates": [
     138.64163095,
     -34.79669519
    ]
   },
   "properties": {
    "name": "7-9 LAWRENCE HARGRAVE WAY PARAFIELD 5106",
    "locID": "LOC000075791786",
    "tech": "FTTP",
    "upgrade": "NULL_NA",
    "gnaf_pid": "GASA_721304777"
   }
  },
  {
   "type": "Feature",
   "geometry": {
    "type": "Point",
    "coordinates": [
     138.64336775,
     -34.79201489
    ]
   },
   "properties": {
    "name": "8-10 LAWRENCE HARGRAVE WAY PARAFIELD 5106",
    "locID": "ChIJ-eaLDQO0sGoRDm-DUtt52F0",
    "tech": "FTTP",
    "upgrade": "UNKNOWN",
    "gnaf_pid": "GASA_721341960"
   }
  }
 ]
}