{
 "type": "FeatureCollection",
 "generated": "2023-10-22T07:25:35.634934",
 "suburb": "PARATOO",
 "features": [
  {
   "type": "Feature",
   "geometry": {
    "type": "Point",
    "coordinates": [
     139.2918134,
     -32.7047562
    ]
   },
   "properties": {
    "name": "LOT 13 OLD WHYDOWN ROAD PARATOO 5422",
    "locID": "LOC000131381932",
    "tech": "SATELLITE",
    "upgrade": "NULL_NA",
    "gnaf_pid": "GASA_424398541"
   }
  },
  {
   "type": "Feature",
   "geometry": {
    "type": "Point",
    "coordinates": [
     139.21970293,
     -32.71418306
    ]
   },
   "properties": {
    "name": "LOT 315 ORROROO-PARATOO ROAD PARATOO 5422",
    "locID": "LOC000114315452",
    "tech": "SATELLITE",
    "upgrade": "NULL_NA",
    "gnaf_pid": "GASA_424398708"
   }
  },
  {
   "type": "Feature",
   "geometry": {
    "type": "Point",
    "coordinates": [
     139.12043447,
     -32.72535096
    ]
   },
   "properties": {
    "name": "LOT 318 ORROROO-PARATOO ROAD PARATOO 5422",
    "locID": "LOC000114315452",
    "tech": "SATELLITE",
    "upgrade": "NULL_NA",
    "gnaf_pid": "GASA_424398709"
   }
  },
  {
   "type": "Feature",
   "geometry": {
    "type": "Point",
    "coordinates": [
     139.20719832,
     -32.73982724
    ]
   },
   "properties": {
    "name": "LOT 10 WHITES WELL ROAD PARATOO 5422",
    "locID": "LOC000131381921",
    "tech": "SATELLITE",
    "upgrade": "NULL_NA",
    "gnaf_pid": "GASA_424408751"
   }
  },
  {
   "type": "Feature",
   "geometry": {
    "type": "Point",
    "coordinates": [
     139.35086683,
     -32.63383195
    ]
   },
   "properties": {
    "name": "LOT 279 BAILEY ROAD PARATOO 5422",
    "locID": "EiVCYWlsZXkgUmQsIFBhcmF0b28gU0EgNTQyMiwgQXVzdHJhbGlhIi4qLAoUChIJl9NGpPQzvmoRWzq0BufTcTASFAoSCd9xXeRU0L9qEZAXj2JUNgME",
    "tech": "SATELLITE",
    "upgrade": "UNKNOWN",
    "gnaf_pid": "GASA_424689656"
   }
  },
  {
   "type": "Feature",
   "geometry": {
    "type": "Point",
    "coordinates": [
     139.29395737,
     -32.63135895
    ]
   },
   "properties": {
    "name": "1268 ARSCOTT ROAD PARATOO 5422",
    "locID": "ChIJ9auHUy0yvmoRtiPNGj40T8o",
    "tech": "SATELLITE",
    "upgrade": "UNKNOWN",
    "gnaf_pid": "GASA_424695723"
   }
  },
  {
   "type": "Feature",
   "geometry": {
    "type": "Point",
    "coordinates": [
     139.26253112,
     -32.71257291
    ]
   },
   "properties": {
    "name": "951 OLD WHYDOWN ROAD PARATOO 5422",
    "locID": "ChIJYyZfa0A2vmoR7iV7nf433jg",
    "tech": "SATELLITE",
    "upgrade": "UNKNOWN",
    "gnaf_pid": "GASA_424705707"
   }
  },
  {
   "type": "Feature",
   "geometry": {
    "type": "Point",
    "coordinates": [
     139.2411175,
     -32.65796673
    ]
   },
   "properties": {
    "name": "1466 ORROROO-PARATOO ROAD PARATOO 5422",
    "locID": "ChIJLf_2fyg3vmoRvZj6Qscnb18",
    "tech": "SATELLITE",
    "upgrade": "UNKNOWN",
    "gnaf_pid": "GASA_424705813"
   }
  },
  {
   "type": "Feature",
   "geometry": {
    "type": "Point",
    "coordinates": [
     139.19556956,
     -32.62666441
    ]
   },
   "properties": {
    "name": "319 MCCOYS WELL ROAD PARATOO 5422",
    "locID": "LOC000131386521",
    "tech": "SATELLITE",
    "upgrade": "NULL_NA",
    "gnaf_pid": "GASA_424903079"
   }
  },
  {
   "type": "Feature",
   "geometry": {
    "type": "Point",
    "coordinates": [
     139.25749747,
     -32.70451247
    ]
   },
   "properties": {
    "name": "1071 OLD WHYDOWN ROAD PARATOO 5422",
    "locID": "LOC000131381932",
    "tech": "SATELLITE",
    "upgrade": "NULL_NA",
    "gnaf_pid": "GASA_424903547"
   }
  },
  {
   "type": "Feature",
   "geometry": {
    "type": "Point",
    "coordinates": [
     139.25914194,
     -32.7130896
    ]
   },
   "properties": {
    "name": "975 OLD WHYDOWN ROAD PARATOO 5422",
    "locID": "ChIJjepmST82vmoRXsjzMRyL-3I",
    "tech": "SATELLITE",
    "upgrade": "UNKNOWN",
    "gnaf_pid": "GASA_425067196"
   }
  },
  {
   "type": "Feature",
   "geometry": {
    "type": "Point",
    "coordinates": [
     139.21680365,
     -32.70886608
    ]
   },
   "properties": {
    "name": "1029 WHITES WELL ROAD PARATOO 5422",
    "locID": "LOC000131381921",
    "tech": "SATELLITE",
    "upgrade": "NULL_NA",
    "gnaf_pid": "GASA_425070434"
   }
  },
  {
   "type": "Feature",
   "geometry": {
    "type": "Point",
    "coordinates": [
     139.15314621,
     -32.66108716
    ]
   },
   "properties": {
    "name": "LOT 317 EAST ARTHUR BORE ROAD PARATOO 5422",
    "locID": "EixFIEFydGh1ciBCb3JlIFJkLCBQYXJhdG9vIFNBIDU0MjIsIEF1c3RyYWxpYSIuKiwKFAoSCUdxCCD-OL5qEXLjcTj2vLVWEhQKEgnfcV3kVNC_ahGQF49iVDYDBA",
    "tech": "SATELLITE",
    "upgrade": "UNKNOWN",
    "gnaf_pid": "GASA_720185386"
   }
  },
  {
   "type": "Feature",
   "geometry": {
    "type": "Point",
    "coordinates": [
     139.29924533,
     -32.68962966
    ]
   },
   "properties": {
    "name": "LOT 312 ORROROO-PARATOO ROAD PARATOO 5422",
    "locID": "LOC000114315452",
    "tech": "SATELLITE",
    "upgrade": "NULL_NA",
    "gnaf_pid": "GASA_720185516"
   }
  },
  {
   "type": "Feature",
   "geometry": {
    "type": "Point",
    "coordinates": [
     139.16452177,
     -32.5954833
    ]
   },
   "properties": {
    "name": "LOT 316 LAMBING CAMP WELL ROAD PARATOO 5422",
    "locID": "EjdMYW1iaW5nIENhbXAgV2VsbCBSZCwgTWluYnVycmEgUGxhaW4gU0EgNTQ0MCwgQXVzdHJhbGlhIi4qLAoUChIJB_Uegp4-vmoRaGf3zAis4c4SFAoSCeeqjU0PF75qEaV9lfX3YE-6",
    "tech": "SATELLITE",
    "upgrade": "UNKNOWN",
    "gnaf_pid": "GASA_720186651"
   }
  },
  {
   "type": "Feature",
   "geometry": {
    "type": "Point",
    "coordinates": [
     139.3330496,
     -32.73255608
    ]
   },
   "properties": {
    "name": "LOT 288 BARRIER HIGHWAY PARATOO 5422",
    "locID": "LOC000116322186",
    "tech": "SATELLITE",
    "upgrade": "NULL_NA",
    "gnaf_pid": "GASA_720187669"
   }
  },
  {
   "type": "Feature",
   "geometry": {
    "type": "Point",
    "coordinates": [
     139.30032725,
     -32.69792848
    ]
   },
   "properties": {
    "name": "LOT 313 ORROROO-PARATOO ROAD PARATOO 5422",
    "locID": "LOC000114315452",
    "tech": "SATELLITE",
    "upgrade": "NULL_NA",
    "gnaf_pid": "GASA_720189199"
   }
  },
  {
   "type": "Feature",
   "geometry": {
    "type": "Point",
    "coordinates": [
     139.34106236,
     -32.67797969
    ]
   },
   "properties": {
    "name": "LOT 100 ORROROO-PARATOO ROAD PARATOO 5422",
    "locID": "LOC000114315452",
    "tech": "SATELLITE",
    "upgrade": "NULL_NA",
    "gnaf_pid": "GASA_720189286"
   }
  },
  {
   "type": "Feature",
   "geometry": {
    "type": "Point",
    "coordinates": [
     139.33539147,
     -32.7327069
    ]
   },
   "properties": {
    "name": "LOT 17 BARRIER HIGHWAY PARATOO 5422",
    "locID": "LOC000116322186",
    "tech": "SATELLITE",
    "upgrade": "NULL_NA",
    "gnaf_pid": "GASA_720190233"
   }
  }
 ]
}