{
 "type": "FeatureCollection",
 "generated": "2024-09-21T09:36:45.144434",
 "suburb": "PARAFIELD",
 "features": [
  {
   "type": "Feature",
   "geometry": {
    "type": "Point",
    "coordinates": [
     138.63749207,
     -34.78769225
    ]
   },
   "properties": {
    "name": "15 BUTLER AVENUE PARAFIELD 5106",
    "locID": "LOC000097047083",
    "tech": "FTTP",
    "upgrade": "NULL_NA",
    "gnaf_pid": "GASA_416819237"
   }
  },
  {
   "type": "Feature",
   "geometry": {
    "type": "Point",
    "coordinates": [
     138.63530686,
     -34.78698478
    ]
   },
   "properties": {
    "name": "9 DAKOTA DRIVE PARAFIELD 5106",
    "locID": "LOC000183353603",
    "tech": "FTTP",
    "upgrade": "NULL_NA",
    "gnaf_pid": "GASA_416819240"
   }
  },
  {
   "type": "Feature",
   "geometry": {
    "type": "Point",
    "coordinates": [
     138.63530686,
     -34.78698478
    ]
   },
   "properties": {
    "name": "27 DAKOTA DRIVE PARAFIELD 5106",
    "locID": "LOC000187498409",
    "tech": "FTTP",
    "upgrade": "NULL_NA",
    "gnaf_pid": "GASA_416819242"
   }
  },
  {
   "type": "Feature",
   "geometry": {
    "type": "Point",
    "coordinates": [
     138.6351673,
     -34.78928094
    ]
   },
   "properties": {
    "name": "8 KITTYHAWK LANE PARAFIELD 5106",
    "locID": "LOC000074079911",
    "tech": "FTTP",
    "upgrade": "NULL_NA",
    "gnaf_pid": "GASA_416819246"
   }
  },
  {
   "type": "Feature",
   "geometry": {
    "type": "Point",
    "coordinates": [
     138.6351673,
     -34.78928094
    ]
   },
   "properties": {
    "name": "35 KITTYHAWK LANE PARAFIELD 5106",
    "locID": "LOC000003493696",
    "tech": "FTTP",
    "upgrade": "NULL_NA",
    "gnaf_pid": "GASA_416819247"
   }
  },
  {
   "type": "Feature",
   "geometry": {
    "type": "Point",
    "coordinates": [
     138.6351673,
     -34.78928094
    ]
   },
   "properties": {
    "name": "39 KITTYHAWK LANE PARAFIELD 5106",
    "locID": "LOC000072270532",
    "tech": "FTTP",
    "upgrade": "NULL_NA",
    "gnaf_pid": "GASA_416819248"
   }
  },
  {
   "type": "Feature",
   "geometry": {
    "type": "Point",
    "coordinates": [
     138.6351673,
     -34.78928094
    ]
   },
   "properties": {
    "name": "55 KITTYHAWK LANE PARAFIELD 5106",
    "locID": "LOC000006288541",
    "tech": "FTTP",
    "upgrade": "NULL_NA",
    "gnaf_pid": "GASA_416819250"
   }
  },
  {
   "type": "Feature",
   "geometry": {
    "type": "Point",
    "coordinates": [
     138.6378351,
     -34.78848101
    ]
   },
   "properties": {
    "name": "171 ANDERSON DRIVE PARAFIELD 5106",
    "locID": "LOC000182509155",
    "tech": "FTTP",
    "upgrade": "NULL_NA",
    "gnaf_pid": "GASA_416822092"
   }
  },
  {
   "type": "Feature",
   "geometry": {
    "type": "Point",
    "coordinates": [
     138.6378351,
     -34.78848101
    ]
   },
   "properties": {
    "name": "50B ANDERSON DRIVE PARAFIELD 5106",
    "locID": "LOC000092984402",
    "tech": "FTTP",
    "upgrade": "NULL_NA",
    "gnaf_pid": "GASA_416822093"
   }
  },
  {
   "type": "Feature",
   "geometry": {
    "type": "Point",
    "coordinates": [
     138.6378351,
     -34.78848101
    ]
   },
   "properties": {
    "name": "59 ANDERSON DRIVE PARAFIELD 5106",
    "locID": "LOC000049680624",
    "tech": "FTTP",
    "upgrade": "NULL_NA",
    "gnaf_pid": "GASA_416822094"
   }
  },
  {
   "type": "Feature",
   "geometry": {
    "type": "Point",
    "coordinates": [
     138.6378351,
     -34.78848101
    ]
   },
   "properties": {
    "name": "51 ANDERSON DRIVE PARAFIELD 5106",
    "locID": "LOC100064745098",
    "tech": "FTTP",
    "upgrade": "NULL_NA",
    "gnaf_pid": "GASA_416822095"
   }
  },
  {
   "type": "Feature",
   "geometry": {
    "type": "Point",
    "coordinates": [
     138.6378351,
     -34.78848101
    ]
   },
   "properties": {
    "name": "57 ANDERSON DRIVE PARAFIELD 5106",
    "locID": "LOC100072891228",
    "tech": "FTTP",
    "upgrade": "NULL_NA",
    "gnaf_pid": "GASA_416822097"
   }
  },
  {
   "type": "Feature",
   "geometry": {
    "type": "Point",
    "coordinates": [
     138.6378351,
     -34.78848101
    ]
   },
   "properties": {
    "name": "56 ANDERSON DRIVE PARAFIELD 5106",
    "locID": "LOC000043468996",
    "tech": "FTTP",
    "upgrade": "NULL_NA",
    "gnaf_pid": "GASA_416822098"
   }
  },
  {
   "type": "Feature",
   "geometry": {
    "type": "Point",
    "coordinates": [
     138.6378351,
     -34.78848101
    ]
   },
   "properties": {
    "name": "11 ANDERSON DRIVE PARAFIELD 5106",
    "locID": "LOC000034188822",
    "tech": "FTTP",
    "upgrade": "NULL_NA",
    "gnaf_pid": "GASA_416822100"
   }
  },
  {
   "type": "Feature",
   "geometry": {
    "type": "Point",
    "coordinates": [
     138.6378351,
     -34.78848101
    ]
   },
   "properties": {
    "name": "169 ANDERSON DRIVE PARAFIELD 5106",
    "locID": "LOC000103259538",
    "tech": "FTTP",
    "upgrade": "NULL_NA",
    "gnaf_pid": "GASA_416822103"
   }
  },
  {
   "type": "Feature",
   "geometry": {
    "type": "Point",
    "coordinates": [
     138.6378351,
     -34.78848101
    ]
   },
   "properties": {
    "name": "52 ANDERSON DRIVE PARAFIELD 5106",
    "locID": "LOC000044724289",
    "tech": "FTTP",
    "upgrade": "NULL_NA",
    "gnaf_pid": "GASA_416822104"
   }
  },
  {
   "type": "Feature",
   "geometry": {
    "type": "Point",
    "coordinates": [
     138.6378351,
     -34.78848101
    ]
   },
   "properties": {
    "name": "58 ANDERSON DRIVE PARAFIELD 5106",
    "locID": "LOC000071421620",
    "tech": "FTTP",
    "upgrade": "NULL_NA",
    "gnaf_pid": "GASA_416822105"
   }
  },
  {
   "type": "Feature",
   "geometry": {
    "type": "Point",
    "coordinates": [
     138.6378351,
     -34.78848101
    ]
   },
   "properties": {
    "name": "16 ANDERSON DRIVE PARAFIELD 5106",
    "locID": "LOC000157127771",
    "tech": "FTTP",
    "upgrade": "NULL_NA",
    "gnaf_pid": "GASA_416822106"
   }
  },
  {
   "type": "Feature",
   "geometry": {
    "type": "Point",
    "coordinates": [
     138.64336775,
     -34.79201489
    ]
   },
   "properties": {
    "name": "SHOP 1, 10 LAWRENCE HARGRAVE WAY PARAFIELD 5106",
    "locID": "LOC000180021536",
    "tech": "FTTP",
    "upgrade": "NULL_NA",
    "gnaf_pid": "GASA_416822113"
   }
  },
  {
   "type": "Feature",
   "geometry": {
    "type": "Point",
    "coordinates": [
     138.64336775,
     -34.79201489
    ]
   },
   "properties": {
    "name": "SHOP 2, 10 LAWRENCE HARGRAVE WAY PARAFIELD 5106",
    "locID": "LOC000180021536",
    "tech": "FTTP",
    "upgrade": "NULL_NA",
    "gnaf_pid": "GASA_416822114"
   }
  },
  {
   "type": "Feature",
   "geometry": {
    "type": "Point",
    "coordinates": [
     138.64336775,
     -34.79201489
    ]
   },
   "properties": {
    "name": "SHOP 3, 10 LAWRENCE HARGRAVE WAY PARAFIELD 5106",
    "locID": "LOC000180021536",
    "tech": "FTTP",
    "upgrade": "NULL_NA",
    "gnaf_pid": "GASA_416822115"
   }
  },
  {
   "type": "Feature",
   "geometry": {
    "type": "Point",
    "coordinates": [
     138.6440337,
     -34.79082673
    ]
   },
   "properties": {
    "name": "14 KINGS ROAD PARAFIELD 5106",
    "locID": "LOC000157128558",
    "tech": "FTTP",
    "upgrade": "NULL_NA",
    "gnaf_pid": "GASA_422041504"
   }
  },
  {
   "type": "Feature",
   "geometry": {
    "type": "Point",
    "coordinates": [
     138.64336775,
     -34.79201489
    ]
   },
   "properties": {
    "name": "10 LAWRENCE HARGRAVE WAY PARAFIELD 5106",
    "locID": "LOC000180021536",
    "tech": "FTTP",
    "upgrade": "NULL_NA",
    "gnaf_pid": "GASA_422050123"
   }
  },
  {
   "type": "Feature",
   "geometry": {
    "type": "Point",
    "coordinates": [
     138.64349646,
     -34.79411661
    ]
   },
   "properties": {
    "name": "11 LAWRENCE HARGRAVE WAY PARAFIELD 5106",
    "locID": "LOC000008460670",
    "tech": "FTTP",
    "upgrade": "NULL_NA",
    "gnaf_pid": "GASA_422050124"
   }
  },
  {
   "type": "Feature",
   "geometry": {
    "type": "Point",
    "coordinates": [
     138.64299895,
     -34.79487183
    ]
   },
   "properties": {
    "name": "17 LAWRENCE HARGRAVE WAY PARAFIELD 5106",
    "locID": "LOC000152551922",
    "tech": "FTTP",
    "upgrade": "NULL_NA",
    "gnaf_pid": "GASA_423685512"
   }
  },
  {
   "type": "Feature",
   "geometry": {
    "type": "Point",
    "coordinates": [
     138.63530686,
     -34.78698478
    ]
   },
   "properties": {
    "name": "28 DAKOTA DRIVE PARAFIELD 5106",
    "locID": "LOC000157128251",
    "tech": "FTTP",
    "upgrade": "NULL_NA",
    "gnaf_pid": "GASA_423696587"
   }
  },
  {
   "type": "Feature",
   "geometry": {
    "type": "Point",
    "coordinates": [
     138.6351673,
     -34.78928094
    ]
   },
   "properties": {
    "name": "5 KITTYHAWK LANE PARAFIELD 5106",
    "locID": "LOC000098855996",
    "tech": "FTTP",
    "upgrade": "NULL_NA",
    "gnaf_pid": "GASA_423867152"
   }
  },
  {
   "type": "Feature",
   "geometry": {
    "type": "Point",
    "coordinates": [
     138.6378351,
     -34.78848101
    ]
   },
   "properties": {
    "name": "61 ANDERSON DRIVE PARAFIELD 5106",
    "locID": "LOC000180244759",
    "tech": "FTTP",
    "upgrade": "NULL_NA",
    "gnaf_pid": "GASA_424146111"
   }
  },
  {
   "type": "Feature",
   "geometry": {
    "type": "Point",
    "coordinates": [
     138.62814791,
     -34.78636315
    ]
   },
   "properties": {
    "name": "LOT 201 KINGS ROAD PARAFIELD 5106",
    "locID": "LOC000021724976",
    "tech": "HFC",
    "upgrade": "NULL_NA",
    "gnaf_pid": "GASA_424184175"
   }
  },
  {
   "type": "Feature",
   "geometry": {
    "type": "Point",
    "coordinates": [
     138.63530686,
     -34.78698478
    ]
   },
   "properties": {
    "name": "13 DAKOTA DRIVE PARAFIELD 5106",
    "locID": "LOC000157128192",
    "tech": "FTTP",
    "upgrade": "NULL_NA",
    "gnaf_pid": "GASA_424646561"
   }
  },
  {
   "type": "Feature",
   "geometry": {
    "type": "Point",
    "coordinates": [
     138.63684416,
     -34.78840774
    ]
   },
   "properties": {
    "name": "18 TIGER MOTH LANE PARAFIELD 5106",
    "locID": "LOC000183320130",
    "tech": "FTTP",
    "upgrade": "NULL_NA",
    "gnaf_pid": "GASA_424647379"
   }
  },
  {
   "type": "Feature",
   "geometry": {
    "type": "Point",
    "coordinates": [
     138.61811555,
     -34.79754669
    ]
   },
   "properties": {
    "name": "LOT 2 ELDER SMITH ROAD PARAFIELD 5106",
    "locID": "LOC000130295580",
    "tech": "FTTP",
    "upgrade": "FTTP_NA",
    "gnaf_pid": "GASA_424820103",
    "tech_change_status": "Previous Tech Disconnected",
    "program_type": "On-Demand N2P SDU/MDU Simple",
    "target_eligibility_quarter": "NA"
   }
  },
  {
   "type": "Feature",
   "geometry": {
    "type": "Point",
    "coordinates": [
     138.63530686,
     -34.78698478
    ]
   },
   "properties": {
    "name": "UNIT 1, 9 DAKOTA DRIVE PARAFIELD 5106",
    "locID": "LOC000183353603",
    "tech": "FTTP",
    "upgrade": "NULL_NA",
    "gnaf_pid": "GASA_424834364"
   }
  },
  {
   "type": "Feature",
   "geometry": {
    "type": "Point",
    "coordinates": [
     138.64402194,
     -34.79087688
    ]
   },
   "properties": {
    "name": "SHOP 1, 14 KINGS ROAD PARAFIELD 5106",
    "locID": "LOC000157128558",
    "tech": "FTTP",
    "upgrade": "NULL_NA",
    "gnaf_pid": "GASA_424835905"
   }
  },
  {
   "type": "Feature",
   "geometry": {
    "type": "Point",
    "coordinates": [
     138.63912146,
     -34.7869714
    ]
   },
   "properties": {
    "name": "8 KINGS ROAD PARAFIELD 5106",
    "locID": "LOC000116151892",
    "tech": "FTTP",
    "upgrade": "NULL_NA",
    "gnaf_pid": "GASA_424835907"
   }
  },
  {
   "type": "Feature",
   "geometry": {
    "type": "Point",
    "coordinates": [
     138.6351673,
     -34.78928094
    ]
   },
   "properties": {
    "name": "32 KITTYHAWK LANE PARAFIELD 5106",
    "locID": "LOC000116148036",
    "tech": "FTTP",
    "upgrade": "NULL_NA",
    "gnaf_pid": "GASA_424835911"
   }
  },
  {
   "type": "Feature",
   "geometry": {
    "type": "Point",
    "coordinates": [
     138.6351673,
     -34.78928094
    ]
   },
   "properties": {
    "name": "65 KITTYHAWK LANE PARAFIELD 5106",
    "locID": "LOC100070721502",
    "tech": "FTTP",
    "upgrade": "NULL_NA",
    "gnaf_pid": "GASA_424835912"
   }
  },
  {
   "type": "Feature",
   "geometry": {
    "type": "Point",
    "coordinates": [
     138.63757088,
     -34.78662632
    ]
   },
   "properties": {
    "name": "177 LOCKHEED LANE PARAFIELD 5106",
    "locID": "LOC000157130334",
    "tech": "FTTP",
    "upgrade": "NULL_NA",
    "gnaf_pid": "GASA_424836129"
   }
  },
  {
   "type": "Feature",
   "geometry": {
    "type": "Point",
    "coordinates": [
     138.64562915,
     -34.7916449
    ]
   },
   "properties": {
    "name": "3 LAWRENCE HARGRAVE WAY PARAFIELD 5106",
    "locID": "LOC000180638710",
    "tech": "FTTP",
    "upgrade": "NULL_NA",
    "gnaf_pid": "GASA_425718361"
   }
  },
  {
   "type": "Feature",
   "geometry": {
    "type": "Point",
    "coordinates": [
     138.64562915,
     -34.7916449
    ]
   },
   "properties": {
    "name": "SHOP 2, 3 LAWRENCE HARGRAVE WAY PARAFIELD 5106",
    "locID": "LOC000180638710",
    "tech": "FTTP",
    "upgrade": "NULL_NA",
    "gnaf_pid": "GASA_721274537"
   }
  },
  {
   "type": "Feature",
   "geometry": {
    "type": "Point",
    "coordinates": [
     138.64562915,
     -34.7916449
    ]
   },
   "properties": {
    "name": "SHOP 3, 3 LAWRENCE HARGRAVE WAY PARAFIELD 5106",
    "locID": "LOC000008444528",
    "tech": "FTTP",
    "upgrade": "NULL_NA",
    "gnaf_pid": "GASA_721274687"
   }
  },
  {
   "type": "Feature",
   "geometry": {
    "type": "Point",
    "coordinates": [
     138.64562915,
     -34.7916449
    ]
   },
   "properties": {
    "name": "SHOP 1, 3 LAWRENCE HARGRAVE WAY PARAFIELD 5106",
    "locID": "LOC000008444528",
    "tech": "FTTP",
    "upgrade": "NULL_NA",
    "gnaf_pid": "GASA_721276258"
   }
  },
  {
   "type": "Feature",
   "geometry": {
    "type": "Point",
    "coordinates": [
     138.64067577,
     -34.79681458
    ]
   },
   "properties": {
    "name": "1-15 NOBBY BUCKLEY DRIVE PARAFIELD 5106",
    "locID": "LOC000192901825",
    "tech": "FTTP",
    "upgrade": "NULL_NA",
    "gnaf_pid": "GASA_721276815"
   }
  },
  {
   "type": "Feature",
   "geometry": {
    "type": "Point",
    "coordinates": [
     138.64336775,
     -34.79201489
    ]
   },
   "properties": {
    "name": "SHOP 4, 10 LAWRENCE HARGRAVE WAY PARAFIELD 5106",
    "locID": "LOC000180021536",
    "tech": "FTTP",
    "upgrade": "NULL_NA",
    "gnaf_pid": "GASA_721277054"
   }
  },
  {
   "type": "Feature",
   "geometry": {
    "type": "Point",
    "coordinates": [
     138.64333987,
     -34.79435214
    ]
   },
   "properties": {
    "name": "13 LAWRENCE HARGRAVE WAY PARAFIELD 5106",
    "locID": "LOC000157130119",
    "tech": "FTTP",
    "upgrade": "NULL_NA",
    "gnaf_pid": "GASA_721304325"
   }
  },
  {
   "type": "Feature",
   "geometry": {
    "type": "Point",
    "coordinates": [
     138.64316318,
     -34.79461877
    ]
   },
   "properties": {
    "name": "15 LAWRENCE HARGRAVE WAY PARAFIELD 5106",
    "locID": "LOC000184025442",
    "tech": "FTTP",
    "upgrade": "NULL_NA",
    "gnaf_pid": "GASA_721304516"
   }
  },
  {
   "type": "Feature",
   "geometry": {
    "type": "Point",
    "coordinates": [
     138.64501985,
     -34.79192601
    ]
   },
   "properties": {
    "name": "5 LAWRENCE HARGRAVE WAY PARAFIELD 5106",
    "locID": "LOC000008460670",
    "tech": "FTTP",
    "upgrade": "NULL_NA",
    "gnaf_pid": "GASA_721304545"
   }
  },
  {
   "type": "Feature",
   "geometry": {
    "type": "Point",
    "coordinates": [
     138.64318211,
     -34.7946318
    ]
   },
   "properties": {
    "name": "SHOP 1, 15 LAWRENCE HARGRAVE WAY PARAFIELD 5106",
    "locID": "LOC000184025442",
    "tech": "FTTP",
    "upgrade": "NULL_NA",
    "gnaf_pid": "GASA_721304596"
   }
  },
  {
   "type": "Feature",
   "geometry": {
    "type": "Point",
    "coordinates": [
     138.64449526,
     -34.79301993
    ]
   },
   "properties": {
    "name": "7-9 LAWRENCE HARGRAVE WAY PARAFIELD 5106",
    "locID": "LOC000075791786",
    "tech": "FTTP",
    "upgrade": "NULL_NA",
    "gnaf_pid": "GASA_721304777"
   }
  },
  {
   "type": "Feature",
   "geometry": {
    "type": "Point",
    "coordinates": [
     138.63925523,
     -34.79753347
    ]
   },
   "properties": {
    "name": "22-24 NOBBY BUCKLEY DRIVE PARAFIELD 5106",
    "locID": "LOC000192835114",
    "tech": "FTTP",
    "upgrade": "NULL_NA",
    "gnaf_pid": "GASA_721352142"
   }
  },
  {
   "type": "Feature",
   "geometry": {
    "type": "Point",
    "coordinates": [
     138.63925523,
     -34.79753347
    ]
   },
   "properties": {
    "name": "6 NOBBY BUCKLEY DRIVE PARAFIELD 5106",
    "locID": "LOC000194796092",
    "tech": "FTTP",
    "upgrade": "NULL_NA",
    "gnaf_pid": "GASA_721352704"
   }
  },
  {
   "type": "Feature",
   "geometry": {
    "type": "Point",
    "coordinates": [
     138.63925523,
     -34.79753347
    ]
   },
   "properties": {
    "name": "SHOP 22, 22-24 NOBBY BUCKLEY DRIVE PARAFIELD 5106",
    "locID": "LOC000192835114",
    "tech": "FTTP",
    "upgrade": "NULL_NA",
    "gnaf_pid": "GASA_721513360"
   }
  },
  {
   "type": "Feature",
   "geometry": {
    "type": "Point",
    "coordinates": [
     138.63925523,
     -34.79753347
    ]
   },
   "properties": {
    "name": "SHOP 10A, 22-24 NOBBY BUCKLEY DRIVE PARAFIELD 5106",
    "locID": "LOC000192835114",
    "tech": "FTTP",
    "upgrade": "NULL_NA",
    "gnaf_pid": "GASA_721513561"
   }
  },
  {
   "type": "Feature",
   "geometry": {
    "type": "Point",
    "coordinates": [
     138.63925523,
     -34.79753347
    ]
   },
   "properties": {
    "name": "SHOP 12A, 22-24 NOBBY BUCKLEY DRIVE PARAFIELD 5106",
    "locID": "LOC000192835151",
    "tech": "FTTP",
    "upgrade": "NULL_NA",
    "gnaf_pid": "GASA_721513764"
   }
  },
  {
   "type": "Feature",
   "geometry": {
    "type": "Point",
    "coordinates": [
     138.63925523,
     -34.79753347
    ]
   },
   "properties": {
    "name": "SHOP 39B, 22-24 NOBBY BUCKLEY DRIVE PARAFIELD 5106",
    "locID": "LOC000192835409",
    "tech": "FTTP",
    "upgrade": "NULL_NA",
    "gnaf_pid": "GASA_721513919"
   }
  },
  {
   "type": "Feature",
   "geometry": {
    "type": "Point",
    "coordinates": [
     138.63925523,
     -34.79753347
    ]
   },
   "properties": {
    "name": "SHOP 3, 22-24 NOBBY BUCKLEY DRIVE PARAFIELD 5106",
    "locID": "LOC000192835409",
    "tech": "FTTP",
    "upgrade": "NULL_NA",
    "gnaf_pid": "GASA_721514056"
   }
  },
  {
   "type": "Feature",
   "geometry": {
    "type": "Point",
    "coordinates": [
     138.63925523,
     -34.79753347
    ]
   },
   "properties": {
    "name": "SHOP 2, 22-24 NOBBY BUCKLEY DRIVE PARAFIELD 5106",
    "locID": "LOC000192835409",
    "tech": "FTTP",
    "upgrade": "NULL_NA",
    "gnaf_pid": "GASA_721514081"
   }
  },
  {
   "type": "Feature",
   "geometry": {
    "type": "Point",
    "coordinates": [
     138.63925523,
     -34.79753347
    ]
   },
   "properties": {
    "name": "SHOP 1, 22-24 NOBBY BUCKLEY DRIVE PARAFIELD 5106",
    "locID": "LOC000192835114",
    "tech": "FTTP",
    "upgrade": "NULL_NA",
    "gnaf_pid": "GASA_721514082"
   }
  }
 ]
}