{
 "type": "FeatureCollection",
 "generated": "2023-10-22T07:45:08.250051",
 "suburb": "PENNESHAW",
 "features": [
  {
   "type": "Feature",
   "geometry": {
    "type": "Point",
    "coordinates": [
     137.94352338,
     -35.72662085
    ]
   },
   "properties": {
    "name": "LOT 16 CHEOPIS STREET PENNESHAW 5222",
    "locID": "EisxNiBDaGVvcGlzIFN0LCBQZW5uZXNoYXcgU0EgNTIyMiwgQXVzdHJhbGlhIjASLgoUChIJG1k0M9w3smoRSe1ka9iKnAwQECoUChIJvTRkVdw3smoROqJOnPfMUUM",
    "tech": "WIRELESS",
    "upgrade": "UNKNOWN",
    "gnaf_pid": "GASA_415215038"
   }
  },
  {
   "type": "Feature",
   "geometry": {
    "type": "Point",
    "coordinates": [
     137.9451604,
     -35.72803693
    ]
   },
   "properties": {
    "name": "LOT 114 WRIGHT ROAD PENNESHAW 5222",
    "locID": "LOC000107708685",
    "tech": "WIRELESS",
    "upgrade": "NULL_NA",
    "gnaf_pid": "GASA_415229416"
   }
  },
  {
   "type": "Feature",
   "geometry": {
    "type": "Point",
    "coordinates": [
     137.9559616,
     -35.7284953
    ]
   },
   "properties": {
    "name": "LOT 162 BINNEYS TRACK PENNESHAW 5222",
    "locID": "Ei8xNjIgQmlubmV5cyBUcmFjaywgUGVubmVzaGF3IFNBIDUyMjIsIEF1c3RyYWxpYSIxEi8KFAoSCQlqgE3PN7JqEYiCTIB0u1KLEKIBKhQKEglt6Jil0TeyahE49ZRZHSzLHA",
    "tech": "WIRELESS",
    "upgrade": "UNKNOWN",
    "gnaf_pid": "GASA_415479983"
   }
  },
  {
   "type": "Feature",
   "geometry": {
    "type": "Point",
    "coordinates": [
     137.94340502,
     -35.72180097
    ]
   },
   "properties": {
    "name": "LOT 12 FLINDERS TERRACE PENNESHAW 5222",
    "locID": "LOC000130607419",
    "tech": "WIRELESS",
    "upgrade": "NULL_NA",
    "gnaf_pid": "GASA_415706216"
   }
  },
  {
   "type": "Feature",
   "geometry": {
    "type": "Point",
    "coordinates": [
     137.9432428,
     -35.72222769
    ]
   },
   "properties": {
    "name": "LOT 144 KARATTA TERRACE PENNESHAW 5222",
    "locID": "EjExNDQgS2FyYXR0YSBUZXJyYWNlLCBQZW5uZXNoYXcgU0EgNTIyMiwgQXVzdHJhbGlhIjESLwoUChIJlff3yMI3smoR8AY6SVQ2AxMQkAEqFAoSCZX398jCN7JqETGp9yhNgEr6",
    "tech": "WIRELESS",
    "upgrade": "UNKNOWN",
    "gnaf_pid": "GASA_415708854"
   }
  },
  {
   "type": "Feature",
   "geometry": {
    "type": "Point",
    "coordinates": [
     137.94529248,
     -35.72266457
    ]
   },
   "properties": {
    "name": "LOT 161 INVESTIGATOR TERRACE PENNESHAW 5222",
    "locID": "EjJJbnZlc3RpZ2F0b3IgVGVycmFjZSwgUGVubmVzaGF3IFNBIDUyMjIsIEF1c3RyYWxpYSIuKiwKFAoSCZueTDnDN7JqESvTea4ro4sKEhQKEgkDIWlj4DeyahGQ_I5iVDYDBQ",
    "tech": "WIRELESS",
    "upgrade": "UNKNOWN",
    "gnaf_pid": "GASA_415708863"
   }
  },
  {
   "type": "Feature",
   "geometry": {
    "type": "Point",
    "coordinates": [
     137.94800484,
     -35.72320742
    ]
   },
   "properties": {
    "name": "LOT 39 RAPIDE DRIVE PENNESHAW 5222",
    "locID": "EiozOSBSYXBpZGUgRHIsIFBlbm5lc2hhdyBTQSA1MjIyLCBBdXN0cmFsaWEiMBIuChQKEgmx6WbqxDeyahFhiDFJVDYDExAnKhQKEgk7VZLtxDeyahFjiXXhB6Uinw",
    "tech": "WIRELESS",
    "upgrade": "UNKNOWN",
    "gnaf_pid": "GASA_415726078"
   }
  },
  {
   "type": "Feature",
   "geometry": {
    "type": "Point",
    "coordinates": [
     137.93248376,
     -35.71921223
    ]
   },
   "properties": {
    "name": "LOT 93 CHRISTMAS STREET PENNESHAW 5222",
    "locID": "Ei05MyBDaHJpc3RtYXMgU3QsIFBlbm5lc2hhdyBTQSA1MjIyLCBBdXN0cmFsaWEiMBIuChQKEgl7d11I5TeyahHxijFJVDYDExBdKhQKEgk58UdH5TeyahH4kGV_TsfjPA",
    "tech": "WIRELESS",
    "upgrade": "UNKNOWN",
    "gnaf_pid": "GASA_415726093"
   }
  },
  {
   "type": "Feature",
   "geometry": {
    "type": "Point",
    "coordinates": [
     137.93302809,
     -35.71981588
    ]
   },
   "properties": {
    "name": "UNIT 2, 2 HOWARD DRIVE PENNESHAW 5222",
    "locID": "LOC000106862368",
    "tech": "WIRELESS",
    "upgrade": "NULL_NA",
    "gnaf_pid": "GASA_416243026"
   }
  },
  {
   "type": "Feature",
   "geometry": {
    "type": "Point",
    "coordinates": [
     137.93302809,
     -35.71981588
    ]
   },
   "properties": {
    "name": "UNIT 1, 2 HOWARD DRIVE PENNESHAW 5222",
    "locID": "LOC000106862368",
    "tech": "WIRELESS",
    "upgrade": "NULL_NA",
    "gnaf_pid": "GASA_416244358"
   }
  },
  {
   "type": "Feature",
   "geometry": {
    "type": "Point",
    "coordinates": [
     137.93302809,
     -35.71981588
    ]
   },
   "properties": {
    "name": "UNIT 1, L101 HOWARD DRIVE PENNESHAW 5222",
    "locID": "ChIJVxHdFeU3smoRtD0HYZYxVak",
    "tech": "WIRELESS",
    "upgrade": "UNKNOWN",
    "gnaf_pid": "GASA_416250279"
   }
  },
  {
   "type": "Feature",
   "geometry": {
    "type": "Point",
    "coordinates": [
     137.9455497,
     -35.72169512
    ]
   },
   "properties": {
    "name": "1 FRENCHMANS TERRACE PENNESHAW 5222",
    "locID": "LOC100078132610",
    "tech": "WIRELESS",
    "upgrade": "NULL_NA",
    "gnaf_pid": "GASA_416990168"
   }
  },
  {
   "type": "Feature",
   "geometry": {
    "type": "Point",
    "coordinates": [
     137.9387127,
     -35.7171385
    ]
   },
   "properties": {
    "name": "7 NORTH TERRACE PENNESHAW 5222",
    "locID": "ChIJIxltcek3smoR_t1CkpCldMY",
    "tech": "WIRELESS",
    "upgrade": "UNKNOWN",
    "gnaf_pid": "GASA_416990200"
   }
  },
  {
   "type": "Feature",
   "geometry": {
    "type": "Point",
    "coordinates": [
     137.94340502,
     -35.72180097
    ]
   },
   "properties": {
    "name": "25 FLINDERS TERRACE PENNESHAW 5222",
    "locID": "ChIJDVm5wsI3smoRoezykbryVKo",
    "tech": "WIRELESS",
    "upgrade": "UNKNOWN",
    "gnaf_pid": "GASA_416997825"
   }
  },
  {
   "type": "Feature",
   "geometry": {
    "type": "Point",
    "coordinates": [
     137.9455497,
     -35.72169512
    ]
   },
   "properties": {
    "name": "67 FRENCHMANS TERRACE PENNESHAW 5222",
    "locID": "LOC000109248848",
    "tech": "WIRELESS",
    "upgrade": "NULL_NA",
    "gnaf_pid": "GASA_422042256"
   }
  },
  {
   "type": "Feature",
   "geometry": {
    "type": "Point",
    "coordinates": [
     137.94780426,
     -35.72462555
    ]
   },
   "properties": {
    "name": "7 PELICAN STREET PENNESHAW 5222",
    "locID": "LOC000107528281",
    "tech": "WIRELESS",
    "upgrade": "NULL_NA",
    "gnaf_pid": "GASA_422046218"
   }
  },
  {
   "type": "Feature",
   "geometry": {
    "type": "Point",
    "coordinates": [
     137.93218987,
     -35.72290609
    ]
   },
   "properties": {
    "name": "8 FREYCINET WAY PENNESHAW 5222",
    "locID": "LOC000108328060",
    "tech": "WIRELESS",
    "upgrade": "NULL_NA",
    "gnaf_pid": "GASA_422051516"
   }
  },
  {
   "type": "Feature",
   "geometry": {
    "type": "Point",
    "coordinates": [
     137.93094267,
     -35.71966996
    ]
   },
   "properties": {
    "name": "1 CLARK STREET PENNESHAW 5222",
    "locID": "ChIJM7FV2Po3smoRR7N7oVmF-sM",
    "tech": "WIRELESS",
    "upgrade": "UNKNOWN",
    "gnaf_pid": "GASA_423421636"
   }
  },
  {
   "type": "Feature",
   "geometry": {
    "type": "Point",
    "coordinates": [
     137.94332123,
     -35.71652498
    ]
   },
   "properties": {
    "name": "LOT 1 BAY TERRACE PENNESHAW 5222",
    "locID": "LOC000130596065",
    "tech": "WIRELESS",
    "upgrade": "NULL_NA",
    "gnaf_pid": "GASA_423426089"
   }
  },
  {
   "type": "Feature",
   "geometry": {
    "type": "Point",
    "coordinates": [
     137.9455497,
     -35.72169512
    ]
   },
   "properties": {
    "name": "118 FRENCHMANS TERRACE PENNESHAW 5222",
    "locID": "LOC000108883398",
    "tech": "WIRELESS",
    "upgrade": "NULL_NA",
    "gnaf_pid": "GASA_423428423"
   }
  },
  {
   "type": "Feature",
   "geometry": {
    "type": "Point",
    "coordinates": [
     137.9455497,
     -35.72169512
    ]
   },
   "properties": {
    "name": "120 FRENCHMANS TERRACE PENNESHAW 5222",
    "locID": "LOC000109353225",
    "tech": "WIRELESS",
    "upgrade": "NULL_NA",
    "gnaf_pid": "GASA_423428424"
   }
  },
  {
   "type": "Feature",
   "geometry": {
    "type": "Point",
    "coordinates": [
     137.9455497,
     -35.72169512
    ]
   },
   "properties": {
    "name": "55 FRENCHMANS TERRACE PENNESHAW 5222",
    "locID": "ChIJH_01dMM3smoRrwxS_i1qBq8",
    "tech": "WIRELESS",
    "upgrade": "UNKNOWN",
    "gnaf_pid": "GASA_423428425"
   }
  },
  {
   "type": "Feature",
   "geometry": {
    "type": "Point",
    "coordinates": [
     137.93989355,
     -35.71793079
    ]
   },
   "properties": {
    "name": "25 MIDDLE TERRACE PENNESHAW 5222",
    "locID": "ChIJNfi8l-k3smoRPHImd-cJzO8",
    "tech": "WIRELESS",
    "upgrade": "UNKNOWN",
    "gnaf_pid": "GASA_423430937"
   }
  },
  {
   "type": "Feature",
   "geometry": {
    "type": "Point",
    "coordinates": [
     137.9387127,
     -35.7171385
    ]
   },
   "properties": {
    "name": "49 NORTH TERRACE PENNESHAW 5222",
    "locID": "ChIJNUO_9ek3smoReAZDNF9g5M0",
    "tech": "WIRELESS",
    "upgrade": "UNKNOWN",
    "gnaf_pid": "GASA_423431529"
   }
  },
  {
   "type": "Feature",
   "geometry": {
    "type": "Point",
    "coordinates": [
     137.94732863,
     -35.72467236
    ]
   },
   "properties": {
    "name": "6 PELICAN STREET PENNESHAW 5222",
    "locID": "LOC000130596110",
    "tech": "WIRELESS",
    "upgrade": "NULL_NA",
    "gnaf_pid": "GASA_423432116"
   }
  },
  {
   "type": "Feature",
   "geometry": {
    "type": "Point",
    "coordinates": [
     137.93094267,
     -35.71966996
    ]
   },
   "properties": {
    "name": "LOT 1 CLARK STREET PENNESHAW 5222",
    "locID": "ChIJM7FV2Po3smoRR7N7oVmF-sM",
    "tech": "WIRELESS",
    "upgrade": "UNKNOWN",
    "gnaf_pid": "GASA_423681068"
   }
  },
  {
   "type": "Feature",
   "geometry": {
    "type": "Point",
    "coordinates": [
     137.94612931,
     -35.72543133
    ]
   },
   "properties": {
    "name": "17 WRIGHT ROAD PENNESHAW 5222",
    "locID": "LOC000109020725",
    "tech": "WIRELESS",
    "upgrade": "NULL_NA",
    "gnaf_pid": "GASA_423962547"
   }
  },
  {
   "type": "Feature",
   "geometry": {
    "type": "Point",
    "coordinates": [
     137.95188612,
     -35.72490268
    ]
   },
   "properties": {
    "name": "LOT 107 DOLPHIN WAY PENNESHAW 5222",
    "locID": "LOC000130599502",
    "tech": "WIRELESS",
    "upgrade": "NULL_NA",
    "gnaf_pid": "GASA_424104525"
   }
  },
  {
   "type": "Feature",
   "geometry": {
    "type": "Point",
    "coordinates": [
     137.9455497,
     -35.72169512
    ]
   },
   "properties": {
    "name": "LOT 99 FRENCHMANS TERRACE PENNESHAW 5222",
    "locID": "EjM5OSBGcmVuY2htYW5zIFRlcnJhY2UsIFBlbm5lc2hhdyBTQSA1MjIyLCBBdXN0cmFsaWEiMBIuChQKEglv1flExDeyahExiDFJVDYDExBjKhQKEgn_JabrwzeyahECgTDE66Kc_Q",
    "tech": "WIRELESS",
    "upgrade": "UNKNOWN",
    "gnaf_pid": "GASA_424106912"
   }
  },
  {
   "type": "Feature",
   "geometry": {
    "type": "Point",
    "coordinates": [
     137.9486679,
     -35.72579167
    ]
   },
   "properties": {
    "name": "LOT 22 TRETHEWEY TERRACE PENNESHAW 5222",
    "locID": "EjIyMiBUcmV0aGV3ZXkgVGVycmFjZSwgUGVubmVzaGF3IFNBIDUyMjIsIEF1c3RyYWxpYSIwEi4KFAoSCfHSWgXFN7JqEeAFOklUNgMTEBYqFAoSCXtHpynbN7JqEWTb_PdLITf1",
    "tech": "WIRELESS",
    "upgrade": "UNKNOWN",
    "gnaf_pid": "GASA_424142052"
   }
  },
  {
   "type": "Feature",
   "geometry": {
    "type": "Point",
    "coordinates": [
     137.92383455,
     -35.72150426
    ]
   },
   "properties": {
    "name": "LOT 17 BATES WAY PENNESHAW 5222",
    "locID": "ChIJFTpuu_83smoRR8U7_RpL9ZI",
    "tech": "WIRELESS",
    "upgrade": "UNKNOWN",
    "gnaf_pid": "GASA_424155248"
   }
  },
  {
   "type": "Feature",
   "geometry": {
    "type": "Point",
    "coordinates": [
     137.92427815,
     -35.72148111
    ]
   },
   "properties": {
    "name": "LOT 19 BATES WAY PENNESHAW 5222",
    "locID": "LOC000024144306",
    "tech": "WIRELESS",
    "upgrade": "NULL_NA",
    "gnaf_pid": "GASA_424155250"
   }
  },
  {
   "type": "Feature",
   "geometry": {
    "type": "Point",
    "coordinates": [
     137.95195315,
     -35.72689072
    ]
   },
   "properties": {
    "name": "LOT 108 DOLPHIN WAY PENNESHAW 5222",
    "locID": "LOC000130599502",
    "tech": "WIRELESS",
    "upgrade": "NULL_NA",
    "gnaf_pid": "GASA_424167275"
   }
  },
  {
   "type": "Feature",
   "geometry": {
    "type": "Point",
    "coordinates": [
     137.94033775,
     -35.72141978
    ]
   },
   "properties": {
    "name": "LOT 2 FRENCHMANS TERRACE PENNESHAW 5222",
    "locID": "LOC100078132634",
    "tech": "WIRELESS",
    "upgrade": "NULL_NA",
    "gnaf_pid": "GASA_424172644"
   }
  },
  {
   "type": "Feature",
   "geometry": {
    "type": "Point",
    "coordinates": [
     137.9484955,
     -35.72167327
    ]
   },
   "properties": {
    "name": "LOT 90 FRENCHMANS TERRACE PENNESHAW 5222",
    "locID": "ChIJcVg7ucU3smoRpm4hkN0YRQY",
    "tech": "WIRELESS",
    "upgrade": "UNKNOWN",
    "gnaf_pid": "GASA_424172662"
   }
  },
  {
   "type": "Feature",
   "geometry": {
    "type": "Point",
    "coordinates": [
     137.9253883,
     -35.72071004
    ]
   },
   "properties": {
    "name": "LOT 201 HOG BAY ROAD PENNESHAW 5222",
    "locID": "LOC000112919024",
    "tech": "WIRELESS",
    "upgrade": "NULL_NA",
    "gnaf_pid": "GASA_424179611"
   }
  },
  {
   "type": "Feature",
   "geometry": {
    "type": "Point",
    "coordinates": [
     137.93302809,
     -35.71981588
    ]
   },
   "properties": {
    "name": "LOT 106 HOWARD DRIVE PENNESHAW 5222",
    "locID": "EisxMDYgSG93YXJkIERyLCBQZW5uZXNoYXcgU0EgNTIyMiwgQXVzdHJhbGlhIjASLgoUChIJYRLgEuU3smoRKwkQ10D79sYQaioUChIJvyigiwFIsmoRRZkA8KBCu7o",
    "tech": "WIRELESS",
    "upgrade": "UNKNOWN",
    "gnaf_pid": "GASA_424180074"
   }
  },
  {
   "type": "Feature",
   "geometry": {
    "type": "Point",
    "coordinates": [
     137.93302809,
     -35.71981588
    ]
   },
   "properties": {
    "name": "LOT 42 HOWARD DRIVE PENNESHAW 5222",
    "locID": "LOC100078132578",
    "tech": "WIRELESS",
    "upgrade": "NULL_NA",
    "gnaf_pid": "GASA_424180086"
   }
  },
  {
   "type": "Feature",
   "geometry": {
    "type": "Point",
    "coordinates": [
     137.93302809,
     -35.71981588
    ]
   },
   "properties": {
    "name": "LOT 50 HOWARD DRIVE PENNESHAW 5222",
    "locID": "Eio1MCBIb3dhcmQgRHIsIFBlbm5lc2hhdyBTQSA1MjIyLCBBdXN0cmFsaWEiMBIuChQKEgmDmnkr5TeyahEbxEhKvl7jvxAyKhQKEgm_KKCLAUiyahFFmQDwoEK7ug",
    "tech": "WIRELESS",
    "upgrade": "UNKNOWN",
    "gnaf_pid": "GASA_424180089"
   }
  },
  {
   "type": "Feature",
   "geometry": {
    "type": "Point",
    "coordinates": [
     137.93302809,
     -35.71981588
    ]
   },
   "properties": {
    "name": "LOT 51 HOWARD DRIVE PENNESHAW 5222",
    "locID": "Eio1MSBIb3dhcmQgRHIsIFBlbm5lc2hhdyBTQSA1MjIyLCBBdXN0cmFsaWEiMBIuChQKEgmDmnkr5TeyahEaxEhKvl7jvxAzKhQKEgm_KKCLAUiyahFFmQDwoEK7ug",
    "tech": "WIRELESS",
    "upgrade": "UNKNOWN",
    "gnaf_pid": "GASA_424180090"
   }
  },
  {
   "type": "Feature",
   "geometry": {
    "type": "Point",
    "coordinates": [
     137.938561,
     -35.71788914
    ]
   },
   "properties": {
    "name": "LOT 27 MIDDLE TERRACE PENNESHAW 5222",
    "locID": "ChIJK2TTlek3smoRGqK282_ZJhM",
    "tech": "WIRELESS",
    "upgrade": "UNKNOWN",
    "gnaf_pid": "GASA_424191927"
   }
  },
  {
   "type": "Feature",
   "geometry": {
    "type": "Point",
    "coordinates": [
     137.93248376,
     -35.71921223
    ]
   },
   "properties": {
    "name": "LOT 135 CHRISTMAS STREET PENNESHAW 5222",
    "locID": "LOC000130592424",
    "tech": "WIRELESS",
    "upgrade": "NULL_NA",
    "gnaf_pid": "GASA_424223855"
   }
  },
  {
   "type": "Feature",
   "geometry": {
    "type": "Point",
    "coordinates": [
     137.9387127,
     -35.7171385
    ]
   },
   "properties": {
    "name": "LOT 49 NORTH TERRACE PENNESHAW 5222",
    "locID": "ChIJNUO_9ek3smoReAZDNF9g5M0",
    "tech": "WIRELESS",
    "upgrade": "UNKNOWN",
    "gnaf_pid": "GASA_424227288"
   }
  },
  {
   "type": "Feature",
   "geometry": {
    "type": "Point",
    "coordinates": [
     137.94774089,
     -35.72312801
    ]
   },
   "properties": {
    "name": "LOT 43 SOUTH TERRACE PENNESHAW 5222",
    "locID": "LOC000110056764",
    "tech": "WIRELESS",
    "upgrade": "NULL_NA",
    "gnaf_pid": "GASA_424228707"
   }
  },
  {
   "type": "Feature",
   "geometry": {
    "type": "Point",
    "coordinates": [
     137.9486679,
     -35.72579167
    ]
   },
   "properties": {
    "name": "LOT 70 TRETHEWEY TERRACE PENNESHAW 5222",
    "locID": "EjI3MCBUcmV0aGV3ZXkgVGVycmFjZSwgUGVubmVzaGF3IFNBIDUyMjIsIEF1c3RyYWxpYSIwEi4KFAoSCbFehOvbN7JqEcb9LvnRHJcjEEYqFAoSCXtHpynbN7JqEWTb_PdLITf1",
    "tech": "WIRELESS",
    "upgrade": "UNKNOWN",
    "gnaf_pid": "GASA_424229305"
   }
  },
  {
   "type": "Feature",
   "geometry": {
    "type": "Point",
    "coordinates": [
     137.94737407,
     -35.72400537
    ]
   },
   "properties": {
    "name": "LOT 2 WARRAWEE TERRACE PENNESHAW 5222",
    "locID": "LOC100078132815",
    "tech": "WIRELESS",
    "upgrade": "NULL_NA",
    "gnaf_pid": "GASA_424344909"
   }
  },
  {
   "type": "Feature",
   "geometry": {
    "type": "Point",
    "coordinates": [
     137.93302809,
     -35.71981588
    ]
   },
   "properties": {
    "name": "L101 HOWARD DRIVE PENNESHAW 5222",
    "locID": "ChIJVxHdFeU3smoRtD0HYZYxVak",
    "tech": "WIRELESS",
    "upgrade": "UNKNOWN",
    "gnaf_pid": "GASA_424414393"
   }
  },
  {
   "type": "Feature",
   "geometry": {
    "type": "Point",
    "coordinates": [
     137.93302809,
     -35.71981588
    ]
   },
   "properties": {
    "name": "2 HOWARD DRIVE PENNESHAW 5222",
    "locID": "LOC000106862368",
    "tech": "WIRELESS",
    "upgrade": "NULL_NA",
    "gnaf_pid": "GASA_424414395"
   }
  },
  {
   "type": "Feature",
   "geometry": {
    "type": "Point",
    "coordinates": [
     137.93830465,
     -35.71742758
    ]
   },
   "properties": {
    "name": "16 NORTH TERRACE PENNESHAW 5222",
    "locID": "LOC000108613499",
    "tech": "WIRELESS",
    "upgrade": "NULL_NA",
    "gnaf_pid": "GASA_424573320"
   }
  },
  {
   "type": "Feature",
   "geometry": {
    "type": "Point",
    "coordinates": [
     137.92271881,
     -35.72180463
    ]
   },
   "properties": {
    "name": "11 BATES WAY PENNESHAW 5222",
    "locID": "LOC000040813219",
    "tech": "WIRELESS",
    "upgrade": "NULL_NA",
    "gnaf_pid": "GASA_424655604"
   }
  },
  {
   "type": "Feature",
   "geometry": {
    "type": "Point",
    "coordinates": [
     137.923113,
     -35.72178
    ]
   },
   "properties": {
    "name": "15 BATES WAY PENNESHAW 5222",
    "locID": "LOC000056252858",
    "tech": "WIRELESS",
    "upgrade": "NULL_NA",
    "gnaf_pid": "GASA_424655605"
   }
  },
  {
   "type": "Feature",
   "geometry": {
    "type": "Point",
    "coordinates": [
     137.9234776,
     -35.72175678
    ]
   },
   "properties": {
    "name": "19 BATES WAY PENNESHAW 5222",
    "locID": "LOC000024144306",
    "tech": "WIRELESS",
    "upgrade": "NULL_NA",
    "gnaf_pid": "GASA_424655606"
   }
  },
  {
   "type": "Feature",
   "geometry": {
    "type": "Point",
    "coordinates": [
     137.92276715,
     -35.72186813
    ]
   },
   "properties": {
    "name": "1 BATES WAY PENNESHAW 5222",
    "locID": "LOC000040813219",
    "tech": "WIRELESS",
    "upgrade": "NULL_NA",
    "gnaf_pid": "GASA_424655607"
   }
  },
  {
   "type": "Feature",
   "geometry": {
    "type": "Point",
    "coordinates": [
     137.92368684,
     -35.72173353
    ]
   },
   "properties": {
    "name": "21 BATES WAY PENNESHAW 5222",
    "locID": "ChIJl1qepf83smoRcbGt8rsF_fM",
    "tech": "WIRELESS",
    "upgrade": "UNKNOWN",
    "gnaf_pid": "GASA_424655608"
   }
  },
  {
   "type": "Feature",
   "geometry": {
    "type": "Point",
    "coordinates": [
     137.9241679,
     -35.72172061
    ]
   },
   "properties": {
    "name": "25 BATES WAY PENNESHAW 5222",
    "locID": "LOC000062406968",
    "tech": "WIRELESS",
    "upgrade": "NULL_NA",
    "gnaf_pid": "GASA_424655609"
   }
  },
  {
   "type": "Feature",
   "geometry": {
    "type": "Point",
    "coordinates": [
     137.92276715,
     -35.72186813
    ]
   },
   "properties": {
    "name": "5 BATES WAY PENNESHAW 5222",
    "locID": "LOC000074227577",
    "tech": "WIRELESS",
    "upgrade": "NULL_NA",
    "gnaf_pid": "GASA_424655610"
   }
  },
  {
   "type": "Feature",
   "geometry": {
    "type": "Point",
    "coordinates": [
     137.92221866,
     -35.72183052
    ]
   },
   "properties": {
    "name": "7 BATES WAY PENNESHAW 5222",
    "locID": "LOC000074227577",
    "tech": "WIRELESS",
    "upgrade": "NULL_NA",
    "gnaf_pid": "GASA_424655611"
   }
  },
  {
   "type": "Feature",
   "geometry": {
    "type": "Point",
    "coordinates": [
     137.938966,
     -35.735205
    ]
   },
   "properties": {
    "name": "225 CAPE WILLOUGHBY ROAD PENNESHAW 5222",
    "locID": "LOC000113002470",
    "tech": "SATELLITE",
    "upgrade": "NULL_NA",
    "gnaf_pid": "GASA_424697485"
   }
  },
  {
   "type": "Feature",
   "geometry": {
    "type": "Point",
    "coordinates": [
     137.93948216,
     -35.73520862
    ]
   },
   "properties": {
    "name": "229 CAPE WILLOUGHBY ROAD PENNESHAW 5222",
    "locID": "ChIJZZu30BhIsmoRWrk27bvNZ64",
    "tech": "SATELLITE",
    "upgrade": "UNKNOWN",
    "gnaf_pid": "GASA_424697486"
   }
  },
  {
   "type": "Feature",
   "geometry": {
    "type": "Point",
    "coordinates": [
     137.940381,
     -35.735325
    ]
   },
   "properties": {
    "name": "239 CAPE WILLOUGHBY ROAD PENNESHAW 5222",
    "locID": "ChIJF55zFR9IsmoRa10xMCmgajc",
    "tech": "SATELLITE",
    "upgrade": "UNKNOWN",
    "gnaf_pid": "GASA_424697487"
   }
  },
  {
   "type": "Feature",
   "geometry": {
    "type": "Point",
    "coordinates": [
     137.932085,
     -35.72736
    ]
   },
   "properties": {
    "name": "83 CAPE WILLOUGHBY ROAD PENNESHAW 5222",
    "locID": "LOC000109474239",
    "tech": "WIRELESS",
    "upgrade": "NULL_NA",
    "gnaf_pid": "GASA_424697488"
   }
  },
  {
   "type": "Feature",
   "geometry": {
    "type": "Point",
    "coordinates": [
     137.93558786,
     -35.73364573
    ]
   },
   "properties": {
    "name": "LOT 8 CAPE WILLOUGHBY ROAD PENNESHAW 5222",
    "locID": "LOC100077370492",
    "tech": "WIRELESS",
    "upgrade": "NULL_NA",
    "gnaf_pid": "GASA_424697489"
   }
  },
  {
   "type": "Feature",
   "geometry": {
    "type": "Point",
    "coordinates": [
     137.92473025,
     -35.72170412
    ]
   },
   "properties": {
    "name": "5125 HOG BAY ROAD PENNESHAW 5222",
    "locID": "LOC000114263964",
    "tech": "WIRELESS",
    "upgrade": "NULL_NA",
    "gnaf_pid": "GASA_424811928"
   }
  },
  {
   "type": "Feature",
   "geometry": {
    "type": "Point",
    "coordinates": [
     137.92548306,
     -35.72140707
    ]
   },
   "properties": {
    "name": "5133 HOG BAY ROAD PENNESHAW 5222",
    "locID": "LOC000114409652",
    "tech": "WIRELESS",
    "upgrade": "NULL_NA",
    "gnaf_pid": "GASA_424811929"
   }
  },
  {
   "type": "Feature",
   "geometry": {
    "type": "Point",
    "coordinates": [
     137.92570793,
     -35.72130472
    ]
   },
   "properties": {
    "name": "5135 HOG BAY ROAD PENNESHAW 5222",
    "locID": "LOC000112919024",
    "tech": "WIRELESS",
    "upgrade": "NULL_NA",
    "gnaf_pid": "GASA_424811930"
   }
  },
  {
   "type": "Feature",
   "geometry": {
    "type": "Point",
    "coordinates": [
     137.92592346,
     -35.72119012
    ]
   },
   "properties": {
    "name": "5137 HOG BAY ROAD PENNESHAW 5222",
    "locID": "LOC000113078750",
    "tech": "WIRELESS",
    "upgrade": "NULL_NA",
    "gnaf_pid": "GASA_424811931"
   }
  },
  {
   "type": "Feature",
   "geometry": {
    "type": "Point",
    "coordinates": [
     137.92626013,
     -35.72106252
    ]
   },
   "properties": {
    "name": "5141 HOG BAY ROAD PENNESHAW 5222",
    "locID": "LOC000114836307",
    "tech": "WIRELESS",
    "upgrade": "NULL_NA",
    "gnaf_pid": "GASA_424811932"
   }
  },
  {
   "type": "Feature",
   "geometry": {
    "type": "Point",
    "coordinates": [
     137.92775417,
     -35.72056827
    ]
   },
   "properties": {
    "name": "5155 HOG BAY ROAD PENNESHAW 5222",
    "locID": "LOC000114105228",
    "tech": "WIRELESS",
    "upgrade": "NULL_NA",
    "gnaf_pid": "GASA_424811933"
   }
  },
  {
   "type": "Feature",
   "geometry": {
    "type": "Point",
    "coordinates": [
     137.92148831,
     -35.72122149
    ]
   },
   "properties": {
    "name": "24 WILLIAM WALKER WAY PENNESHAW 5222",
    "locID": "LOC000113095900",
    "tech": "WIRELESS",
    "upgrade": "NULL_NA",
    "gnaf_pid": "GASA_424815563"
   }
  },
  {
   "type": "Feature",
   "geometry": {
    "type": "Point",
    "coordinates": [
     137.92145335,
     -35.7211565
    ]
   },
   "properties": {
    "name": "26 WILLIAM WALKER WAY PENNESHAW 5222",
    "locID": "LOC000114659682",
    "tech": "WIRELESS",
    "upgrade": "NULL_NA",
    "gnaf_pid": "GASA_424815564"
   }
  },
  {
   "type": "Feature",
   "geometry": {
    "type": "Point",
    "coordinates": [
     137.92141997,
     -35.72082554
    ]
   },
   "properties": {
    "name": "28 WILLIAM WALKER WAY PENNESHAW 5222",
    "locID": "LOC000114055119",
    "tech": "WIRELESS",
    "upgrade": "NULL_NA",
    "gnaf_pid": "GASA_424815565"
   }
  },
  {
   "type": "Feature",
   "geometry": {
    "type": "Point",
    "coordinates": [
     137.95868997,
     -35.73700913
    ]
   },
   "properties": {
    "name": "49 BINNEYS TRACK PENNESHAW 5222",
    "locID": "LOC000130625838",
    "tech": "SATELLITE",
    "upgrade": "NULL_NA",
    "gnaf_pid": "GASA_424817564"
   }
  },
  {
   "type": "Feature",
   "geometry": {
    "type": "Point",
    "coordinates": [
     137.94530769,
     -35.73706159
    ]
   },
   "properties": {
    "name": "LOT 128 CAPE WILLOUGHBY ROAD PENNESHAW 5222",
    "locID": "EjYxMjggQ2FwZSBXaWxsb3VnaGJ5IFJkLCBEdWRsZXkgRWFzdCBTQSA1MjIyLCBBdXN0cmFsaWEiMRIvChQKEgktbG6wHEiyahHI2EEZNi1yBxCAASoUChIJ-VBQjmVKsmoRZnjABsZK_pk",
    "tech": "SATELLITE",
    "upgrade": "UNKNOWN",
    "gnaf_pid": "GASA_424818351"
   }
  },
  {
   "type": "Feature",
   "geometry": {
    "type": "Point",
    "coordinates": [
     137.93692616,
     -35.73083827
    ]
   },
   "properties": {
    "name": "LOT 500 CAPE WILLOUGHBY ROAD PENNESHAW 5222",
    "locID": "EjQ1MDAgQ2FwZSBXaWxsb3VnaGJ5IFJkLCBJcm9uc3RvbmUgU0EgNTIyMiwgQXVzdHJhbGlhIjESLwoUChIJ93g5gCQ2smoRJqnOQiJpKxcQ9AMqFAoSCflQUI5lSrJqEWZ4wAbGSv6Z",
    "tech": "SATELLITE",
    "upgrade": "UNKNOWN",
    "gnaf_pid": "GASA_424818357"
   }
  },
  {
   "type": "Feature",
   "geometry": {
    "type": "Point",
    "coordinates": [
     137.93633565,
     -35.73372579
    ]
   },
   "properties": {
    "name": "LOT 7 CAPE WILLOUGHBY ROAD PENNESHAW 5222",
    "locID": "ChIJf2qtMfs3smoRUUwuxyyr5pU",
    "tech": "WIRELESS",
    "upgrade": "UNKNOWN",
    "gnaf_pid": "GASA_424818361"
   }
  },
  {
   "type": "Feature",
   "geometry": {
    "type": "Point",
    "coordinates": [
     137.94651368,
     -35.73917884
    ]
   },
   "properties": {
    "name": "LOT 95 CAPE WILLOUGHBY ROAD PENNESHAW 5222",
    "locID": "EjU5NSBDYXBlIFdpbGxvdWdoYnkgUmQsIER1ZGxleSBFYXN0IFNBIDUyMjIsIEF1c3RyYWxpYSIwEi4KFAoSCS1sbrAcSLJqEcjYQRk2LXIHEF8qFAoSCflQUI5lSrJqEWZ4wAbGSv6Z",
    "tech": "SATELLITE",
    "upgrade": "UNKNOWN",
    "gnaf_pid": "GASA_424818362"
   }
  },
  {
   "type": "Feature",
   "geometry": {
    "type": "Point",
    "coordinates": [
     137.93285794,
     -35.73504779
    ]
   },
   "properties": {
    "name": "171 CHARING CROSS ROAD PENNESHAW 5222",
    "locID": "ChIJYxK-wRpIsmoRnSj0ctnvbao",
    "tech": "SATELLITE",
    "upgrade": "UNKNOWN",
    "gnaf_pid": "GASA_424818821"
   }
  },
  {
   "type": "Feature",
   "geometry": {
    "type": "Point",
    "coordinates": [
     137.92632722,
     -35.72103228
    ]
   },
   "properties": {
    "name": "5143 HOG BAY ROAD PENNESHAW 5222",
    "locID": "ChIJVRiso_43smoRUdk964MvrBY",
    "tech": "WIRELESS",
    "upgrade": "UNKNOWN",
    "gnaf_pid": "GASA_424821658"
   }
  },
  {
   "type": "Feature",
   "geometry": {
    "type": "Point",
    "coordinates": [
     137.92663656,
     -35.72090406
    ]
   },
   "properties": {
    "name": "5145 HOG BAY ROAD PENNESHAW 5222",
    "locID": "LOC000116240911",
    "tech": "WIRELESS",
    "upgrade": "NULL_NA",
    "gnaf_pid": "GASA_424821659"
   }
  },
  {
   "type": "Feature",
   "geometry": {
    "type": "Point",
    "coordinates": [
     137.92712846,
     -35.72075247
    ]
   },
   "properties": {
    "name": "5149 HOG BAY ROAD PENNESHAW 5222",
    "locID": "ChIJDxYTBPw3smoRty43DKr3YY8",
    "tech": "WIRELESS",
    "upgrade": "UNKNOWN",
    "gnaf_pid": "GASA_424821660"
   }
  },
  {
   "type": "Feature",
   "geometry": {
    "type": "Point",
    "coordinates": [
     137.92745695,
     -35.72063675
    ]
   },
   "properties": {
    "name": "5153 HOG BAY ROAD PENNESHAW 5222",
    "locID": "LOC000116240930",
    "tech": "WIRELESS",
    "upgrade": "NULL_NA",
    "gnaf_pid": "GASA_424821661"
   }
  },
  {
   "type": "Feature",
   "geometry": {
    "type": "Point",
    "coordinates": [
     137.93518707,
     -35.73507729
    ]
   },
   "properties": {
    "name": "189 CAPE WILLOUGHBY ROAD PENNESHAW 5222",
    "locID": "ChIJz-i4tBtIsmoRbvGZT1S8EPA",
    "tech": "SATELLITE",
    "upgrade": "UNKNOWN",
    "gnaf_pid": "GASA_425187164"
   }
  },
  {
   "type": "Feature",
   "geometry": {
    "type": "Point",
    "coordinates": [
     137.92663656,
     -35.72090406
    ]
   },
   "properties": {
    "name": "UNIT 1, 5145 HOG BAY ROAD PENNESHAW 5222",
    "locID": "LOC000116240911",
    "tech": "WIRELESS",
    "upgrade": "NULL_NA",
    "gnaf_pid": "GASA_425195221"
   }
  },
  {
   "type": "Feature",
   "geometry": {
    "type": "Point",
    "coordinates": [
     137.92663656,
     -35.72090406
    ]
   },
   "properties": {
    "name": "UNIT 2, 5145 HOG BAY ROAD PENNESHAW 5222",
    "locID": "LOC000116240911",
    "tech": "WIRELESS",
    "upgrade": "NULL_NA",
    "gnaf_pid": "GASA_425195222"
   }
  },
  {
   "type": "Feature",
   "geometry": {
    "type": "Point",
    "coordinates": [
     137.94638211,
     -35.72582372
    ]
   },
   "properties": {
    "name": "23 WRIGHT ROAD PENNESHAW 5222",
    "locID": "ChIJ5T1rhNw3smoRmxxam0M42c4",
    "tech": "WIRELESS",
    "upgrade": "UNKNOWN",
    "gnaf_pid": "GASA_719186496"
   }
  },
  {
   "type": "Feature",
   "geometry": {
    "type": "Point",
    "coordinates": [
     137.94411012,
     -35.72169016
    ]
   },
   "properties": {
    "name": "44 FRENCHMANS TERRACE PENNESHAW 5222",
    "locID": "ChIJZTp04sI3smoRfh9-5a4DSt4",
    "tech": "WIRELESS",
    "upgrade": "UNKNOWN",
    "gnaf_pid": "GASA_719186498"
   }
  },
  {
   "type": "Feature",
   "geometry": {
    "type": "Point",
    "coordinates": [
     137.9401371,
     -35.71748535
    ]
   },
   "properties": {
    "name": "30 NORTH TERRACE PENNESHAW 5222",
    "locID": "ChIJA9N1juk3smoRDANopEkAZdI",
    "tech": "WIRELESS",
    "upgrade": "UNKNOWN",
    "gnaf_pid": "GASA_719186508"
   }
  },
  {
   "type": "Feature",
   "geometry": {
    "type": "Point",
    "coordinates": [
     137.94734029,
     -35.72432534
    ]
   },
   "properties": {
    "name": "2 PELICAN STREET PENNESHAW 5222",
    "locID": "ChIJgWzMs8Q3smoRGLB6lX56Wzo",
    "tech": "WIRELESS",
    "upgrade": "UNKNOWN",
    "gnaf_pid": "GASA_719186511"
   }
  },
  {
   "type": "Feature",
   "geometry": {
    "type": "Point",
    "coordinates": [
     137.94078833,
     -35.71987328
    ]
   },
   "properties": {
    "name": "12 TALINGA TERRACE PENNESHAW 5222",
    "locID": "ChIJE5USMeg3smoRKUYizbOa_z0",
    "tech": "WIRELESS",
    "upgrade": "UNKNOWN",
    "gnaf_pid": "GASA_719186512"
   }
  },
  {
   "type": "Feature",
   "geometry": {
    "type": "Point",
    "coordinates": [
     137.93078785,
     -35.72033273
    ]
   },
   "properties": {
    "name": "59 HOWARD DRIVE PENNESHAW 5222",
    "locID": "LOC000109557355",
    "tech": "WIRELESS",
    "upgrade": "NULL_NA",
    "gnaf_pid": "GASA_719186515"
   }
  },
  {
   "type": "Feature",
   "geometry": {
    "type": "Point",
    "coordinates": [
     137.93054429,
     -35.72034944
    ]
   },
   "properties": {
    "name": "61 HOWARD DRIVE PENNESHAW 5222",
    "locID": "LOC000108537415",
    "tech": "WIRELESS",
    "upgrade": "NULL_NA",
    "gnaf_pid": "GASA_719186518"
   }
  },
  {
   "type": "Feature",
   "geometry": {
    "type": "Point",
    "coordinates": [
     137.95176233,
     -35.72615821
    ]
   },
   "properties": {
    "name": "26 DOLPHIN WAY PENNESHAW 5222",
    "locID": "LOC000164743846",
    "tech": "WIRELESS",
    "upgrade": "NULL_NA",
    "gnaf_pid": "GASA_719186522"
   }
  },
  {
   "type": "Feature",
   "geometry": {
    "type": "Point",
    "coordinates": [
     137.94453672,
     -35.72181488
    ]
   },
   "properties": {
    "name": "48 FRENCHMANS TERRACE PENNESHAW 5222",
    "locID": "LOC000109509909",
    "tech": "WIRELESS",
    "upgrade": "NULL_NA",
    "gnaf_pid": "GASA_719186553"
   }
  },
  {
   "type": "Feature",
   "geometry": {
    "type": "Point",
    "coordinates": [
     137.93124672,
     -35.72025261
    ]
   },
   "properties": {
    "name": "57 HOWARD DRIVE PENNESHAW 5222",
    "locID": "ChIJh6DSKPs3smoRp-YQ1c7nIl4",
    "tech": "WIRELESS",
    "upgrade": "UNKNOWN",
    "gnaf_pid": "GASA_719186554"
   }
  },
  {
   "type": "Feature",
   "geometry": {
    "type": "Point",
    "coordinates": [
     137.93282213,
     -35.72274253
    ]
   },
   "properties": {
    "name": "15 FREYCINET WAY PENNESHAW 5222",
    "locID": "ChIJ55BWoOQ3smoRYHETeTmhdww",
    "tech": "WIRELESS",
    "upgrade": "UNKNOWN",
    "gnaf_pid": "GASA_719186556"
   }
  },
  {
   "type": "Feature",
   "geometry": {
    "type": "Point",
    "coordinates": [
     137.94243857,
     -35.72230457
    ]
   },
   "properties": {
    "name": "10 KARATTA TERRACE PENNESHAW 5222",
    "locID": "ChIJCVuhs8I3smoRxNbjruP21zM",
    "tech": "WIRELESS",
    "upgrade": "UNKNOWN",
    "gnaf_pid": "GASA_719186557"
   }
  },
  {
   "type": "Feature",
   "geometry": {
    "type": "Point",
    "coordinates": [
     137.94103499,
     -35.72023367
    ]
   },
   "properties": {
    "name": "18 TALINGA TERRACE PENNESHAW 5222",
    "locID": "ChIJDQZHJeg3smoRxBPsf1p7wuQ",
    "tech": "WIRELESS",
    "upgrade": "UNKNOWN",
    "gnaf_pid": "GASA_719186558"
   }
  },
  {
   "type": "Feature",
   "geometry": {
    "type": "Point",
    "coordinates": [
     137.94545405,
     -35.72861955
    ]
   },
   "properties": {
    "name": "56 WRIGHT ROAD PENNESHAW 5222",
    "locID": "ChIJv-dymN43smoRbRdBuTovyrc",
    "tech": "WIRELESS",
    "upgrade": "UNKNOWN",
    "gnaf_pid": "GASA_719186572"
   }
  },
  {
   "type": "Feature",
   "geometry": {
    "type": "Point",
    "coordinates": [
     137.93165045,
     -35.7227582
    ]
   },
   "properties": {
    "name": "2 FREYCINET WAY PENNESHAW 5222",
    "locID": "LOC000108651045",
    "tech": "WIRELESS",
    "upgrade": "NULL_NA",
    "gnaf_pid": "GASA_719186575"
   }
  },
  {
   "type": "Feature",
   "geometry": {
    "type": "Point",
    "coordinates": [
     137.94323311,
     -35.72198024
    ]
   },
   "properties": {
    "name": "16 FLINDERS TERRACE PENNESHAW 5222",
    "locID": "ChIJCWp-Ga03smoRRw1yavaV4K8",
    "tech": "WIRELESS",
    "upgrade": "UNKNOWN",
    "gnaf_pid": "GASA_719186576"
   }
  },
  {
   "type": "Feature",
   "geometry": {
    "type": "Point",
    "coordinates": [
     137.94779236,
     -35.72489378
    ]
   },
   "properties": {
    "name": "11 PELICAN STREET PENNESHAW 5222",
    "locID": "ChIJaQWANds3smoR5HE_tyo_wmA",
    "tech": "WIRELESS",
    "upgrade": "UNKNOWN",
    "gnaf_pid": "GASA_719186578"
   }
  },
  {
   "type": "Feature",
   "geometry": {
    "type": "Point",
    "coordinates": [
     137.94698885,
     -35.72225149
    ]
   },
   "properties": {
    "name": "66 FRENCHMANS TERRACE PENNESHAW 5222",
    "locID": "LOC100076943182",
    "tech": "WIRELESS",
    "upgrade": "NULL_NA",
    "gnaf_pid": "GASA_719186579"
   }
  },
  {
   "type": "Feature",
   "geometry": {
    "type": "Point",
    "coordinates": [
     137.94559001,
     -35.72374494
    ]
   },
   "properties": {
    "name": "2 WRIGHT ROAD PENNESHAW 5222",
    "locID": "ChIJnTxdS8M3smoR9aceoWMIOds",
    "tech": "WIRELESS",
    "upgrade": "UNKNOWN",
    "gnaf_pid": "GASA_719186580"
   }
  },
  {
   "type": "Feature",
   "geometry": {
    "type": "Point",
    "coordinates": [
     137.94320762,
     -35.72263631
    ]
   },
   "properties": {
    "name": "20 KARATTA TERRACE PENNESHAW 5222",
    "locID": "ChIJGd5jzMI3smoR8snU8WF2UpU",
    "tech": "WIRELESS",
    "upgrade": "UNKNOWN",
    "gnaf_pid": "GASA_719186586"
   }
  },
  {
   "type": "Feature",
   "geometry": {
    "type": "Point",
    "coordinates": [
     137.93219966,
     -35.72242364
    ]
   },
   "properties": {
    "name": "7 FREYCINET WAY PENNESHAW 5222",
    "locID": "LOC000130614884",
    "tech": "WIRELESS",
    "upgrade": "NULL_NA",
    "gnaf_pid": "GASA_719186597"
   }
  },
  {
   "type": "Feature",
   "geometry": {
    "type": "Point",
    "coordinates": [
     137.94446642,
     -35.72234443
    ]
   },
   "properties": {
    "name": "30 FLINDERS TERRACE PENNESHAW 5222",
    "locID": "ChIJB1q1I8M3smoRBq8de_cUII0",
    "tech": "WIRELESS",
    "upgrade": "UNKNOWN",
    "gnaf_pid": "GASA_719186609"
   }
  },
  {
   "type": "Feature",
   "geometry": {
    "type": "Point",
    "coordinates": [
     137.93076844,
     -35.7212302
    ]
   },
   "properties": {
    "name": "12 CAPE WILLOUGHBY ROAD PENNESHAW 5222",
    "locID": "LOC000116224671",
    "tech": "WIRELESS",
    "upgrade": "NULL_NA",
    "gnaf_pid": "GASA_719186610"
   }
  },
  {
   "type": "Feature",
   "geometry": {
    "type": "Point",
    "coordinates": [
     137.94990508,
     -35.72243391
    ]
   },
   "properties": {
    "name": "90 FRENCHMANS TERRACE PENNESHAW 5222",
    "locID": "ChIJcVg7ucU3smoRpm4hkN0YRQY",
    "tech": "WIRELESS",
    "upgrade": "UNKNOWN",
    "gnaf_pid": "GASA_719186621"
   }
  },
  {
   "type": "Feature",
   "geometry": {
    "type": "Point",
    "coordinates": [
     137.93183263,
     -35.72234438
    ]
   },
   "properties": {
    "name": "3 FREYCINET WAY PENNESHAW 5222",
    "locID": "LOC000108958126",
    "tech": "WIRELESS",
    "upgrade": "NULL_NA",
    "gnaf_pid": "GASA_719186628"
   }
  },
  {
   "type": "Feature",
   "geometry": {
    "type": "Point",
    "coordinates": [
     137.94070546,
     -35.7197502
    ]
   },
   "properties": {
    "name": "10 TALINGA TERRACE PENNESHAW 5222",
    "locID": "LOC000130607765",
    "tech": "WIRELESS",
    "upgrade": "NULL_NA",
    "gnaf_pid": "GASA_719186634"
   }
  },
  {
   "type": "Feature",
   "geometry": {
    "type": "Point",
    "coordinates": [
     137.93397396,
     -35.72336826
    ]
   },
   "properties": {
    "name": "26 FREYCINET WAY PENNESHAW 5222",
    "locID": "LOC000110024307",
    "tech": "WIRELESS",
    "upgrade": "NULL_NA",
    "gnaf_pid": "GASA_719186635"
   }
  },
  {
   "type": "Feature",
   "geometry": {
    "type": "Point",
    "coordinates": [
     137.93858615,
     -35.71735952
    ]
   },
   "properties": {
    "name": "18 NORTH TERRACE PENNESHAW 5222",
    "locID": "LOC000162333040",
    "tech": "WIRELESS",
    "upgrade": "NULL_NA",
    "gnaf_pid": "GASA_719186636"
   }
  },
  {
   "type": "Feature",
   "geometry": {
    "type": "Point",
    "coordinates": [
     137.93803344,
     -35.71787262
    ]
   },
   "properties": {
    "name": "11 MIDDLE TERRACE PENNESHAW 5222",
    "locID": "LOC000130584848",
    "tech": "WIRELESS",
    "upgrade": "NULL_NA",
    "gnaf_pid": "GASA_719186637"
   }
  },
  {
   "type": "Feature",
   "geometry": {
    "type": "Point",
    "coordinates": [
     137.94290335,
     -35.72249543
    ]
   },
   "properties": {
    "name": "16 KARATTA TERRACE PENNESHAW 5222",
    "locID": "ChIJQ5JmysI3smoRR-RZgx03S30",
    "tech": "WIRELESS",
    "upgrade": "UNKNOWN",
    "gnaf_pid": "GASA_719186639"
   }
  },
  {
   "type": "Feature",
   "geometry": {
    "type": "Point",
    "coordinates": [
     137.93463273,
     -35.72287828
    ]
   },
   "properties": {
    "name": "29 FREYCINET WAY PENNESHAW 5222",
    "locID": "LOC000161095796",
    "tech": "WIRELESS",
    "upgrade": "NULL_NA",
    "gnaf_pid": "GASA_719186640"
   }
  },
  {
   "type": "Feature",
   "geometry": {
    "type": "Point",
    "coordinates": [
     137.93270174,
     -35.72317268
    ]
   },
   "properties": {
    "name": "14 FREYCINET WAY PENNESHAW 5222",
    "locID": "ChIJh4GIW-M3smoRhA9mywsMUy4",
    "tech": "WIRELESS",
    "upgrade": "UNKNOWN",
    "gnaf_pid": "GASA_719186653"
   }
  },
  {
   "type": "Feature",
   "geometry": {
    "type": "Point",
    "coordinates": [
     137.94336458,
     -35.72270491
    ]
   },
   "properties": {
    "name": "22 KARATTA TERRACE PENNESHAW 5222",
    "locID": "ChIJeTGhzcI3smoREbXDKUJ3TAY",
    "tech": "WIRELESS",
    "upgrade": "UNKNOWN",
    "gnaf_pid": "GASA_719186659"
   }
  },
  {
   "type": "Feature",
   "geometry": {
    "type": "Point",
    "coordinates": [
     137.93922734,
     -35.7179101
    ]
   },
   "properties": {
    "name": "19 MIDDLE TERRACE PENNESHAW 5222",
    "locID": "ChIJXweioOk3smoR0QE3ii9b_FE",
    "tech": "WIRELESS",
    "upgrade": "UNKNOWN",
    "gnaf_pid": "GASA_719186660"
   }
  },
  {
   "type": "Feature",
   "geometry": {
    "type": "Point",
    "coordinates": [
     137.9529656,
     -35.72476354
    ]
   },
   "properties": {
    "name": "189 BINNEYS TRACK PENNESHAW 5222",
    "locID": "ChIJPUGWn883smoRUSjdwBEQyEk",
    "tech": "WIRELESS",
    "upgrade": "UNKNOWN",
    "gnaf_pid": "GASA_719186661"
   }
  },
  {
   "type": "Feature",
   "geometry": {
    "type": "Point",
    "coordinates": [
     137.94401746,
     -35.72284412
    ]
   },
   "properties": {
    "name": "30 KARATTA TERRACE PENNESHAW 5222",
    "locID": "LOC000110215250",
    "tech": "WIRELESS",
    "upgrade": "NULL_NA",
    "gnaf_pid": "GASA_719186662"
   }
  },
  {
   "type": "Feature",
   "geometry": {
    "type": "Point",
    "coordinates": [
     137.94964601,
     -35.72243816
    ]
   },
   "properties": {
    "name": "88 FRENCHMANS TERRACE PENNESHAW 5222",
    "locID": "LOC000109346333",
    "tech": "WIRELESS",
    "upgrade": "NULL_NA",
    "gnaf_pid": "GASA_719186663"
   }
  },
  {
   "type": "Feature",
   "geometry": {
    "type": "Point",
    "coordinates": [
     137.93299702,
     -35.72281122
    ]
   },
   "properties": {
    "name": "17 FREYCINET WAY PENNESHAW 5222",
    "locID": "ChIJ39aLn-Q3smoRWISwFhkbYMg",
    "tech": "WIRELESS",
    "upgrade": "UNKNOWN",
    "gnaf_pid": "GASA_719186673"
   }
  },
  {
   "type": "Feature",
   "geometry": {
    "type": "Point",
    "coordinates": [
     137.94389797,
     -35.72162508
    ]
   },
   "properties": {
    "name": "42 FRENCHMANS TERRACE PENNESHAW 5222",
    "locID": "ChIJA8_O48I3smoRyz_lmf_AWmE",
    "tech": "WIRELESS",
    "upgrade": "UNKNOWN",
    "gnaf_pid": "GASA_719186679"
   }
  },
  {
   "type": "Feature",
   "geometry": {
    "type": "Point",
    "coordinates": [
     137.93234568,
     -35.72300756
    ]
   },
   "properties": {
    "name": "10 FREYCINET WAY PENNESHAW 5222",
    "locID": "ChIJQTmEUOM3smoReBX68NYEXpw",
    "tech": "WIRELESS",
    "upgrade": "UNKNOWN",
    "gnaf_pid": "GASA_719186682"
   }
  },
  {
   "type": "Feature",
   "geometry": {
    "type": "Point",
    "coordinates": [
     137.94112359,
     -35.7203619
    ]
   },
   "properties": {
    "name": "20 TALINGA TERRACE PENNESHAW 5222",
    "locID": "ChIJ806oJeg3smoRyP_kfel-6tY",
    "tech": "WIRELESS",
    "upgrade": "UNKNOWN",
    "gnaf_pid": "GASA_719186687"
   }
  },
  {
   "type": "Feature",
   "geometry": {
    "type": "Point",
    "coordinates": [
     137.9454116,
     -35.72448403
    ]
   },
   "properties": {
    "name": "10 WRIGHT ROAD PENNESHAW 5222",
    "locID": "ChIJB-cHudw3smoRTnUOpAZeBps",
    "tech": "WIRELESS",
    "upgrade": "UNKNOWN",
    "gnaf_pid": "GASA_719186692"
   }
  },
  {
   "type": "Feature",
   "geometry": {
    "type": "Point",
    "coordinates": [
     137.93169313,
     -35.71960046
    ]
   },
   "properties": {
    "name": "52 HOWARD DRIVE PENNESHAW 5222",
    "locID": "LOC100078132550",
    "tech": "WIRELESS",
    "upgrade": "NULL_NA",
    "gnaf_pid": "GASA_719186693"
   }
  },
  {
   "type": "Feature",
   "geometry": {
    "type": "Point",
    "coordinates": [
     137.94659336,
     -35.72746825
    ]
   },
   "properties": {
    "name": "39 WRIGHT ROAD PENNESHAW 5222",
    "locID": "ChIJ0TFjits3smoRBi0Kr3xm8x4",
    "tech": "WIRELESS",
    "upgrade": "UNKNOWN",
    "gnaf_pid": "GASA_719186697"
   }
  },
  {
   "type": "Feature",
   "geometry": {
    "type": "Point",
    "coordinates": [
     137.94087074,
     -35.71999409
    ]
   },
   "properties": {
    "name": "14 TALINGA TERRACE PENNESHAW 5222",
    "locID": "LOC000108498956",
    "tech": "WIRELESS",
    "upgrade": "NULL_NA",
    "gnaf_pid": "GASA_719186698"
   }
  },
  {
   "type": "Feature",
   "geometry": {
    "type": "Point",
    "coordinates": [
     137.9421862,
     -35.72217307
    ]
   },
   "properties": {
    "name": "8A KARATTA TERRACE PENNESHAW 5222",
    "locID": "LOC000108926258",
    "tech": "WIRELESS",
    "upgrade": "NULL_NA",
    "gnaf_pid": "GASA_719186701"
   }
  },
  {
   "type": "Feature",
   "geometry": {
    "type": "Point",
    "coordinates": [
     137.94348966,
     -35.72146702
    ]
   },
   "properties": {
    "name": "38 FRENCHMANS TERRACE PENNESHAW 5222",
    "locID": "ChIJCYH65cI3smoRh7S9n-xaecY",
    "tech": "WIRELESS",
    "upgrade": "UNKNOWN",
    "gnaf_pid": "GASA_719186703"
   }
  },
  {
   "type": "Feature",
   "geometry": {
    "type": "Point",
    "coordinates": [
     137.93184175,
     -35.72277434
    ]
   },
   "properties": {
    "name": "4 FREYCINET WAY PENNESHAW 5222",
    "locID": "LOC000108813987",
    "tech": "WIRELESS",
    "upgrade": "NULL_NA",
    "gnaf_pid": "GASA_719186717"
   }
  },
  {
   "type": "Feature",
   "geometry": {
    "type": "Point",
    "coordinates": [
     137.93267938,
     -35.72267344
    ]
   },
   "properties": {
    "name": "13 FREYCINET WAY PENNESHAW 5222",
    "locID": "ChIJ29jloOQ3smoRw9iYPHZCr7g",
    "tech": "WIRELESS",
    "upgrade": "UNKNOWN",
    "gnaf_pid": "GASA_719186724"
   }
  },
  {
   "type": "Feature",
   "geometry": {
    "type": "Point",
    "coordinates": [
     137.95186222,
     -35.72643543
    ]
   },
   "properties": {
    "name": "30 DOLPHIN WAY PENNESHAW 5222",
    "locID": "ChIJ2STp_c83smoRMIqtua-wYJs",
    "tech": "WIRELESS",
    "upgrade": "UNKNOWN",
    "gnaf_pid": "GASA_719186725"
   }
  },
  {
   "type": "Feature",
   "geometry": {
    "type": "Point",
    "coordinates": [
     137.9530082,
     -35.72346459
    ]
   },
   "properties": {
    "name": "201 BINNEYS TRACK PENNESHAW 5222",
    "locID": "ChIJW7d2Ps83smoR114ruR_hE4U",
    "tech": "WIRELESS",
    "upgrade": "UNKNOWN",
    "gnaf_pid": "GASA_719186728"
   }
  },
  {
   "type": "Feature",
   "geometry": {
    "type": "Point",
    "coordinates": [
     137.94275446,
     -35.72242622
    ]
   },
   "properties": {
    "name": "14 KARATTA TERRACE PENNESHAW 5222",
    "locID": "LOC000130577013",
    "tech": "WIRELESS",
    "upgrade": "NULL_NA",
    "gnaf_pid": "GASA_719186744"
   }
  },
  {
   "type": "Feature",
   "geometry": {
    "type": "Point",
    "coordinates": [
     137.94416931,
     -35.722903
    ]
   },
   "properties": {
    "name": "32 KARATTA TERRACE PENNESHAW 5222",
    "locID": "ChIJ64uLKcM3smoRQyWKfHD0gks",
    "tech": "WIRELESS",
    "upgrade": "UNKNOWN",
    "gnaf_pid": "GASA_719186747"
   }
  },
  {
   "type": "Feature",
   "geometry": {
    "type": "Point",
    "coordinates": [
     137.93646564,
     -35.71981275
    ]
   },
   "properties": {
    "name": "6 CASUARINA CRESCENT PENNESHAW 5222",
    "locID": "ChIJVxlW_-U3smoRWzTnOnJIgEQ",
    "tech": "WIRELESS",
    "upgrade": "UNKNOWN",
    "gnaf_pid": "GASA_719186748"
   }
  },
  {
   "type": "Feature",
   "geometry": {
    "type": "Point",
    "coordinates": [
     137.93329981,
     -35.72332969
    ]
   },
   "properties": {
    "name": "20 FREYCINET WAY PENNESHAW 5222",
    "locID": "ChIJaxj_Y-M3smoRh81yFf1mS5U",
    "tech": "WIRELESS",
    "upgrade": "UNKNOWN",
    "gnaf_pid": "GASA_719186762"
   }
  },
  {
   "type": "Feature",
   "geometry": {
    "type": "Point",
    "coordinates": [
     137.93659879,
     -35.71898671
    ]
   },
   "properties": {
    "name": "1 CASUARINA CRESCENT PENNESHAW 5222",
    "locID": "ChIJ12RqS-83smoRCM2cfZQ4vP0",
    "tech": "WIRELESS",
    "upgrade": "UNKNOWN",
    "gnaf_pid": "GASA_719186779"
   }
  },
  {
   "type": "Feature",
   "geometry": {
    "type": "Point",
    "coordinates": [
     137.93969295,
     -35.71747135
    ]
   },
   "properties": {
    "name": "26 NORTH TERRACE PENNESHAW 5222",
    "locID": "ChIJD3CJmuk3smoRs4d0nYV96FE",
    "tech": "WIRELESS",
    "upgrade": "UNKNOWN",
    "gnaf_pid": "GASA_719186781"
   }
  },
  {
   "type": "Feature",
   "geometry": {
    "type": "Point",
    "coordinates": [
     137.93029435,
     -35.72038821
    ]
   },
   "properties": {
    "name": "63 HOWARD DRIVE PENNESHAW 5222",
    "locID": "LOC100072016398",
    "tech": "WIRELESS",
    "upgrade": "NULL_NA",
    "gnaf_pid": "GASA_719186794"
   }
  },
  {
   "type": "Feature",
   "geometry": {
    "type": "Point",
    "coordinates": [
     137.92965179,
     -35.72054272
    ]
   },
   "properties": {
    "name": "69 HOWARD DRIVE PENNESHAW 5222",
    "locID": "LOC000130626199",
    "tech": "WIRELESS",
    "upgrade": "NULL_NA",
    "gnaf_pid": "GASA_719186799"
   }
  },
  {
   "type": "Feature",
   "geometry": {
    "type": "Point",
    "coordinates": [
     137.94339114,
     -35.72203023
    ]
   },
   "properties": {
    "name": "18 FLINDERS TERRACE PENNESHAW 5222",
    "locID": "LOC100072016403",
    "tech": "WIRELESS",
    "upgrade": "NULL_NA",
    "gnaf_pid": "GASA_719186801"
   }
  },
  {
   "type": "Feature",
   "geometry": {
    "type": "Point",
    "coordinates": [
     137.9364709,
     -35.71736979
    ]
   },
   "properties": {
    "name": "11 THOMAS WILLSON STREET PENNESHAW 5222",
    "locID": "LOC000109648960",
    "tech": "WIRELESS",
    "upgrade": "NULL_NA",
    "gnaf_pid": "GASA_719186802"
   }
  },
  {
   "type": "Feature",
   "geometry": {
    "type": "Point",
    "coordinates": [
     137.94413161,
     -35.7222561
    ]
   },
   "properties": {
    "name": "26 FLINDERS TERRACE PENNESHAW 5222",
    "locID": "LOC100072016426",
    "tech": "WIRELESS",
    "upgrade": "NULL_NA",
    "gnaf_pid": "GASA_719186804"
   }
  },
  {
   "type": "Feature",
   "geometry": {
    "type": "Point",
    "coordinates": [
     137.94062048,
     -35.71962804
    ]
   },
   "properties": {
    "name": "8 TALINGA TERRACE PENNESHAW 5222",
    "locID": "LOC000107594793",
    "tech": "WIRELESS",
    "upgrade": "NULL_NA",
    "gnaf_pid": "GASA_719186808"
   }
  },
  {
   "type": "Feature",
   "geometry": {
    "type": "Point",
    "coordinates": [
     137.94806085,
     -35.72483611
    ]
   },
   "properties": {
    "name": "17 MANSELL STREET PENNESHAW 5222",
    "locID": "LOC000130584778",
    "tech": "WIRELESS",
    "upgrade": "NULL_NA",
    "gnaf_pid": "GASA_719186810"
   }
  },
  {
   "type": "Feature",
   "geometry": {
    "type": "Point",
    "coordinates": [
     137.93075292,
     -35.72103302
    ]
   },
   "properties": {
    "name": "10 CAPE WILLOUGHBY ROAD PENNESHAW 5222",
    "locID": "LOC000116224644",
    "tech": "WIRELESS",
    "upgrade": "NULL_NA",
    "gnaf_pid": "GASA_719186812"
   }
  },
  {
   "type": "Feature",
   "geometry": {
    "type": "Point",
    "coordinates": [
     137.94369011,
     -35.72281382
    ]
   },
   "properties": {
    "name": "26 KARATTA TERRACE PENNESHAW 5222",
    "locID": "LOC000108732566",
    "tech": "WIRELESS",
    "upgrade": "NULL_NA",
    "gnaf_pid": "GASA_719186816"
   }
  },
  {
   "type": "Feature",
   "geometry": {
    "type": "Point",
    "coordinates": [
     137.94313793,
     -35.72852527
    ]
   },
   "properties": {
    "name": "71 CHEOPIS STREET PENNESHAW 5222",
    "locID": "ChIJfYHeON43smoR2WLC8jy-E5w",
    "tech": "WIRELESS",
    "upgrade": "UNKNOWN",
    "gnaf_pid": "GASA_719186829"
   }
  },
  {
   "type": "Feature",
   "geometry": {
    "type": "Point",
    "coordinates": [
     137.9396715,
     -35.71792389
    ]
   },
   "properties": {
    "name": "23 MIDDLE TERRACE PENNESHAW 5222",
    "locID": "ChIJbdp4mOk3smoRPVt_jrDH4OE",
    "tech": "WIRELESS",
    "upgrade": "UNKNOWN",
    "gnaf_pid": "GASA_719186831"
   }
  },
  {
   "type": "Feature",
   "geometry": {
    "type": "Point",
    "coordinates": [
     137.93203061,
     -35.72237675
    ]
   },
   "properties": {
    "name": "5 FREYCINET WAY PENNESHAW 5222",
    "locID": "LOC000108845347",
    "tech": "WIRELESS",
    "upgrade": "NULL_NA",
    "gnaf_pid": "GASA_719186847"
   }
  },
  {
   "type": "Feature",
   "geometry": {
    "type": "Point",
    "coordinates": [
     137.94490335,
     -35.72187844
    ]
   },
   "properties": {
    "name": "52 FRENCHMANS TERRACE PENNESHAW 5222",
    "locID": "LOC100078132610",
    "tech": "WIRELESS",
    "upgrade": "NULL_NA",
    "gnaf_pid": "GASA_719186848"
   }
  },
  {
   "type": "Feature",
   "geometry": {
    "type": "Point",
    "coordinates": [
     137.93072842,
     -35.72083806
    ]
   },
   "properties": {
    "name": "8 CAPE WILLOUGHBY ROAD PENNESHAW 5222",
    "locID": "LOC100072016380",
    "tech": "WIRELESS",
    "upgrade": "NULL_NA",
    "gnaf_pid": "GASA_719186849"
   }
  },
  {
   "type": "Feature",
   "geometry": {
    "type": "Point",
    "coordinates": [
     137.93376046,
     -35.72293548
    ]
   },
   "properties": {
    "name": "23 FREYCINET WAY PENNESHAW 5222",
    "locID": "LOC100056669502",
    "tech": "WIRELESS",
    "upgrade": "NULL_NA",
    "gnaf_pid": "GASA_719186850"
   }
  },
  {
   "type": "Feature",
   "geometry": {
    "type": "Point",
    "coordinates": [
     137.94357805,
     -35.7220896
    ]
   },
   "properties": {
    "name": "20 FLINDERS TERRACE PENNESHAW 5222",
    "locID": "ChIJnar_3MI3smoR_fvjSGviQFs",
    "tech": "WIRELESS",
    "upgrade": "UNKNOWN",
    "gnaf_pid": "GASA_719186852"
   }
  },
  {
   "type": "Feature",
   "geometry": {
    "type": "Point",
    "coordinates": [
     137.94731685,
     -35.72489936
    ]
   },
   "properties": {
    "name": "8 PELICAN STREET PENNESHAW 5222",
    "locID": "LOC000107632103",
    "tech": "WIRELESS",
    "upgrade": "NULL_NA",
    "gnaf_pid": "GASA_719186854"
   }
  },
  {
   "type": "Feature",
   "geometry": {
    "type": "Point",
    "coordinates": [
     137.93252139,
     -35.72257915
    ]
   },
   "properties": {
    "name": "11 FREYCINET WAY PENNESHAW 5222",
    "locID": "ChIJY6Sip-Q3smoRFKgsV9-lM1w",
    "tech": "WIRELESS",
    "upgrade": "UNKNOWN",
    "gnaf_pid": "GASA_719186855"
   }
  },
  {
   "type": "Feature",
   "geometry": {
    "type": "Point",
    "coordinates": [
     137.94330177,
     -35.72137149
    ]
   },
   "properties": {
    "name": "36 FRENCHMANS TERRACE PENNESHAW 5222",
    "locID": "ChIJ3bvY7sI3smoROWDLit9rC4U",
    "tech": "WIRELESS",
    "upgrade": "UNKNOWN",
    "gnaf_pid": "GASA_719186858"
   }
  },
  {
   "type": "Feature",
   "geometry": {
    "type": "Point",
    "coordinates": [
     137.93161089,
     -35.72233497
    ]
   },
   "properties": {
    "name": "1 FREYCINET WAY PENNESHAW 5222",
    "locID": "LOC000108624145",
    "tech": "WIRELESS",
    "upgrade": "NULL_NA",
    "gnaf_pid": "GASA_719186859"
   }
  },
  {
   "type": "Feature",
   "geometry": {
    "type": "Point",
    "coordinates": [
     137.94052866,
     -35.7194928
    ]
   },
   "properties": {
    "name": "6 TALINGA TERRACE PENNESHAW 5222",
    "locID": "ChIJ19xQNOg3smoRTtJEX5GydSs",
    "tech": "WIRELESS",
    "upgrade": "UNKNOWN",
    "gnaf_pid": "GASA_719186881"
   }
  },
  {
   "type": "Feature",
   "geometry": {
    "type": "Point",
    "coordinates": [
     137.9494246,
     -35.72242251
    ]
   },
   "properties": {
    "name": "86 FRENCHMANS TERRACE PENNESHAW 5222",
    "locID": "LOC000109248848",
    "tech": "WIRELESS",
    "upgrade": "NULL_NA",
    "gnaf_pid": "GASA_719186883"
   }
  },
  {
   "type": "Feature",
   "geometry": {
    "type": "Point",
    "coordinates": [
     137.94429292,
     -35.72229878
    ]
   },
   "properties": {
    "name": "28 FLINDERS TERRACE PENNESHAW 5222",
    "locID": "LOC000130607517",
    "tech": "WIRELESS",
    "upgrade": "NULL_NA",
    "gnaf_pid": "GASA_719186892"
   }
  },
  {
   "type": "Feature",
   "geometry": {
    "type": "Point",
    "coordinates": [
     137.93308985,
     -35.7232889
    ]
   },
   "properties": {
    "name": "18 FREYCINET WAY PENNESHAW 5222",
    "locID": "LOC100072016442",
    "tech": "WIRELESS",
    "upgrade": "NULL_NA",
    "gnaf_pid": "GASA_719186893"
   }
  },
  {
   "type": "Feature",
   "geometry": {
    "type": "Point",
    "coordinates": [
     137.93202367,
     -35.72282243
    ]
   },
   "properties": {
    "name": "6 FREYCINET WAY PENNESHAW 5222",
    "locID": "LOC000109340408",
    "tech": "WIRELESS",
    "upgrade": "NULL_NA",
    "gnaf_pid": "GASA_719186899"
   }
  },
  {
   "type": "Feature",
   "geometry": {
    "type": "Point",
    "coordinates": [
     137.94676746,
     -35.72223609
    ]
   },
   "properties": {
    "name": "64 FRENCHMANS TERRACE PENNESHAW 5222",
    "locID": "ChIJ1VEXgcQ3smoRuv56kCjzuBo",
    "tech": "WIRELESS",
    "upgrade": "UNKNOWN",
    "gnaf_pid": "GASA_719186900"
   }
  },
  {
   "type": "Feature",
   "geometry": {
    "type": "Point",
    "coordinates": [
     137.93235711,
     -35.72248636
    ]
   },
   "properties": {
    "name": "9 FREYCINET WAY PENNESHAW 5222",
    "locID": "LOC000108756680",
    "tech": "WIRELESS",
    "upgrade": "NULL_NA",
    "gnaf_pid": "GASA_719186904"
   }
  },
  {
   "type": "Feature",
   "geometry": {
    "type": "Point",
    "coordinates": [
     137.946546,
     -35.72222067
    ]
   },
   "properties": {
    "name": "62 FRENCHMANS TERRACE PENNESHAW 5222",
    "locID": "LOC100072016419",
    "tech": "WIRELESS",
    "upgrade": "NULL_NA",
    "gnaf_pid": "GASA_719186905"
   }
  },
  {
   "type": "Feature",
   "geometry": {
    "type": "Point",
    "coordinates": [
     137.9441648,
     -35.72322214
    ]
   },
   "properties": {
    "name": "6 BUFFALO TERRACE PENNESHAW 5222",
    "locID": "ChIJTV421dw3smoR7py0Py2sUyA",
    "tech": "WIRELESS",
    "upgrade": "UNKNOWN",
    "gnaf_pid": "GASA_719186911"
   }
  },
  {
   "type": "Feature",
   "geometry": {
    "type": "Point",
    "coordinates": [
     137.94867889,
     -35.72471307
    ]
   },
   "properties": {
    "name": "24 WARRAWEE TERRACE PENNESHAW 5222",
    "locID": "ChIJEfom0cQ3smoReHcUIQtf5mQ",
    "tech": "WIRELESS",
    "upgrade": "UNKNOWN",
    "gnaf_pid": "GASA_719186915"
   }
  },
  {
   "type": "Feature",
   "geometry": {
    "type": "Point",
    "coordinates": [
     137.94499316,
     -35.7231205
    ]
   },
   "properties": {
    "name": "40 KARATTA TERRACE PENNESHAW 5222",
    "locID": "LOC100078649463",
    "tech": "WIRELESS",
    "upgrade": "NULL_NA",
    "gnaf_pid": "GASA_719194280"
   }
  },
  {
   "type": "Feature",
   "geometry": {
    "type": "Point",
    "coordinates": [
     137.94151041,
     -35.72011074
    ]
   },
   "properties": {
    "name": "14 FRENCHMANS TERRACE PENNESHAW 5222",
    "locID": "ChIJRaAdKug3smoRP5miU2c_NpI",
    "tech": "WIRELESS",
    "upgrade": "UNKNOWN",
    "gnaf_pid": "GASA_719194281"
   }
  },
  {
   "type": "Feature",
   "geometry": {
    "type": "Point",
    "coordinates": [
     137.9464913,
     -35.72714987
    ]
   },
   "properties": {
    "name": "4 CURRAWONG AVENUE PENNESHAW 5222",
    "locID": "LOC000108207740",
    "tech": "WIRELESS",
    "upgrade": "NULL_NA",
    "gnaf_pid": "GASA_719194305"
   }
  },
  {
   "type": "Feature",
   "geometry": {
    "type": "Point",
    "coordinates": [
     137.95505141,
     -35.7289187
    ]
   },
   "properties": {
    "name": "68 DOLPHIN WAY PENNESHAW 5222",
    "locID": "ChIJefyKwNE3smoRPace04usjqc",
    "tech": "WIRELESS",
    "upgrade": "UNKNOWN",
    "gnaf_pid": "GASA_719194312"
   }
  },
  {
   "type": "Feature",
   "geometry": {
    "type": "Point",
    "coordinates": [
     137.9476589,
     -35.72537972
    ]
   },
   "properties": {
    "name": "16 MANSELL STREET PENNESHAW 5222",
    "locID": "ChIJH7SuR9s3smoR1zElVvYwhUE",
    "tech": "WIRELESS",
    "upgrade": "UNKNOWN",
    "gnaf_pid": "GASA_719194313"
   }
  },
  {
   "type": "Feature",
   "geometry": {
    "type": "Point",
    "coordinates": [
     137.94624432,
     -35.72335764
    ]
   },
   "properties": {
    "name": "4 SOUTH TERRACE PENNESHAW 5222",
    "locID": "LOC100072016457",
    "tech": "WIRELESS",
    "upgrade": "NULL_NA",
    "gnaf_pid": "GASA_719194316"
   }
  },
  {
   "type": "Feature",
   "geometry": {
    "type": "Point",
    "coordinates": [
     137.94694482,
     -35.72362964
    ]
   },
   "properties": {
    "name": "13 WARRAWEE TERRACE PENNESHAW 5222",
    "locID": "ChIJg71apMQ3smoRbe4lVp-AyEQ",
    "tech": "WIRELESS",
    "upgrade": "UNKNOWN",
    "gnaf_pid": "GASA_719194318"
   }
  },
  {
   "type": "Feature",
   "geometry": {
    "type": "Point",
    "coordinates": [
     137.94705322,
     -35.72536071
    ]
   },
   "properties": {
    "name": "10 MANSELL STREET PENNESHAW 5222",
    "locID": "ChIJq3zyXNs3smoRa_kTx9AJhpI",
    "tech": "WIRELESS",
    "upgrade": "UNKNOWN",
    "gnaf_pid": "GASA_719194319"
   }
  },
  {
   "type": "Feature",
   "geometry": {
    "type": "Point",
    "coordinates": [
     137.94703771,
     -35.72639625
    ]
   },
   "properties": {
    "name": "3 CURRAWONG AVENUE PENNESHAW 5222",
    "locID": "LOC100072016501",
    "tech": "WIRELESS",
    "upgrade": "NULL_NA",
    "gnaf_pid": "GASA_719194327"
   }
  },
  {
   "type": "Feature",
   "geometry": {
    "type": "Point",
    "coordinates": [
     137.94826702,
     -35.72388701
    ]
   },
   "properties": {
    "name": "23 WARRAWEE TERRACE PENNESHAW 5222",
    "locID": "ChIJnw31wsQ3smoRwh1OgqwNdc8",
    "tech": "WIRELESS",
    "upgrade": "UNKNOWN",
    "gnaf_pid": "GASA_719194329"
   }
  },
  {
   "type": "Feature",
   "geometry": {
    "type": "Point",
    "coordinates": [
     137.94829169,
     -35.72580801
    ]
   },
   "properties": {
    "name": "40 TRETHEWEY TERRACE PENNESHAW 5222",
    "locID": "ChIJjVF9O9s3smoRLGklCUT_tTs",
    "tech": "WIRELESS",
    "upgrade": "UNKNOWN",
    "gnaf_pid": "GASA_719194336"
   }
  },
  {
   "type": "Feature",
   "geometry": {
    "type": "Point",
    "coordinates": [
     137.94738445,
     -35.72273379
    ]
   },
   "properties": {
    "name": "15 SOUTH TERRACE PENNESHAW 5222",
    "locID": "LOC000108133727",
    "tech": "WIRELESS",
    "upgrade": "NULL_NA",
    "gnaf_pid": "GASA_719194351"
   }
  },
  {
   "type": "Feature",
   "geometry": {
    "type": "Point",
    "coordinates": [
     137.94576695,
     -35.72327356
    ]
   },
   "properties": {
    "name": "2 SOUTH TERRACE PENNESHAW 5222",
    "locID": "LOC100072016435",
    "tech": "WIRELESS",
    "upgrade": "NULL_NA",
    "gnaf_pid": "GASA_719194352"
   }
  },
  {
   "type": "Feature",
   "geometry": {
    "type": "Point",
    "coordinates": [
     137.93302239,
     -35.71918988
    ]
   },
   "properties": {
    "name": "13 CHRISTMAS STREET PENNESHAW 5222",
    "locID": "ChIJV6kCQuU3smoR-w9ky3JcqZI",
    "tech": "WIRELESS",
    "upgrade": "UNKNOWN",
    "gnaf_pid": "GASA_719194354"
   }
  },
  {
   "type": "Feature",
   "geometry": {
    "type": "Point",
    "coordinates": [
     137.94019415,
     -35.71861065
    ]
   },
   "properties": {
    "name": "14 MIDDLE TERRACE PENNESHAW 5222",
    "locID": "LOC000130584853",
    "tech": "WIRELESS",
    "upgrade": "NULL_NA",
    "gnaf_pid": "GASA_719194371"
   }
  },
  {
   "type": "Feature",
   "geometry": {
    "type": "Point",
    "coordinates": [
     137.94841861,
     -35.72348934
    ]
   },
   "properties": {
    "name": "22 SOUTH TERRACE PENNESHAW 5222",
    "locID": "LOC100078863579",
    "tech": "WIRELESS",
    "upgrade": "NULL_NA",
    "gnaf_pid": "GASA_719194374"
   }
  },
  {
   "type": "Feature",
   "geometry": {
    "type": "Point",
    "coordinates": [
     137.94669345,
     -35.7233129
    ]
   },
   "properties": {
    "name": "UNIT 2, 10 SOUTH TERRACE PENNESHAW 5222",
    "locID": "LOC000186379278",
    "tech": "WIRELESS",
    "upgrade": "NULL_NA",
    "gnaf_pid": "GASA_719194375"
   }
  },
  {
   "type": "Feature",
   "geometry": {
    "type": "Point",
    "coordinates": [
     137.93374927,
     -35.72337154
    ]
   },
   "properties": {
    "name": "24 FREYCINET WAY PENNESHAW 5222",
    "locID": "ChIJz0SufeM3smoRXYgivsCGEMQ",
    "tech": "WIRELESS",
    "upgrade": "UNKNOWN",
    "gnaf_pid": "GASA_719194378"
   }
  },
  {
   "type": "Feature",
   "geometry": {
    "type": "Point",
    "coordinates": [
     137.95299388,
     -35.7229017
    ]
   },
   "properties": {
    "name": "2 VERNON COURT PENNESHAW 5222",
    "locID": "LOC100078649471",
    "tech": "WIRELESS",
    "upgrade": "NULL_NA",
    "gnaf_pid": "GASA_719194384"
   }
  },
  {
   "type": "Feature",
   "geometry": {
    "type": "Point",
    "coordinates": [
     137.94658043,
     -35.72762051
    ]
   },
   "properties": {
    "name": "41 WRIGHT ROAD PENNESHAW 5222",
    "locID": "ChIJwxtT9ds3smoR_mSZI0--PDY",
    "tech": "WIRELESS",
    "upgrade": "UNKNOWN",
    "gnaf_pid": "GASA_719194388"
   }
  },
  {
   "type": "Feature",
   "geometry": {
    "type": "Point",
    "coordinates": [
     137.95203464,
     -35.72672759
    ]
   },
   "properties": {
    "name": "34 DOLPHIN WAY PENNESHAW 5222",
    "locID": "ChIJLd4YA9A3smoRM7_8MsyJ9CE",
    "tech": "WIRELESS",
    "upgrade": "UNKNOWN",
    "gnaf_pid": "GASA_719194393"
   }
  },
  {
   "type": "Feature",
   "geometry": {
    "type": "Point",
    "coordinates": [
     137.93901516,
     -35.71780613
    ]
   },
   "properties": {
    "name": "4 NAT THOMAS STREET PENNESHAW 5222",
    "locID": "ChIJKfFFCuk3smoRjQc8ykvlzrU",
    "tech": "WIRELESS",
    "upgrade": "UNKNOWN",
    "gnaf_pid": "GASA_719194398"
   }
  },
  {
   "type": "Feature",
   "geometry": {
    "type": "Point",
    "coordinates": [
     137.95343455,
     -35.7268013
    ]
   },
   "properties": {
    "name": "171 BINNEYS TRACK PENNESHAW 5222",
    "locID": "ChIJn9aU0M83smoRzFyUTysEMoU",
    "tech": "WIRELESS",
    "upgrade": "UNKNOWN",
    "gnaf_pid": "GASA_719194410"
   }
  },
  {
   "type": "Feature",
   "geometry": {
    "type": "Point",
    "coordinates": [
     137.952542,
     -35.72500115
    ]
   },
   "properties": {
    "name": "6 DOLPHIN WAY PENNESHAW 5222",
    "locID": "ChIJzRi6mc83smoROSTmqEAr7Bs",
    "tech": "WIRELESS",
    "upgrade": "UNKNOWN",
    "gnaf_pid": "GASA_719194426"
   }
  },
  {
   "type": "Feature",
   "geometry": {
    "type": "Point",
    "coordinates": [
     137.94655443,
     -35.72792503
    ]
   },
   "properties": {
    "name": "45 WRIGHT ROAD PENNESHAW 5222",
    "locID": "ChIJ7V0d9ts3smoRFo2C5Nnz0GI",
    "tech": "WIRELESS",
    "upgrade": "UNKNOWN",
    "gnaf_pid": "GASA_719194432"
   }
  },
  {
   "type": "Feature",
   "geometry": {
    "type": "Point",
    "coordinates": [
     137.93464548,
     -35.72337255
    ]
   },
   "properties": {
    "name": "32 FREYCINET WAY PENNESHAW 5222",
    "locID": "ChIJ27pveeQ3smoR8Dc1sTJJzzs",
    "tech": "WIRELESS",
    "upgrade": "UNKNOWN",
    "gnaf_pid": "GASA_719194449"
   }
  },
  {
   "type": "Feature",
   "geometry": {
    "type": "Point",
    "coordinates": [
     137.94672015,
     -35.72268749
    ]
   },
   "properties": {
    "name": "9 SOUTH TERRACE PENNESHAW 5222",
    "locID": "LOC000097636627",
    "tech": "WIRELESS",
    "upgrade": "NULL_NA",
    "gnaf_pid": "GASA_719194451"
   }
  },
  {
   "type": "Feature",
   "geometry": {
    "type": "Point",
    "coordinates": [
     137.94556784,
     -35.72479808
    ]
   },
   "properties": {
    "name": "12 WRIGHT ROAD PENNESHAW 5222",
    "locID": "ChIJO9ljvtw3smoRgBrwglnq3YY",
    "tech": "WIRELESS",
    "upgrade": "UNKNOWN",
    "gnaf_pid": "GASA_719194452"
   }
  },
  {
   "type": "Feature",
   "geometry": {
    "type": "Point",
    "coordinates": [
     137.94479176,
     -35.72308299
    ]
   },
   "properties": {
    "name": "38 KARATTA TERRACE PENNESHAW 5222",
    "locID": "ChIJs_G5McM3smoR-Bov6QcH_KQ",
    "tech": "WIRELESS",
    "upgrade": "UNKNOWN",
    "gnaf_pid": "GASA_719194462"
   }
  },
  {
   "type": "Feature",
   "geometry": {
    "type": "Point",
    "coordinates": [
     137.9465674,
     -35.72777278
    ]
   },
   "properties": {
    "name": "43 WRIGHT ROAD PENNESHAW 5222",
    "locID": "ChIJK-uG9ds3smoRGFr2bu6KM_Q",
    "tech": "WIRELESS",
    "upgrade": "UNKNOWN",
    "gnaf_pid": "GASA_719194464"
   }
  },
  {
   "type": "Feature",
   "geometry": {
    "type": "Point",
    "coordinates": [
     137.94340715,
     -35.72764686
    ]
   },
   "properties": {
    "name": "59 CHEOPIS STREET PENNESHAW 5222",
    "locID": "LOC000161095950",
    "tech": "WIRELESS",
    "upgrade": "NULL_NA",
    "gnaf_pid": "GASA_719194475"
   }
  },
  {
   "type": "Feature",
   "geometry": {
    "type": "Point",
    "coordinates": [
     137.95592838,
     -35.72902887
    ]
   },
   "properties": {
    "name": "143 BINNEYS TRACK PENNESHAW 5222",
    "locID": "ChIJj9CT8dE3smoR_7Agayn-Jho",
    "tech": "WIRELESS",
    "upgrade": "UNKNOWN",
    "gnaf_pid": "GASA_719194481"
   }
  },
  {
   "type": "Feature",
   "geometry": {
    "type": "Point",
    "coordinates": [
     137.95205607,
     -35.72477521
    ]
   },
   "properties": {
    "name": "12 DOLPHIN WAY PENNESHAW 5222",
    "locID": "LOC100056669142",
    "tech": "WIRELESS",
    "upgrade": "NULL_NA",
    "gnaf_pid": "GASA_719194484"
   }
  },
  {
   "type": "Feature",
   "geometry": {
    "type": "Point",
    "coordinates": [
     137.9518114,
     -35.72836425
    ]
   },
   "properties": {
    "name": "12 FERNANDE COURT PENNESHAW 5222",
    "locID": "ChIJrxuX3fw3smoRQNeIhV-7BiY",
    "tech": "WIRELESS",
    "upgrade": "UNKNOWN",
    "gnaf_pid": "GASA_719194485"
   }
  },
  {
   "type": "Feature",
   "geometry": {
    "type": "Point",
    "coordinates": [
     137.94242159,
     -35.72173326
    ]
   },
   "properties": {
    "name": "8 FLINDERS TERRACE PENNESHAW 5222",
    "locID": "ChIJtyOyu8I3smoRSOzl4XpRfH4",
    "tech": "WIRELESS",
    "upgrade": "UNKNOWN",
    "gnaf_pid": "GASA_719194486"
   }
  },
  {
   "type": "Feature",
   "geometry": {
    "type": "Point",
    "coordinates": [
     137.94666956,
     -35.7235634
    ]
   },
   "properties": {
    "name": "11 WARRAWEE TERRACE PENNESHAW 5222",
    "locID": "LOC100078132804",
    "tech": "WIRELESS",
    "upgrade": "NULL_NA",
    "gnaf_pid": "GASA_719194504"
   }
  },
  {
   "type": "Feature",
   "geometry": {
    "type": "Point",
    "coordinates": [
     137.93251468,
     -35.72309384
    ]
   },
   "properties": {
    "name": "12 FREYCINET WAY PENNESHAW 5222",
    "locID": "ChIJicWxW-M3smoR8TM-4ZH15Lc",
    "tech": "WIRELESS",
    "upgrade": "UNKNOWN",
    "gnaf_pid": "GASA_719194517"
   }
  },
  {
   "type": "Feature",
   "geometry": {
    "type": "Point",
    "coordinates": [
     137.93077527,
     -35.72142699
    ]
   },
   "properties": {
    "name": "14 CAPE WILLOUGHBY ROAD PENNESHAW 5222",
    "locID": "LOC000116224671",
    "tech": "WIRELESS",
    "upgrade": "NULL_NA",
    "gnaf_pid": "GASA_719194528"
   }
  },
  {
   "type": "Feature",
   "geometry": {
    "type": "Point",
    "coordinates": [
     137.93069758,
     -35.72202562
    ]
   },
   "properties": {
    "name": "22 CAPE WILLOUGHBY ROAD PENNESHAW 5222",
    "locID": "LOC000113002470",
    "tech": "SATELLITE",
    "upgrade": "NULL_NA",
    "gnaf_pid": "GASA_719194532"
   }
  },
  {
   "type": "Feature",
   "geometry": {
    "type": "Point",
    "coordinates": [
     137.94484513,
     -35.72848608
    ]
   },
   "properties": {
    "name": "54 WRIGHT ROAD PENNESHAW 5222",
    "locID": "ChIJ_Q71mt43smoRvBwSPzZi1Cg",
    "tech": "WIRELESS",
    "upgrade": "UNKNOWN",
    "gnaf_pid": "GASA_719194534"
   }
  },
  {
   "type": "Feature",
   "geometry": {
    "type": "Point",
    "coordinates": [
     137.95223931,
     -35.72389384
    ]
   },
   "properties": {
    "name": "15 VERNON COURT PENNESHAW 5222",
    "locID": "ChIJc3o3cM83smoR0Ao928iA0bM",
    "tech": "WIRELESS",
    "upgrade": "UNKNOWN",
    "gnaf_pid": "GASA_719194539"
   }
  },
  {
   "type": "Feature",
   "geometry": {
    "type": "Point",
    "coordinates": [
     137.95366617,
     -35.72803059
    ]
   },
   "properties": {
    "name": "49 DOLPHIN WAY PENNESHAW 5222",
    "locID": "ChIJcS9gMdA3smoRn0m1PFRIS0U",
    "tech": "WIRELESS",
    "upgrade": "UNKNOWN",
    "gnaf_pid": "GASA_719194541"
   }
  },
  {
   "type": "Feature",
   "geometry": {
    "type": "Point",
    "coordinates": [
     137.95270042,
     -35.72647036
    ]
   },
   "properties": {
    "name": "25 DOLPHIN WAY PENNESHAW 5222",
    "locID": "ChIJy4Fv5883smoRVxa80yGB2q0",
    "tech": "WIRELESS",
    "upgrade": "UNKNOWN",
    "gnaf_pid": "GASA_719194543"
   }
  },
  {
   "type": "Feature",
   "geometry": {
    "type": "Point",
    "coordinates": [
     137.94375354,
     -35.723105
    ]
   },
   "properties": {
    "name": "2 BUFFALO TERRACE PENNESHAW 5222",
    "locID": "ChIJodyeLN03smoRke20Eswt75E",
    "tech": "WIRELESS",
    "upgrade": "UNKNOWN",
    "gnaf_pid": "GASA_719194560"
   }
  },
  {
   "type": "Feature",
   "geometry": {
    "type": "Point",
    "coordinates": [
     137.9489345,
     -35.72284258
    ]
   },
   "properties": {
    "name": "27 SOUTH TERRACE PENNESHAW 5222",
    "locID": "ChIJ4ePhVMQ3smoR33fM27bo6hg",
    "tech": "WIRELESS",
    "upgrade": "UNKNOWN",
    "gnaf_pid": "GASA_719194566"
   }
  },
  {
   "type": "Feature",
   "geometry": {
    "type": "Point",
    "coordinates": [
     137.9476532,
     -35.72229779
    ]
   },
   "properties": {
    "name": "72 FRENCHMANS TERRACE PENNESHAW 5222",
    "locID": "LOC100078132718",
    "tech": "WIRELESS",
    "upgrade": "NULL_NA",
    "gnaf_pid": "GASA_719194572"
   }
  },
  {
   "type": "Feature",
   "geometry": {
    "type": "Point",
    "coordinates": [
     137.9461499,
     -35.72486621
    ]
   },
   "properties": {
    "name": "11 WRIGHT ROAD PENNESHAW 5222",
    "locID": "LOC000112277124",
    "tech": "WIRELESS",
    "upgrade": "NULL_NA",
    "gnaf_pid": "GASA_719194583"
   }
  },
  {
   "type": "Feature",
   "geometry": {
    "type": "Point",
    "coordinates": [
     137.93631177,
     -35.71958226
    ]
   },
   "properties": {
    "name": "4 CASUARINA CRESCENT PENNESHAW 5222",
    "locID": "ChIJNTmuVu83smoRKAVCQ5Pf_X0",
    "tech": "WIRELESS",
    "upgrade": "UNKNOWN",
    "gnaf_pid": "GASA_719194584"
   }
  },
  {
   "type": "Feature",
   "geometry": {
    "type": "Point",
    "coordinates": [
     137.95166598,
     -35.72883491
    ]
   },
   "properties": {
    "name": "11 FERNANDE COURT PENNESHAW 5222",
    "locID": "ChIJe8wHgdA3smoRTq6q48vBdHg",
    "tech": "WIRELESS",
    "upgrade": "UNKNOWN",
    "gnaf_pid": "GASA_719194586"
   }
  },
  {
   "type": "Feature",
   "geometry": {
    "type": "Point",
    "coordinates": [
     137.9532841,
     -35.72743204
    ]
   },
   "properties": {
    "name": "41 DOLPHIN WAY PENNESHAW 5222",
    "locID": "ChIJAfHpJdA3smoR0upUiaHeu-E",
    "tech": "WIRELESS",
    "upgrade": "UNKNOWN",
    "gnaf_pid": "GASA_719194588"
   }
  },
  {
   "type": "Feature",
   "geometry": {
    "type": "Point",
    "coordinates": [
     137.93805559,
     -35.71742051
    ]
   },
   "properties": {
    "name": "12 NORTH TERRACE PENNESHAW 5222",
    "locID": "ChIJtQw1FOk3smoRV6VjLQvqeWU",
    "tech": "WIRELESS",
    "upgrade": "UNKNOWN",
    "gnaf_pid": "GASA_719194595"
   }
  },
  {
   "type": "Feature",
   "geometry": {
    "type": "Point",
    "coordinates": [
     137.94863999,
     -35.72350454
    ]
   },
   "properties": {
    "name": "24 SOUTH TERRACE PENNESHAW 5222",
    "locID": "LOC100078132482",
    "tech": "WIRELESS",
    "upgrade": "NULL_NA",
    "gnaf_pid": "GASA_719194598"
   }
  },
  {
   "type": "Feature",
   "geometry": {
    "type": "Point",
    "coordinates": [
     137.93490123,
     -35.72290649
    ]
   },
   "properties": {
    "name": "31 FREYCINET WAY PENNESHAW 5222",
    "locID": "ChIJ92tKb-Q3smoRKFU98gM6CK8",
    "tech": "WIRELESS",
    "upgrade": "UNKNOWN",
    "gnaf_pid": "GASA_719194601"
   }
  },
  {
   "type": "Feature",
   "geometry": {
    "type": "Point",
    "coordinates": [
     137.9504941,
     -35.72403603
    ]
   },
   "properties": {
    "name": "11 TRETHEWEY TERRACE PENNESHAW 5222",
    "locID": "LOC100072016474",
    "tech": "WIRELESS",
    "upgrade": "NULL_NA",
    "gnaf_pid": "GASA_719194608"
   }
  },
  {
   "type": "Feature",
   "geometry": {
    "type": "Point",
    "coordinates": [
     137.95247956,
     -35.72374134
    ]
   },
   "properties": {
    "name": "13 VERNON COURT PENNESHAW 5222",
    "locID": "ChIJJXw8bM83smoRZUxb0HUGZvA",
    "tech": "WIRELESS",
    "upgrade": "UNKNOWN",
    "gnaf_pid": "GASA_719194609"
   }
  },
  {
   "type": "Feature",
   "geometry": {
    "type": "Point",
    "coordinates": [
     137.95114985,
     -35.72279501
    ]
   },
   "properties": {
    "name": "223 BINNEYS TRACK PENNESHAW 5222",
    "locID": "ChIJwZ9N88U3smoRyZVQSspuXp8",
    "tech": "WIRELESS",
    "upgrade": "UNKNOWN",
    "gnaf_pid": "GASA_719194612"
   }
  },
  {
   "type": "Feature",
   "geometry": {
    "type": "Point",
    "coordinates": [
     137.95301383,
     -35.72369117
    ]
   },
   "properties": {
    "name": "199 BINNEYS TRACK PENNESHAW 5222",
    "locID": "ChIJTVvbFc83smoRwKiuS8dpbLg",
    "tech": "WIRELESS",
    "upgrade": "UNKNOWN",
    "gnaf_pid": "GASA_719194618"
   }
  },
  {
   "type": "Feature",
   "geometry": {
    "type": "Point",
    "coordinates": [
     137.9472551,
     -35.72536709
    ]
   },
   "properties": {
    "name": "12 MANSELL STREET PENNESHAW 5222",
    "locID": "ChIJMSdgQ9s3smoR9EDz0ysQ4Qw",
    "tech": "WIRELESS",
    "upgrade": "UNKNOWN",
    "gnaf_pid": "GASA_719194622"
   }
  },
  {
   "type": "Feature",
   "geometry": {
    "type": "Point",
    "coordinates": [
     137.95167027,
     -35.72310478
    ]
   },
   "properties": {
    "name": "12 VERNON COURT PENNESHAW 5222",
    "locID": "ChIJKT0Gz3g3smoRNXUNzgPzUVc",
    "tech": "WIRELESS",
    "upgrade": "UNKNOWN",
    "gnaf_pid": "GASA_719194647"
   }
  },
  {
   "type": "Feature",
   "geometry": {
    "type": "Point",
    "coordinates": [
     137.95187578,
     -35.72554825
    ]
   },
   "properties": {
    "name": "18 DOLPHIN WAY PENNESHAW 5222",
    "locID": "LOC000130599502",
    "tech": "WIRELESS",
    "upgrade": "NULL_NA",
    "gnaf_pid": "GASA_719194654"
   }
  },
  {
   "type": "Feature",
   "geometry": {
    "type": "Point",
    "coordinates": [
     137.93991502,
     -35.71747833
    ]
   },
   "properties": {
    "name": "28 NORTH TERRACE PENNESHAW 5222",
    "locID": "ChIJR6Hbj-k3smoRvS5x5aaPZ6c",
    "tech": "WIRELESS",
    "upgrade": "UNKNOWN",
    "gnaf_pid": "GASA_719194661"
   }
  },
  {
   "type": "Feature",
   "geometry": {
    "type": "Point",
    "coordinates": [
     137.94304886,
     -35.72192433
    ]
   },
   "properties": {
    "name": "14 FLINDERS TERRACE PENNESHAW 5222",
    "locID": "LOC000109377821",
    "tech": "WIRELESS",
    "upgrade": "NULL_NA",
    "gnaf_pid": "GASA_719194664"
   }
  },
  {
   "type": "Feature",
   "geometry": {
    "type": "Point",
    "coordinates": [
     137.95305056,
     -35.72714598
    ]
   },
   "properties": {
    "name": "37 DOLPHIN WAY PENNESHAW 5222",
    "locID": "ChIJdTHVJtA3smoRql8ULt_tLfw",
    "tech": "WIRELESS",
    "upgrade": "UNKNOWN",
    "gnaf_pid": "GASA_719194672"
   }
  },
  {
   "type": "Feature",
   "geometry": {
    "type": "Point",
    "coordinates": [
     137.94469701,
     -35.72185347
    ]
   },
   "properties": {
    "name": "50 FRENCHMANS TERRACE PENNESHAW 5222",
    "locID": "LOC100078132681",
    "tech": "WIRELESS",
    "upgrade": "NULL_NA",
    "gnaf_pid": "GASA_719194677"
   }
  },
  {
   "type": "Feature",
   "geometry": {
    "type": "Point",
    "coordinates": [
     137.93300713,
     -35.71953349
    ]
   },
   "properties": {
    "name": "40 HOWARD DRIVE PENNESHAW 5222",
    "locID": "ChIJQb62auU3smoR2K-RZc8UERo",
    "tech": "WIRELESS",
    "upgrade": "UNKNOWN",
    "gnaf_pid": "GASA_719194680"
   }
  },
  {
   "type": "Feature",
   "geometry": {
    "type": "Point",
    "coordinates": [
     137.94612454,
     -35.72521519
    ]
   },
   "properties": {
    "name": "2 MANSELL STREET PENNESHAW 5222",
    "locID": "ChIJBxGOmNw3smoRz-JR5Ov74wg",
    "tech": "WIRELESS",
    "upgrade": "UNKNOWN",
    "gnaf_pid": "GASA_719194681"
   }
  },
  {
   "type": "Feature",
   "geometry": {
    "type": "Point",
    "coordinates": [
     137.95210284,
     -35.7230135
    ]
   },
   "properties": {
    "name": "10 VERNON COURT PENNESHAW 5222",
    "locID": "LOC000130615039",
    "tech": "WIRELESS",
    "upgrade": "NULL_NA",
    "gnaf_pid": "GASA_719194686"
   }
  },
  {
   "type": "Feature",
   "geometry": {
    "type": "Point",
    "coordinates": [
     137.94520071,
     -35.72696423
    ]
   },
   "properties": {
    "name": "38 WRIGHT ROAD PENNESHAW 5222",
    "locID": "ChIJRRIXbNw3smoRgkFaI5ACy2M",
    "tech": "WIRELESS",
    "upgrade": "UNKNOWN",
    "gnaf_pid": "GASA_719194687"
   }
  },
  {
   "type": "Feature",
   "geometry": {
    "type": "Point",
    "coordinates": [
     137.93360677,
     -35.71953402
    ]
   },
   "properties": {
    "name": "34 HOWARD DRIVE PENNESHAW 5222",
    "locID": "LOC100078132550",
    "tech": "WIRELESS",
    "upgrade": "NULL_NA",
    "gnaf_pid": "GASA_719194703"
   }
  },
  {
   "type": "Feature",
   "geometry": {
    "type": "Point",
    "coordinates": [
     137.93899304,
     -35.71802257
    ]
   },
   "properties": {
    "name": "2 NAT THOMAS STREET PENNESHAW 5222",
    "locID": "ChIJQ3pRCOk3smoRuOWGlZxa60A",
    "tech": "WIRELESS",
    "upgrade": "UNKNOWN",
    "gnaf_pid": "GASA_719194704"
   }
  },
  {
   "type": "Feature",
   "geometry": {
    "type": "Point",
    "coordinates": [
     137.95549137,
     -35.72896272
    ]
   },
   "properties": {
    "name": "147 BINNEYS TRACK PENNESHAW 5222",
    "locID": "ChIJdT6N69E3smoRpSkzSp0iyWE",
    "tech": "WIRELESS",
    "upgrade": "UNKNOWN",
    "gnaf_pid": "GASA_719194741"
   }
  },
  {
   "type": "Feature",
   "geometry": {
    "type": "Point",
    "coordinates": [
     137.94937728,
     -35.72287386
    ]
   },
   "properties": {
    "name": "31 SOUTH TERRACE PENNESHAW 5222",
    "locID": "LOC000109722430",
    "tech": "WIRELESS",
    "upgrade": "NULL_NA",
    "gnaf_pid": "GASA_719194745"
   }
  },
  {
   "type": "Feature",
   "geometry": {
    "type": "Point",
    "coordinates": [
     137.93599952,
     -35.71922821
    ]
   },
   "properties": {
    "name": "9 HOWARD DRIVE PENNESHAW 5222",
    "locID": "LOC000130569080",
    "tech": "WIRELESS",
    "upgrade": "NULL_NA",
    "gnaf_pid": "GASA_719194746"
   }
  },
  {
   "type": "Feature",
   "geometry": {
    "type": "Point",
    "coordinates": [
     137.9394494,
     -35.71791699
    ]
   },
   "properties": {
    "name": "21 MIDDLE TERRACE PENNESHAW 5222",
    "locID": "LOC100078132509",
    "tech": "WIRELESS",
    "upgrade": "NULL_NA",
    "gnaf_pid": "GASA_719194748"
   }
  },
  {
   "type": "Feature",
   "geometry": {
    "type": "Point",
    "coordinates": [
     137.94406696,
     -35.72752137
    ]
   },
   "properties": {
    "name": "53 CHEOPIS STREET PENNESHAW 5222",
    "locID": "ChIJAaPV1N03smoRhqBW6scqQs8",
    "tech": "WIRELESS",
    "upgrade": "UNKNOWN",
    "gnaf_pid": "GASA_719194753"
   }
  },
  {
   "type": "Feature",
   "geometry": {
    "type": "Point",
    "coordinates": [
     137.94626184,
     -35.72713525
    ]
   },
   "properties": {
    "name": "2 CURRAWONG AVENUE PENNESHAW 5222",
    "locID": "ChIJWSu0dtw3smoRIUG-V24ipPI",
    "tech": "WIRELESS",
    "upgrade": "UNKNOWN",
    "gnaf_pid": "GASA_719194770"
   }
  },
  {
   "type": "Feature",
   "geometry": {
    "type": "Point",
    "coordinates": [
     137.9367904,
     -35.71871628
    ]
   },
   "properties": {
    "name": "3 HOWARD DRIVE PENNESHAW 5222",
    "locID": "LOC100078132550",
    "tech": "WIRELESS",
    "upgrade": "NULL_NA",
    "gnaf_pid": "GASA_719194771"
   }
  },
  {
   "type": "Feature",
   "geometry": {
    "type": "Point",
    "coordinates": [
     137.93248324,
     -35.71941282
    ]
   },
   "properties": {
    "name": "19 CHRISTMAS STREET PENNESHAW 5222",
    "locID": "ChIJdUhSOOU3smoRW3ybB3UZFiM",
    "tech": "WIRELESS",
    "upgrade": "UNKNOWN",
    "gnaf_pid": "GASA_719194777"
   }
  },
  {
   "type": "Feature",
   "geometry": {
    "type": "Point",
    "coordinates": [
     137.94772313,
     -35.72587186
    ]
   },
   "properties": {
    "name": "42 TRETHEWEY TERRACE PENNESHAW 5222",
    "locID": "LOC000179552123",
    "tech": "WIRELESS",
    "upgrade": "NULL_NA",
    "gnaf_pid": "GASA_719194786"
   }
  },
  {
   "type": "Feature",
   "geometry": {
    "type": "Point",
    "coordinates": [
     137.94676234,
     -35.72447523
    ]
   },
   "properties": {
    "name": "9 MANSELL STREET PENNESHAW 5222",
    "locID": "ChIJ6ZBbVNs3smoRCqnu0xRn07k",
    "tech": "WIRELESS",
    "upgrade": "UNKNOWN",
    "gnaf_pid": "GASA_719194789"
   }
  },
  {
   "type": "Feature",
   "geometry": {
    "type": "Point",
    "coordinates": [
     137.94520081,
     -35.72745333
    ]
   },
   "properties": {
    "name": "42 WRIGHT ROAD PENNESHAW 5222",
    "locID": "ChIJsXYIPdw3smoRi9zbS-NaMLw",
    "tech": "WIRELESS",
    "upgrade": "UNKNOWN",
    "gnaf_pid": "GASA_719194796"
   }
  },
  {
   "type": "Feature",
   "geometry": {
    "type": "Point",
    "coordinates": [
     137.9500322,
     -35.72380402
    ]
   },
   "properties": {
    "name": "17 TRETHEWEY TERRACE PENNESHAW 5222",
    "locID": "ChIJ9S-QDsU3smoRo5l8CchsLzg",
    "tech": "WIRELESS",
    "upgrade": "UNKNOWN",
    "gnaf_pid": "GASA_719194799"
   }
  },
  {
   "type": "Feature",
   "geometry": {
    "type": "Point",
    "coordinates": [
     137.94196769,
     -35.7214411
    ]
   },
   "properties": {
    "name": "2 FLINDERS TERRACE PENNESHAW 5222",
    "locID": "LOC100072016426",
    "tech": "WIRELESS",
    "upgrade": "NULL_NA",
    "gnaf_pid": "GASA_719194809"
   }
  },
  {
   "type": "Feature",
   "geometry": {
    "type": "Point",
    "coordinates": [
     137.94225362,
     -35.7216737
    ]
   },
   "properties": {
    "name": "6 FLINDERS TERRACE PENNESHAW 5222",
    "locID": "LOC000130607435",
    "tech": "WIRELESS",
    "upgrade": "NULL_NA",
    "gnaf_pid": "GASA_719194811"
   }
  },
  {
   "type": "Feature",
   "geometry": {
    "type": "Point",
    "coordinates": [
     137.93066544,
     -35.71954235
    ]
   },
   "properties": {
    "name": "5 CLARK STREET PENNESHAW 5222",
    "locID": "LOC100078132566",
    "tech": "WIRELESS",
    "upgrade": "NULL_NA",
    "gnaf_pid": "GASA_719194825"
   }
  },
  {
   "type": "Feature",
   "geometry": {
    "type": "Point",
    "coordinates": [
     137.93630675,
     -35.71771269
    ]
   },
   "properties": {
    "name": "5 THOMAS WILLSON STREET PENNESHAW 5222",
    "locID": "LOC000164449439",
    "tech": "WIRELESS",
    "upgrade": "NULL_NA",
    "gnaf_pid": "GASA_719194834"
   }
  },
  {
   "type": "Feature",
   "geometry": {
    "type": "Point",
    "coordinates": [
     137.94920322,
     -35.7224068
    ]
   },
   "properties": {
    "name": "84 FRENCHMANS TERRACE PENNESHAW 5222",
    "locID": "LOC000130610886",
    "tech": "WIRELESS",
    "upgrade": "NULL_NA",
    "gnaf_pid": "GASA_719194836"
   }
  },
  {
   "type": "Feature",
   "geometry": {
    "type": "Point",
    "coordinates": [
     137.94017778,
     -35.71793969
    ]
   },
   "properties": {
    "name": "27 MIDDLE TERRACE PENNESHAW 5222",
    "locID": "ChIJK2TTlek3smoRGqK282_ZJhM",
    "tech": "WIRELESS",
    "upgrade": "UNKNOWN",
    "gnaf_pid": "GASA_719194847"
   }
  },
  {
   "type": "Feature",
   "geometry": {
    "type": "Point",
    "coordinates": [
     137.9490831,
     -35.72353496
    ]
   },
   "properties": {
    "name": "28 SOUTH TERRACE PENNESHAW 5222",
    "locID": "LOC100078132760",
    "tech": "WIRELESS",
    "upgrade": "NULL_NA",
    "gnaf_pid": "GASA_719194851"
   }
  },
  {
   "type": "Feature",
   "geometry": {
    "type": "Point",
    "coordinates": [
     137.94711257,
     -35.72588181
    ]
   },
   "properties": {
    "name": "44 TRETHEWEY TERRACE PENNESHAW 5222",
    "locID": "LOC100072016461",
    "tech": "WIRELESS",
    "upgrade": "NULL_NA",
    "gnaf_pid": "GASA_719194858"
   }
  },
  {
   "type": "Feature",
   "geometry": {
    "type": "Point",
    "coordinates": [
     137.9501319,
     -35.72355069
    ]
   },
   "properties": {
    "name": "15 TRETHEWEY TERRACE PENNESHAW 5222",
    "locID": "LOC000154979868",
    "tech": "WIRELESS",
    "upgrade": "NULL_NA",
    "gnaf_pid": "GASA_719194859"
   }
  },
  {
   "type": "Feature",
   "geometry": {
    "type": "Point",
    "coordinates": [
     137.94548305,
     -35.72425044
    ]
   },
   "properties": {
    "name": "8 WRIGHT ROAD PENNESHAW 5222",
    "locID": "LOC000108627384",
    "tech": "WIRELESS",
    "upgrade": "NULL_NA",
    "gnaf_pid": "GASA_719194866"
   }
  },
  {
   "type": "Feature",
   "geometry": {
    "type": "Point",
    "coordinates": [
     137.9361587,
     -35.71935158
    ]
   },
   "properties": {
    "name": "2 CASUARINA CRESCENT PENNESHAW 5222",
    "locID": "ChIJKdxXUO83smoRpQxMmueSqwQ",
    "tech": "WIRELESS",
    "upgrade": "UNKNOWN",
    "gnaf_pid": "GASA_719194870"
   }
  },
  {
   "type": "Feature",
   "geometry": {
    "type": "Point",
    "coordinates": [
     137.94831725,
     -35.72234441
    ]
   },
   "properties": {
    "name": "76 FRENCHMANS TERRACE PENNESHAW 5222",
    "locID": "LOC100078132741",
    "tech": "WIRELESS",
    "upgrade": "NULL_NA",
    "gnaf_pid": "GASA_719194881"
   }
  },
  {
   "type": "Feature",
   "geometry": {
    "type": "Point",
    "coordinates": [
     137.94241185,
     -35.72085827
    ]
   },
   "properties": {
    "name": "26 FRENCHMANS TERRACE PENNESHAW 5222",
    "locID": "LOC100078132634",
    "tech": "WIRELESS",
    "upgrade": "NULL_NA",
    "gnaf_pid": "GASA_719194882"
   }
  },
  {
   "type": "Feature",
   "geometry": {
    "type": "Point",
    "coordinates": [
     137.94190789,
     -35.72216237
    ]
   },
   "properties": {
    "name": "6 KARATTA TERRACE PENNESHAW 5222",
    "locID": "ChIJrXNgq8I3smoRhB9sYKrSDvo",
    "tech": "WIRELESS",
    "upgrade": "UNKNOWN",
    "gnaf_pid": "GASA_719194885"
   }
  },
  {
   "type": "Feature",
   "geometry": {
    "type": "Point",
    "coordinates": [
     137.94140086,
     -35.71996835
    ]
   },
   "properties": {
    "name": "12 FRENCHMANS TERRACE PENNESHAW 5222",
    "locID": "LOC000130610743",
    "tech": "WIRELESS",
    "upgrade": "NULL_NA",
    "gnaf_pid": "GASA_719194890"
   }
  },
  {
   "type": "Feature",
   "geometry": {
    "type": "Point",
    "coordinates": [
     137.94526329,
     -35.72600225
    ]
   },
   "properties": {
    "name": "16 WRIGHT ROAD PENNESHAW 5222",
    "locID": "LOC000185534889",
    "tech": "WIRELESS",
    "upgrade": "NULL_NA",
    "gnaf_pid": "GASA_719194898"
   }
  },
  {
   "type": "Feature",
   "geometry": {
    "type": "Point",
    "coordinates": [
     137.93376929,
     -35.71957105
    ]
   },
   "properties": {
    "name": "32 HOWARD DRIVE PENNESHAW 5222",
    "locID": "LOC000176306251",
    "tech": "WIRELESS",
    "upgrade": "NULL_NA",
    "gnaf_pid": "GASA_719194904"
   }
  },
  {
   "type": "Feature",
   "geometry": {
    "type": "Point",
    "coordinates": [
     137.93883326,
     -35.71912125
    ]
   },
   "properties": {
    "name": "10 MIDDLE TERRACE PENNESHAW 5222",
    "locID": "ChIJSySG-eg3smoRnKPwzSbzuMU",
    "tech": "WIRELESS",
    "upgrade": "UNKNOWN",
    "gnaf_pid": "GASA_719194927"
   }
  },
  {
   "type": "Feature",
   "geometry": {
    "type": "Point",
    "coordinates": [
     137.9477048,
     -35.72286976
    ]
   },
   "properties": {
    "name": "19 SOUTH TERRACE PENNESHAW 5222",
    "locID": "LOC000130607712",
    "tech": "WIRELESS",
    "upgrade": "NULL_NA",
    "gnaf_pid": "GASA_719194928"
   }
  },
  {
   "type": "Feature",
   "geometry": {
    "type": "Point",
    "coordinates": [
     137.94669584,
     -35.72331246
    ]
   },
   "properties": {
    "name": "10 SOUTH TERRACE PENNESHAW 5222",
    "locID": "LOC000186379278",
    "tech": "WIRELESS",
    "upgrade": "NULL_NA",
    "gnaf_pid": "GASA_719194929"
   }
  },
  {
   "type": "Feature",
   "geometry": {
    "type": "Point",
    "coordinates": [
     137.95037751,
     -35.72304342
    ]
   },
   "properties": {
    "name": "9 TRETHEWEY TERRACE PENNESHAW 5222",
    "locID": "ChIJybF0mMU3smoRFookvZqi7L8",
    "tech": "WIRELESS",
    "upgrade": "UNKNOWN",
    "gnaf_pid": "GASA_719194930"
   }
  },
  {
   "type": "Feature",
   "geometry": {
    "type": "Point",
    "coordinates": [
     137.95316302,
     -35.72263391
    ]
   },
   "properties": {
    "name": "213 BINNEYS TRACK PENNESHAW 5222",
    "locID": "ChIJlYcQM883smoRd32emPA2J7s",
    "tech": "WIRELESS",
    "upgrade": "UNKNOWN",
    "gnaf_pid": "GASA_719194965"
   }
  },
  {
   "type": "Feature",
   "geometry": {
    "type": "Point",
    "coordinates": [
     137.9469501,
     -35.72716424
    ]
   },
   "properties": {
    "name": "8 CURRAWONG AVENUE PENNESHAW 5222",
    "locID": "ChIJ3auThds3smoR6Wq3p4eU9rQ",
    "tech": "WIRELESS",
    "upgrade": "UNKNOWN",
    "gnaf_pid": "GASA_719194966"
   }
  },
  {
   "type": "Feature",
   "geometry": {
    "type": "Point",
    "coordinates": [
     137.95218275,
     -35.72890256
    ]
   },
   "properties": {
    "name": "9 FERNANDE COURT PENNESHAW 5222",
    "locID": "ChIJr0gZiNA3smoRjUFKu19T2y0",
    "tech": "WIRELESS",
    "upgrade": "UNKNOWN",
    "gnaf_pid": "GASA_719194973"
   }
  },
  {
   "type": "Feature",
   "geometry": {
    "type": "Point",
    "coordinates": [
     137.93348645,
     -35.71950401
    ]
   },
   "properties": {
    "name": "36 HOWARD DRIVE PENNESHAW 5222",
    "locID": "LOC000180431001",
    "tech": "WIRELESS",
    "upgrade": "NULL_NA",
    "gnaf_pid": "GASA_719194976"
   }
  },
  {
   "type": "Feature",
   "geometry": {
    "type": "Point",
    "coordinates": [
     137.93947085,
     -35.71746435
    ]
   },
   "properties": {
    "name": "24 NORTH TERRACE PENNESHAW 5222",
    "locID": "LOC100078132482",
    "tech": "WIRELESS",
    "upgrade": "NULL_NA",
    "gnaf_pid": "GASA_719194980"
   }
  },
  {
   "type": "Feature",
   "geometry": {
    "type": "Point",
    "coordinates": [
     137.9296203,
     -35.72148377
    ]
   },
   "properties": {
    "name": "67 HOWARD DRIVE PENNESHAW 5222",
    "locID": "ChIJ1Ur1ffs3smoR9iO8UUNTzVY",
    "tech": "WIRELESS",
    "upgrade": "UNKNOWN",
    "gnaf_pid": "GASA_719194990"
   }
  },
  {
   "type": "Feature",
   "geometry": {
    "type": "Point",
    "coordinates": [
     137.952963,
     -35.72261935
    ]
   },
   "properties": {
    "name": "215 BINNEYS TRACK PENNESHAW 5222",
    "locID": "ChIJvwBdNM83smoRkKfGEVQTKVQ",
    "tech": "WIRELESS",
    "upgrade": "UNKNOWN",
    "gnaf_pid": "GASA_719195008"
   }
  },
  {
   "type": "Feature",
   "geometry": {
    "type": "Point",
    "coordinates": [
     137.9529131,
     -35.72423703
    ]
   },
   "properties": {
    "name": "193 BINNEYS TRACK PENNESHAW 5222",
    "locID": "ChIJdSupDc83smoR7PZojlv9LrU",
    "tech": "WIRELESS",
    "upgrade": "UNKNOWN",
    "gnaf_pid": "GASA_719195016"
   }
  },
  {
   "type": "Feature",
   "geometry": {
    "type": "Point",
    "coordinates": [
     137.9528882,
     -35.72801079
    ]
   },
   "properties": {
    "name": "2 FERNANDE COURT PENNESHAW 5222",
    "locID": "ChIJUbudP9A3smoR5SyuZ-LCj8o",
    "tech": "WIRELESS",
    "upgrade": "UNKNOWN",
    "gnaf_pid": "GASA_719195017"
   }
  },
  {
   "type": "Feature",
   "geometry": {
    "type": "Point",
    "coordinates": [
     137.94697439,
     -35.72334754
    ]
   },
   "properties": {
    "name": "12 SOUTH TERRACE PENNESHAW 5222",
    "locID": "LOC100078132675",
    "tech": "WIRELESS",
    "upgrade": "NULL_NA",
    "gnaf_pid": "GASA_719195023"
   }
  },
  {
   "type": "Feature",
   "geometry": {
    "type": "Point",
    "coordinates": [
     137.95252325,
     -35.72538547
    ]
   },
   "properties": {
    "name": "7 DOLPHIN WAY PENNESHAW 5222",
    "locID": "ChIJk-sjlM83smoRHzbLH0bjFbk",
    "tech": "WIRELESS",
    "upgrade": "UNKNOWN",
    "gnaf_pid": "GASA_719195024"
   }
  },
  {
   "type": "Feature",
   "geometry": {
    "type": "Point",
    "coordinates": [
     137.9474181,
     -35.72374353
    ]
   },
   "properties": {
    "name": "17 WARRAWEE TERRACE PENNESHAW 5222",
    "locID": "ChIJ03IKvMQ3smoRsEGqYqN22ig",
    "tech": "WIRELESS",
    "upgrade": "UNKNOWN",
    "gnaf_pid": "GASA_719195036"
   }
  },
  {
   "type": "Feature",
   "geometry": {
    "type": "Point",
    "coordinates": [
     137.9476949,
     -35.72362345
    ]
   },
   "properties": {
    "name": "16 RAPIDE DRIVE PENNESHAW 5222",
    "locID": "ChIJr2TDv8Q3smoRRZYOepSWn8E",
    "tech": "WIRELESS",
    "upgrade": "UNKNOWN",
    "gnaf_pid": "GASA_719195037"
   }
  },
  {
   "type": "Feature",
   "geometry": {
    "type": "Point",
    "coordinates": [
     137.9487604,
     -35.72237554
    ]
   },
   "properties": {
    "name": "80 FRENCHMANS TERRACE PENNESHAW 5222",
    "locID": "ChIJL5EPUsQ3smoR13Ofdks6yIo",
    "tech": "WIRELESS",
    "upgrade": "UNKNOWN",
    "gnaf_pid": "GASA_719195047"
   }
  },
  {
   "type": "Feature",
   "geometry": {
    "type": "Point",
    "coordinates": [
     137.94722464,
     -35.72337909
    ]
   },
   "properties": {
    "name": "14 SOUTH TERRACE PENNESHAW 5222",
    "locID": "LOC000130607662",
    "tech": "WIRELESS",
    "upgrade": "NULL_NA",
    "gnaf_pid": "GASA_719195052"
   }
  },
  {
   "type": "Feature",
   "geometry": {
    "type": "Point",
    "coordinates": [
     137.93405736,
     -35.72291574
    ]
   },
   "properties": {
    "name": "25 FREYCINET WAY PENNESHAW 5222",
    "locID": "ChIJseawh-Q3smoRQIwRVy0K0Og",
    "tech": "WIRELESS",
    "upgrade": "UNKNOWN",
    "gnaf_pid": "GASA_719195055"
   }
  },
  {
   "type": "Feature",
   "geometry": {
    "type": "Point",
    "coordinates": [
     137.95249523,
     -35.72290705
    ]
   },
   "properties": {
    "name": "8 VERNON COURT PENNESHAW 5222",
    "locID": "ChIJx21pRs83smoRfXp4TiiDgY0",
    "tech": "WIRELESS",
    "upgrade": "UNKNOWN",
    "gnaf_pid": "GASA_719195061"
   }
  },
  {
   "type": "Feature",
   "geometry": {
    "type": "Point",
    "coordinates": [
     137.94467372,
     -35.72239566
    ]
   },
   "properties": {
    "name": "32 FLINDERS TERRACE PENNESHAW 5222",
    "locID": "LOC000130607529",
    "tech": "WIRELESS",
    "upgrade": "NULL_NA",
    "gnaf_pid": "GASA_719195071"
   }
  },
  {
   "type": "Feature",
   "geometry": {
    "type": "Point",
    "coordinates": [
     137.94677117,
     -35.72415508
    ]
   },
   "properties": {
    "name": "4 WARRAWEE TERRACE PENNESHAW 5222",
    "locID": "ChIJ_96jq8Q3smoRCSiJUIB2neM",
    "tech": "WIRELESS",
    "upgrade": "UNKNOWN",
    "gnaf_pid": "GASA_719195075"
   }
  },
  {
   "type": "Feature",
   "geometry": {
    "type": "Point",
    "coordinates": [
     137.93067724,
     -35.71978767
    ]
   },
   "properties": {
    "name": "58 HOWARD DRIVE PENNESHAW 5222",
    "locID": "LOC100078132606",
    "tech": "WIRELESS",
    "upgrade": "NULL_NA",
    "gnaf_pid": "GASA_719195078"
   }
  },
  {
   "type": "Feature",
   "geometry": {
    "type": "Point",
    "coordinates": [
     137.93227659,
     -35.71955045
    ]
   },
   "properties": {
    "name": "46 HOWARD DRIVE PENNESHAW 5222",
    "locID": "ChIJ8SveOeU3smoRn0hnpi-IjfI",
    "tech": "WIRELESS",
    "upgrade": "UNKNOWN",
    "gnaf_pid": "GASA_719195084"
   }
  },
  {
   "type": "Feature",
   "geometry": {
    "type": "Point",
    "coordinates": [
     137.94167483,
     -35.72205237
    ]
   },