{
 "type": "FeatureCollection",
 "generated": "2023-10-22T09:05:02.102215",
 "suburb": "PUTTAPA",
 "features": [
  {
   "type": "Feature",
   "geometry": {
    "type": "Point",
    "coordinates": [
     138.40956161,
     -30.77020853
    ]
   },
   "properties": {
    "name": "LOT 491 OLD BELTANA ROAD PUTTAPA 5730",
    "locID": "EipPbGQgQmVsdGFuYSBSZCwgQmVsdGFuYSBTQSA1NzMwLCBBdXN0cmFsaWEiLiosChQKEgmr3gS_izWRahEenPhIkwZxwhIUChIJXSVHvC_almoR4O2OYlQ2AwQ",
    "tech": "SATELLITE",
    "upgrade": "UNKNOWN",
    "gnaf_pid": "GASA_425446997"
   }
  },
  {
   "type": "Feature",
   "geometry": {
    "type": "Point",
    "coordinates": [
     138.40032974,
     -30.64684966
    ]
   },
   "properties": {
    "name": "LOT 1 THE OUTBACK HIGHWAY PUTTAPA 5730",
    "locID": "EitUaGUgT3V0YmFjayBId3ksIFB1dHRhcGEgU0EgNTczMCwgQXVzdHJhbGlhIi4qLAoUChIJXam3Gm0ykWoRQ8FEhm1pTwgSFAoSCQc6ZBZRRpFqETJB1FX5QFph",
    "tech": "SATELLITE",
    "upgrade": "UNKNOWN",
    "gnaf_pid": "GASA_425715141"
   }
  },
  {
   "type": "Feature",
   "geometry": {
    "type": "Point",
    "coordinates": [
     138.35926726,
     -30.63109045
    ]
   },
   "properties": {
    "name": "LOT 1561 THE OUTBACK HIGHWAY PUTTAPA 5730",
    "locID": "EihCYXJuZGlvb3RhIFJkLCBIYXdrZXIgU0EgNTQzNCwgQXVzdHJhbGlhIi4qLAoUChIJh9kGAGsWlmoRRy9HE8PrlCgSFAoSCX2dWbggE5ZqEcDYjmJUNgME",
    "tech": "SATELLITE",
    "upgrade": "UNKNOWN",
    "gnaf_pid": "GASA_425725240"
   }
  },
  {
   "type": "Feature",
   "geometry": {
    "type": "Point",
    "coordinates": [
     138.38529522,
     -30.69445294
    ]
   },
   "properties": {
    "name": "LOT 6 THE OUTBACK HIGHWAY PUTTAPA 5730",
    "locID": "EitUaGUgT3V0YmFjayBId3ksIFB1dHRhcGEgU0EgNTczMCwgQXVzdHJhbGlhIi4qLAoUChIJXam3Gm0ykWoRQ8FEhm1pTwgSFAoSCQc6ZBZRRpFqETJB1FX5QFph",
    "tech": "SATELLITE",
    "upgrade": "UNKNOWN",
    "gnaf_pid": "GASA_425725241"
   }
  },
  {
   "type": "Feature",
   "geometry": {
    "type": "Point",
    "coordinates": [
     138.48516952,
     -30.80265014
    ]
   },
   "properties": {
    "name": "705 PUTTAPA ROAD PUTTAPA 5730",
    "locID": "ChIJ4dHt3ilPkWoRXp4BTA7-sls",
    "tech": "SATELLITE",
    "upgrade": "UNKNOWN",
    "gnaf_pid": "GASA_425847920"
   }
  },
  {
   "type": "Feature",
   "geometry": {
    "type": "Point",
    "coordinates": [
     138.43521265,
     -30.67590738
    ]
   },
   "properties": {
    "name": "LOT 693 PUTTAPA ROAD PUTTAPA 5730",
    "locID": "Eio2OTMgUHV0dGFwYSBSZCwgUHV0dGFwYSBTQSA1NzMwLCBBdXN0cmFsaWEiMRIvChQKEgmDA4aMKU-RahFhf5Tjn7G4ExC1BSoUChIJdRsY_BJJkWoRHRP0AfUFnXw",
    "tech": "SATELLITE",
    "upgrade": "UNKNOWN",
    "gnaf_pid": "GASA_719772705"
   }
  },
  {
   "type": "Feature",
   "geometry": {
    "type": "Point",
    "coordinates": [
     138.434207,
     -30.667014
    ]
   },
   "properties": {
    "name": "321 ZINC MINE ROAD PUTTAPA 5730",
    "locID": "ChIJx1D3htRAkWoRQqK2FVZkBT8",
    "tech": "SATELLITE",
    "upgrade": "UNKNOWN",
    "gnaf_pid": "GASA_719964037"
   }
  }
 ]
}