{
 "type": "FeatureCollection",
 "generated": "2024-08-11T02:28:45.907154",
 "suburb": "RIVERGLEN",
 "features": [
  {
   "type": "Feature",
   "geometry": {
    "type": "Point",
    "coordinates": [
     139.30049425,
     -35.17183009
    ]
   },
   "properties": {
    "name": "LOT 203 JERVOIS ROAD RIVERGLEN 5253",
    "locID": "LOC000114219853",
    "tech": "WIRELESS",
    "upgrade": "NULL_NA",
    "gnaf_pid": "GASA_424181921",
    "tech_change_status": "Not Planned",
    "program_type": "Fixed Wireless and Satellite Upgrade Program",
    "target_eligibility_quarter": "Dec 2024"
   }
  },
  {
   "type": "Feature",
   "geometry": {
    "type": "Point",
    "coordinates": [
     139.297652,
     -35.1644
    ]
   },
   "properties": {
    "name": "30 THE GLEN ROAD RIVERGLEN 5253",
    "locID": "LOC000114520962",
    "tech": "WIRELESS",
    "upgrade": "NULL_NA",
    "gnaf_pid": "GASA_424709457",
    "tech_change_status": "Not Planned",
    "program_type": "Fixed Wireless and Satellite Upgrade Program",
    "target_eligibility_quarter": "Dec 2024"
   }
  },
  {
   "type": "Feature",
   "geometry": {
    "type": "Point",
    "coordinates": [
     139.29616,
     -35.167775
    ]
   },
   "properties": {
    "name": "587A JERVOIS ROAD RIVERGLEN 5253",
    "locID": "LOC000116263175",
    "tech": "WIRELESS",
    "upgrade": "NULL_NA",
    "gnaf_pid": "GASA_424822308",
    "tech_change_status": "Not Planned",
    "program_type": "Fixed Wireless and Satellite Upgrade Program",
    "target_eligibility_quarter": "Dec 2024"
   }
  },
  {
   "type": "Feature",
   "geometry": {
    "type": "Point",
    "coordinates": [
     139.29688534,
     -35.16969733
    ]
   },
   "properties": {
    "name": "609 JERVOIS ROAD RIVERGLEN 5253",
    "locID": "LOC000116263264",
    "tech": "WIRELESS",
    "upgrade": "NULL_NA",
    "gnaf_pid": "GASA_424822310",
    "tech_change_status": "Not Planned",
    "program_type": "Fixed Wireless and Satellite Upgrade Program",
    "target_eligibility_quarter": "Dec 2024"
   }
  },
  {
   "type": "Feature",
   "geometry": {
    "type": "Point",
    "coordinates": [
     139.29672006,
     -35.17277327
    ]
   },
   "properties": {
    "name": "643 JERVOIS ROAD RIVERGLEN 5253",
    "locID": "LOC000116243415",
    "tech": "WIRELESS",
    "upgrade": "NULL_NA",
    "gnaf_pid": "GASA_424822311",
    "tech_change_status": "Not Planned",
    "program_type": "Fixed Wireless and Satellite Upgrade Program",
    "target_eligibility_quarter": "Dec 2024"
   }
  },
  {
   "type": "Feature",
   "geometry": {
    "type": "Point",
    "coordinates": [
     139.29669,
     -35.17581
    ]
   },
   "properties": {
    "name": "675A JERVOIS ROAD RIVERGLEN 5253",
    "locID": "LOC000116243436",
    "tech": "WIRELESS",
    "upgrade": "NULL_NA",
    "gnaf_pid": "GASA_424822312",
    "tech_change_status": "Not Planned",
    "program_type": "Fixed Wireless and Satellite Upgrade Program",
    "target_eligibility_quarter": "Dec 2024"
   }
  },
  {
   "type": "Feature",
   "geometry": {
    "type": "Point",
    "coordinates": [
     139.30284,
     -35.182942
    ]
   },
   "properties": {
    "name": "797 JERVOIS ROAD RIVERGLEN 5253",
    "locID": "LOC000116247555",
    "tech": "WIRELESS",
    "upgrade": "NULL_NA",
    "gnaf_pid": "GASA_424822314",
    "tech_change_status": "Not Planned",
    "program_type": "Fixed Wireless and Satellite Upgrade Program",
    "target_eligibility_quarter": "Dec 2024"
   }
  },
  {
   "type": "Feature",
   "geometry": {
    "type": "Point",
    "coordinates": [
     139.296208,
     -35.167857
    ]
   },
   "properties": {
    "name": "587 JERVOIS ROAD RIVERGLEN 5253",
    "locID": "LOC000116263175",
    "tech": "WIRELESS",
    "upgrade": "NULL_NA",
    "gnaf_pid": "GASA_424957365",
    "tech_change_status": "Not Planned",
    "program_type": "Fixed Wireless and Satellite Upgrade Program",
    "target_eligibility_quarter": "Dec 2024"
   }
  },
  {
   "type": "Feature",
   "geometry": {
    "type": "Point",
    "coordinates": [
     139.30822418,
     -35.16527725
    ]
   },
   "properties": {
    "name": "LOT 1185 CARTER ROAD RIVERGLEN 5253",
    "locID": "LOC000113258629",
    "tech": "WIRELESS",
    "upgrade": "NULL_NA",
    "gnaf_pid": "GASA_425296772",
    "tech_change_status": "Not Planned",
    "program_type": "Fixed Wireless and Satellite Upgrade Program",
    "target_eligibility_quarter": "Dec 2024"
   }
  },
  {
   "type": "Feature",
   "geometry": {
    "type": "Point",
    "coordinates": [
     139.296701,
     -35.17581
    ]
   },
   "properties": {
    "name": "675B JERVOIS ROAD RIVERGLEN 5253",
    "locID": "LOC000145693184",
    "tech": "WIRELESS",
    "upgrade": "NULL_NA",
    "gnaf_pid": "GASA_425354888",
    "tech_change_status": "Not Planned",
    "program_type": "Fixed Wireless and Satellite Upgrade Program",
    "target_eligibility_quarter": "Dec 2024"
   }
  }
 ]
}