{
 "type": "FeatureCollection",
 "generated": "2023-10-22T09:46:04.250832",
 "suburb": "RIVERGLEN",
 "features": [
  {
   "type": "Feature",
   "geometry": {
    "type": "Point",
    "coordinates": [
     139.30049425,
     -35.17183009
    ]
   },
   "properties": {
    "name": "LOT 203 JERVOIS ROAD RIVERGLEN 5253",
    "locID": "LOC000114219853",
    "tech": "WIRELESS",
    "upgrade": "NULL_NA",
    "gnaf_pid": "GASA_424181921"
   }
  },
  {
   "type": "Feature",
   "geometry": {
    "type": "Point",
    "coordinates": [
     139.297652,
     -35.1644
    ]
   },
   "properties": {
    "name": "30 THE GLEN ROAD RIVERGLEN 5253",
    "locID": "LOC000114520962",
    "tech": "WIRELESS",
    "upgrade": "NULL_NA",
    "gnaf_pid": "GASA_424709457"
   }
  },
  {
   "type": "Feature",
   "geometry": {
    "type": "Point",
    "coordinates": [
     139.29616,
     -35.167775
    ]
   },
   "properties": {
    "name": "587A JERVOIS ROAD RIVERGLEN 5253",
    "locID": "LOC000116263175",
    "tech": "WIRELESS",
    "upgrade": "NULL_NA",
    "gnaf_pid": "GASA_424822308"
   }
  },
  {
   "type": "Feature",
   "geometry": {
    "type": "Point",
    "coordinates": [
     139.296208,
     -35.167857
    ]
   },
   "properties": {
    "name": "587B JERVOIS ROAD RIVERGLEN 5253",
    "locID": "ChIJe4lWA50Lt2oRz7CP_zSVJm0",
    "tech": "WIRELESS",
    "upgrade": "UNKNOWN",
    "gnaf_pid": "GASA_424822309"
   }
  },
  {
   "type": "Feature",
   "geometry": {
    "type": "Point",
    "coordinates": [
     139.29688534,
     -35.16969733
    ]
   },
   "properties": {
    "name": "609 JERVOIS ROAD RIVERGLEN 5253",
    "locID": "LOC000116263264",
    "tech": "WIRELESS",
    "upgrade": "NULL_NA",
    "gnaf_pid": "GASA_424822310"
   }
  },
  {
   "type": "Feature",
   "geometry": {
    "type": "Point",
    "coordinates": [
     139.29672006,
     -35.17277327
    ]
   },
   "properties": {
    "name": "643 JERVOIS ROAD RIVERGLEN 5253",
    "locID": "LOC000116243415",
    "tech": "WIRELESS",
    "upgrade": "NULL_NA",
    "gnaf_pid": "GASA_424822311"
   }
  },
  {
   "type": "Feature",
   "geometry": {
    "type": "Point",
    "coordinates": [
     139.29669,
     -35.17581
    ]
   },
   "properties": {
    "name": "675A JERVOIS ROAD RIVERGLEN 5253",
    "locID": "LOC000116243436",
    "tech": "WIRELESS",
    "upgrade": "NULL_NA",
    "gnaf_pid": "GASA_424822312"
   }
  },
  {
   "type": "Feature",
   "geometry": {
    "type": "Point",
    "coordinates": [
     139.30284,
     -35.182942
    ]
   },
   "properties": {
    "name": "797 JERVOIS ROAD RIVERGLEN 5253",
    "locID": "LOC000116247555",
    "tech": "WIRELESS",
    "upgrade": "NULL_NA",
    "gnaf_pid": "GASA_424822314"
   }
  },
  {
   "type": "Feature",
   "geometry": {
    "type": "Point",
    "coordinates": [
     139.296208,
     -35.167857
    ]
   },
   "properties": {
    "name": "587 JERVOIS ROAD RIVERGLEN 5253",
    "locID": "LOC000116263175",
    "tech": "WIRELESS",
    "upgrade": "NULL_NA",
    "gnaf_pid": "GASA_424957365"
   }
  },
  {
   "type": "Feature",
   "geometry": {
    "type": "Point",
    "coordinates": [
     139.296701,
     -35.17581
    ]
   },
   "properties": {
    "name": "678 JERVOIS ROAD RIVERGLEN 5253",
    "locID": "ChIJEV7NYpALt2oRYsJYnpphXTg",
    "tech": "WIRELESS",
    "upgrade": "UNKNOWN",
    "gnaf_pid": "GASA_424957367"
   }
  },
  {
   "type": "Feature",
   "geometry": {
    "type": "Point",
    "coordinates": [
     139.30822418,
     -35.16527725
    ]
   },
   "properties": {
    "name": "LOT 1185 CARTER ROAD RIVERGLEN 5253",
    "locID": "LOC000113258629",
    "tech": "WIRELESS",
    "upgrade": "NULL_NA",
    "gnaf_pid": "GASA_425296772"
   }
  },
  {
   "type": "Feature",
   "geometry": {
    "type": "Point",
    "coordinates": [
     139.31468341,
     -35.16386648
    ]
   },
   "properties": {
    "name": "LOT 115 THE GLEN ROAD RIVERGLEN 5253",
    "locID": "EiwxMTUgVGhlIEdsZW4gUmQsIFN3YW5wb3J0IFNBIDUyNTMsIEF1c3RyYWxpYSIwEi4KFAoSCREJoe1yC7dqESGFPUlUNgMTEHMqFAoSCb34-vpyC7dqERckUpEGo5tL",
    "tech": "WIRELESS",
    "upgrade": "UNKNOWN",
    "gnaf_pid": "GASA_425300758"
   }
  },
  {
   "type": "Feature",
   "geometry": {
    "type": "Point",
    "coordinates": [
     139.296701,
     -35.17581
    ]
   },
   "properties": {
    "name": "675B JERVOIS ROAD RIVERGLEN 5253",
    "locID": "LOC000145693184",
    "tech": "WIRELESS",
    "upgrade": "NULL_NA",
    "gnaf_pid": "GASA_425354888"
   }
  },
  {
   "type": "Feature",
   "geometry": {
    "type": "Point",
    "coordinates": [
     139.31108897,
     -35.1679758
    ]
   },
   "properties": {
    "name": "LOT 206 THE GLEN ROAD RIVERGLEN 5253",
    "locID": "EjNUaGUgR2xlbiBSZCwgTXVycmF5IEJyaWRnZSBTb3V0aCBTQSA1MjUzLCBBdXN0cmFsaWEiLiosChQKEgm9-Pr6cgu3ahEXJFKRBqObSxIUChIJ9VKlAJwMt2oRsAuPYlQ2AwQ",
    "tech": "WIRELESS",
    "upgrade": "UNKNOWN",
    "gnaf_pid": "GASA_720587945"
   }
  }
 ]
}