{
 "type": "FeatureCollection",
 "generated": "2024-09-21T12:15:44.386719",
 "suburb": "ROCKY PLAIN",
 "features": [
  {
   "type": "Feature",
   "geometry": {
    "type": "Point",
    "coordinates": [
     139.1389719,
     -33.99339735
    ]
   },
   "properties": {
    "name": "LOT 102 PLAINS ROAD ROCKY PLAIN 5381",
    "locID": "LOC000148404923",
    "tech": "NULL",
    "upgrade": "NULL_NA",
    "gnaf_pid": "GASA_424201055",
    "tech_change_status": "Not Planned"
   }
  },
  {
   "type": "Feature",
   "geometry": {
    "type": "Point",
    "coordinates": [
     139.13562593,
     -34.01614833
    ]
   },
   "properties": {
    "name": "LOT 110 PLAINS ROAD ROCKY PLAIN 5381",
    "locID": "LOC000148404923",
    "tech": "NULL",
    "upgrade": "NULL_NA",
    "gnaf_pid": "GASA_424325603",
    "tech_change_status": "Not Planned"
   }
  },
  {
   "type": "Feature",
   "geometry": {
    "type": "Point",
    "coordinates": [
     139.13686496,
     -34.02301909
    ]
   },
   "properties": {
    "name": "LOT 341 PLAINS ROAD ROCKY PLAIN 5381",
    "locID": "LOC000148404923",
    "tech": "NULL",
    "upgrade": "NULL_NA",
    "gnaf_pid": "GASA_424325606",
    "tech_change_status": "Not Planned"
   }
  },
  {
   "type": "Feature",
   "geometry": {
    "type": "Point",
    "coordinates": [
     139.15076444,
     -33.99349864
    ]
   },
   "properties": {
    "name": "LOT 350 PLAINS ROAD ROCKY PLAIN 5381",
    "locID": "LOC000148404923",
    "tech": "NULL",
    "upgrade": "NULL_NA",
    "gnaf_pid": "GASA_424325607",
    "tech_change_status": "Not Planned"
   }
  },
  {
   "type": "Feature",
   "geometry": {
    "type": "Point",
    "coordinates": [
     139.17277019,
     -34.03908893
    ]
   },
   "properties": {
    "name": "125 BACK ROAD ROCKY PLAIN 5381",
    "locID": "LOC000148402558",
    "tech": "SATELLITE",
    "upgrade": "NULL_NA",
    "gnaf_pid": "GASA_425302180",
    "tech_change_status": "Not Planned"
   }
  },
  {
   "type": "Feature",
   "geometry": {
    "type": "Point",
    "coordinates": [
     139.17323599,
     -34.04932567
    ]
   },
   "properties": {
    "name": "12 BACK ROAD ROCKY PLAIN 5381",
    "locID": "LOC000148242804",
    "tech": "SATELLITE",
    "upgrade": "NULL_NA",
    "gnaf_pid": "GASA_425302181",
    "tech_change_status": "Not Planned"
   }
  },
  {
   "type": "Feature",
   "geometry": {
    "type": "Point",
    "coordinates": [
     139.13533733,
     -34.02609109
    ]
   },
   "properties": {
    "name": "576 BOWER ROAD ROCKY PLAIN 5381",
    "locID": "LOC000148402850",
    "tech": "NULL",
    "upgrade": "NULL_NA",
    "gnaf_pid": "GASA_425302510",
    "tech_change_status": "Not Planned"
   }
  },
  {
   "type": "Feature",
   "geometry": {
    "type": "Point",
    "coordinates": [
     139.14281177,
     -34.01550632
    ]
   },
   "properties": {
    "name": "1844 PLAINS ROAD ROCKY PLAIN 5381",
    "locID": "LOC000148404923",
    "tech": "NULL",
    "upgrade": "NULL_NA",
    "gnaf_pid": "GASA_425304824",
    "tech_change_status": "Not Planned"
   }
  },
  {
   "type": "Feature",
   "geometry": {
    "type": "Point",
    "coordinates": [
     139.14266126,
     -34.0117349
    ]
   },
   "properties": {
    "name": "1885 PLAINS ROAD ROCKY PLAIN 5381",
    "locID": "LOC000148404934",
    "tech": "SATELLITE",
    "upgrade": "NULL_NA",
    "gnaf_pid": "GASA_425304825",
    "tech_change_status": "Not Planned"
   }
  },
  {
   "type": "Feature",
   "geometry": {
    "type": "Point",
    "coordinates": [
     139.16153109,
     -34.00698332
    ]
   },
   "properties": {
    "name": "966 ROCKY PLAINS ROAD ROCKY PLAIN 5381",
    "locID": "LOC000148405296",
    "tech": "NULL",
    "upgrade": "NULL_NA",
    "gnaf_pid": "GASA_425305069",
    "tech_change_status": "Not Planned"
   }
  },
  {
   "type": "Feature",
   "geometry": {
    "type": "Point",
    "coordinates": [
     139.17971161,
     -34.0208474
    ]
   },
   "properties": {
    "name": "LOT 333 JUNCTION ROAD ROCKY PLAIN 5381",
    "locID": "LOC000148246020",
    "tech": "SATELLITE",
    "upgrade": "NULL_NA",
    "gnaf_pid": "GASA_719778020",
    "tech_change_status": "Not Planned"
   }
  }
 ]
}