{
 "type": "FeatureCollection",
 "generated": "2024-09-01T23:56:33.294179",
 "suburb": "SHAUGH",
 "features": [
  {
   "type": "Feature",
   "geometry": {
    "type": "Point",
    "coordinates": [
     140.84078923,
     -35.90850026
    ]
   },
   "properties": {
    "name": "LOT 15 RED BLUFF ROAD SHAUGH 5267",
    "locID": "LOC100073915300",
    "tech": "SATELLITE",
    "upgrade": "NULL_NA",
    "gnaf_pid": "GASA_424401752",
    "tech_change_status": "Not Planned"
   }
  },
  {
   "type": "Feature",
   "geometry": {
    "type": "Point",
    "coordinates": [
     140.91897923,
     -35.93791061
    ]
   },
   "properties": {
    "name": "LOT 3 RED BLUFF ROAD SHAUGH 5267",
    "locID": "LOC000153744281",
    "tech": "SATELLITE",
    "upgrade": "NULL_NA",
    "gnaf_pid": "GASA_424401754",
    "tech_change_status": "Not Planned"
   }
  },
  {
   "type": "Feature",
   "geometry": {
    "type": "Point",
    "coordinates": [
     140.81847164,
     -35.8669979
    ]
   },
   "properties": {
    "name": "357 EAST SHAUGH ROAD SHAUGH 5267",
    "locID": "LOC000116279508",
    "tech": "SATELLITE",
    "upgrade": "NULL_NA",
    "gnaf_pid": "GASA_424834604",
    "tech_change_status": "Not Planned"
   }
  },
  {
   "type": "Feature",
   "geometry": {
    "type": "Point",
    "coordinates": [
     140.78692842,
     -35.83772005
    ]
   },
   "properties": {
    "name": "6426 NGARKAT HIGHWAY SHAUGH 5267",
    "locID": "LOC000116265283",
    "tech": "SATELLITE",
    "upgrade": "NULL_NA",
    "gnaf_pid": "GASA_424836846",
    "tech_change_status": "Not Planned"
   }
  },
  {
   "type": "Feature",
   "geometry": {
    "type": "Point",
    "coordinates": [
     140.77248478,
     -35.913324
    ]
   },
   "properties": {
    "name": "7293 NGARKAT HIGHWAY SHAUGH 5267",
    "locID": "LOC000116265375",
    "tech": "SATELLITE",
    "upgrade": "NULL_NA",
    "gnaf_pid": "GASA_424836847",
    "tech_change_status": "Not Planned"
   }
  },
  {
   "type": "Feature",
   "geometry": {
    "type": "Point",
    "coordinates": [
     140.87511564,
     -36.02272361
    ]
   },
   "properties": {
    "name": "3128 RED BLUFF ROAD SHAUGH 5267",
    "locID": "LOC000153744281",
    "tech": "SATELLITE",
    "upgrade": "NULL_NA",
    "gnaf_pid": "GASA_424837789",
    "tech_change_status": "Not Planned"
   }
  },
  {
   "type": "Feature",
   "geometry": {
    "type": "Point",
    "coordinates": [
     140.87392236,
     -35.86914182
    ]
   },
   "properties": {
    "name": "4836 RED BLUFF ROAD SHAUGH 5267",
    "locID": "LOC000116280789",
    "tech": "SATELLITE",
    "upgrade": "NULL_NA",
    "gnaf_pid": "GASA_424837790",
    "tech_change_status": "Not Planned"
   }
  },
  {
   "type": "Feature",
   "geometry": {
    "type": "Point",
    "coordinates": [
     140.75019215,
     -35.95233777
    ]
   },
   "properties": {
    "name": "7843 NGARKAT HIGHWAY SHAUGH 5267",
    "locID": "LOC000130964374",
    "tech": "SATELLITE",
    "upgrade": "NULL_NA",
    "gnaf_pid": "GASA_424903391",
    "tech_change_status": "Not Planned"
   }
  },
  {
   "type": "Feature",
   "geometry": {
    "type": "Point",
    "coordinates": [
     140.75018505,
     -35.95238301
    ]
   },
   "properties": {
    "name": "7843B NGARKAT HIGHWAY SHAUGH 5267",
    "locID": "LOC000172467077",
    "tech": "SATELLITE",
    "upgrade": "NULL_NA",
    "gnaf_pid": "GASA_425066698",
    "tech_change_status": "Not Planned"
   }
  },
  {
   "type": "Feature",
   "geometry": {
    "type": "Point",
    "coordinates": [
     140.75017102,
     -35.95241692
    ]
   },
   "properties": {
    "name": "7843C NGARKAT HIGHWAY SHAUGH 5267",
    "locID": "LOC000130964414",
    "tech": "SATELLITE",
    "upgrade": "NULL_NA",
    "gnaf_pid": "GASA_425066699",
    "tech_change_status": "Not Planned"
   }
  },
  {
   "type": "Feature",
   "geometry": {
    "type": "Point",
    "coordinates": [
     140.78539392,
     -35.94975434
    ]
   },
   "properties": {
    "name": "7843D NGARKAT HIGHWAY SHAUGH 5267",
    "locID": "LOC000130964374",
    "tech": "SATELLITE",
    "upgrade": "NULL_NA",
    "gnaf_pid": "GASA_425066700",
    "tech_change_status": "Not Planned"
   }
  }
 ]
}