{
 "type": "FeatureCollection",
 "generated": "2023-10-22T12:14:41.921795",
 "suburb": "SHAUGH",
 "features": [
  {
   "type": "Feature",
   "geometry": {
    "type": "Point",
    "coordinates": [
     140.84078923,
     -35.90850026
    ]
   },
   "properties": {
    "name": "LOT 15 RED BLUFF ROAD SHAUGH 5267",
    "locID": "LOC100073915300",
    "tech": "SATELLITE",
    "upgrade": "NULL_NA",
    "gnaf_pid": "GASA_424401752"
   }
  },
  {
   "type": "Feature",
   "geometry": {
    "type": "Point",
    "coordinates": [
     140.91897923,
     -35.93791061
    ]
   },
   "properties": {
    "name": "LOT 3 RED BLUFF ROAD SHAUGH 5267",
    "locID": "LOC000153744281",
    "tech": "SATELLITE",
    "upgrade": "NULL_NA",
    "gnaf_pid": "GASA_424401754"
   }
  },
  {
   "type": "Feature",
   "geometry": {
    "type": "Point",
    "coordinates": [
     140.81847164,
     -35.8669979
    ]
   },
   "properties": {
    "name": "357 EAST SHAUGH ROAD SHAUGH 5267",
    "locID": "LOC000116279508",
    "tech": "SATELLITE",
    "upgrade": "NULL_NA",
    "gnaf_pid": "GASA_424834604"
   }
  },
  {
   "type": "Feature",
   "geometry": {
    "type": "Point",
    "coordinates": [
     140.81845767,
     -35.86715309
    ]
   },
   "properties": {
    "name": "358 EAST SHAUGH ROAD SHAUGH 5267",
    "locID": "ChIJp6qNkm7wyGoREWmy8PWb8iE",
    "tech": "SATELLITE",
    "upgrade": "UNKNOWN",
    "gnaf_pid": "GASA_424834605"
   }
  },
  {
   "type": "Feature",
   "geometry": {
    "type": "Point",
    "coordinates": [
     140.78692842,
     -35.83772005
    ]
   },
   "properties": {
    "name": "6426 NGARKAT HIGHWAY SHAUGH 5267",
    "locID": "LOC000116265283",
    "tech": "SATELLITE",
    "upgrade": "NULL_NA",
    "gnaf_pid": "GASA_424836846"
   }
  },
  {
   "type": "Feature",
   "geometry": {
    "type": "Point",
    "coordinates": [
     140.77248478,
     -35.913324
    ]
   },
   "properties": {
    "name": "7293 NGARKAT HIGHWAY SHAUGH 5267",
    "locID": "LOC000116265375",
    "tech": "SATELLITE",
    "upgrade": "NULL_NA",
    "gnaf_pid": "GASA_424836847"
   }
  },
  {
   "type": "Feature",
   "geometry": {
    "type": "Point",
    "coordinates": [
     140.87511564,
     -36.02272361
    ]
   },
   "properties": {
    "name": "3128 RED BLUFF ROAD SHAUGH 5267",
    "locID": "LOC000153744281",
    "tech": "SATELLITE",
    "upgrade": "NULL_NA",
    "gnaf_pid": "GASA_424837789"
   }
  },
  {
   "type": "Feature",
   "geometry": {
    "type": "Point",
    "coordinates": [
     140.87392236,
     -35.86914182
    ]
   },
   "properties": {
    "name": "4836 RED BLUFF ROAD SHAUGH 5267",
    "locID": "LOC000116280789",
    "tech": "SATELLITE",
    "upgrade": "NULL_NA",
    "gnaf_pid": "GASA_424837790"
   }
  },
  {
   "type": "Feature",
   "geometry": {
    "type": "Point",
    "coordinates": [
     140.75019215,
     -35.95233777
    ]
   },
   "properties": {
    "name": "7843 NGARKAT HIGHWAY SHAUGH 5267",
    "locID": "LOC000130964374",
    "tech": "SATELLITE",
    "upgrade": "NULL_NA",
    "gnaf_pid": "GASA_424903391"
   }
  },
  {
   "type": "Feature",
   "geometry": {
    "type": "Point",
    "coordinates": [
     140.75023379,
     -36.02995222
    ]
   },
   "properties": {
    "name": "8707 NGARKAT HIGHWAY SHAUGH 5267",
    "locID": "ChIJ9dRn7poByWoR2twj-aQ56Yw",
    "tech": "SATELLITE",
    "upgrade": "UNKNOWN",
    "gnaf_pid": "GASA_424903392"
   }
  },
  {
   "type": "Feature",
   "geometry": {
    "type": "Point",
    "coordinates": [
     140.7501886,
     -35.95236039
    ]
   },
   "properties": {
    "name": "7843A NGARKAT HIGHWAY SHAUGH 5267",
    "locID": "ChIJEazOWZD-yGoRkX_Jw7bWK3I",
    "tech": "SATELLITE",
    "upgrade": "UNKNOWN",
    "gnaf_pid": "GASA_425066697"
   }
  },
  {
   "type": "Feature",
   "geometry": {
    "type": "Point",
    "coordinates": [
     140.75018505,
     -35.95238301
    ]
   },
   "properties": {
    "name": "7843B NGARKAT HIGHWAY SHAUGH 5267",
    "locID": "LOC000172467077",
    "tech": "SATELLITE",
    "upgrade": "NULL_NA",
    "gnaf_pid": "GASA_425066698"
   }
  },
  {
   "type": "Feature",
   "geometry": {
    "type": "Point",
    "coordinates": [
     140.75017102,
     -35.95241692
    ]
   },
   "properties": {
    "name": "7843C NGARKAT HIGHWAY SHAUGH 5267",
    "locID": "LOC000130964414",
    "tech": "SATELLITE",
    "upgrade": "NULL_NA",
    "gnaf_pid": "GASA_425066699"
   }
  },
  {
   "type": "Feature",
   "geometry": {
    "type": "Point",
    "coordinates": [
     140.78539392,
     -35.94975434
    ]
   },
   "properties": {
    "name": "7843D NGARKAT HIGHWAY SHAUGH 5267",
    "locID": "LOC000130964374",
    "tech": "SATELLITE",
    "upgrade": "NULL_NA",
    "gnaf_pid": "GASA_425066700"
   }
  },
  {
   "type": "Feature",
   "geometry": {
    "type": "Point",
    "coordinates": [
     140.75016266,
     -35.97984976
    ]
   },
   "properties": {
    "name": "8151A NGARKAT HIGHWAY SHAUGH 5267",
    "locID": "ChIJJ1WgYdD9yGoRm6wbbPM-nzM",
    "tech": "SATELLITE",
    "upgrade": "UNKNOWN",
    "gnaf_pid": "GASA_425066701"
   }
  },
  {
   "type": "Feature",
   "geometry": {
    "type": "Point",
    "coordinates": [
     140.78406948,
     -35.98006984
    ]
   },
   "properties": {
    "name": "8151B NGARKAT HIGHWAY SHAUGH 5267",
    "locID": "ChIJuUf3p23-yGoRCdqQLx6XzY4",
    "tech": "SATELLITE",
    "upgrade": "UNKNOWN",
    "gnaf_pid": "GASA_425066702"
   }
  }
 ]
}