{
 "type": "FeatureCollection",
 "generated": "2023-10-22T13:18:21.271894",
 "suburb": "SUNNYVALE",
 "features": [
  {
   "type": "Feature",
   "geometry": {
    "type": "Point",
    "coordinates": [
     137.83947696,
     -34.15447707
    ]
   },
   "properties": {
    "name": "LOT 1 SUNNYVALE ROAD SUNNYVALE 5552",
    "locID": "LOC000131800337",
    "tech": "SATELLITE",
    "upgrade": "NULL_NA",
    "gnaf_pid": "GASA_424122891"
   }
  },
  {
   "type": "Feature",
   "geometry": {
    "type": "Point",
    "coordinates": [
     137.86045382,
     -34.16743411
    ]
   },
   "properties": {
    "name": "LOT 406W UPPER YORKE ROAD SUNNYVALE 5552",
    "locID": "ChIJGx9IGBycumoRos3YkQ-vpgg",
    "tech": "SATELLITE",
    "upgrade": "UNKNOWN",
    "gnaf_pid": "GASA_424829370"
   }
  },
  {
   "type": "Feature",
   "geometry": {
    "type": "Point",
    "coordinates": [
     137.85594138,
     -34.15741133
    ]
   },
   "properties": {
    "name": "LOT 407N UPPER YORKE ROAD SUNNYVALE 5552",
    "locID": "LOC000131464860",
    "tech": "SATELLITE",
    "upgrade": "NULL_NA",
    "gnaf_pid": "GASA_424829371"
   }
  },
  {
   "type": "Feature",
   "geometry": {
    "type": "Point",
    "coordinates": [
     137.85013443,
     -34.16974487
    ]
   },
   "properties": {
    "name": "LOT 407S UPPER YORKE ROAD SUNNYVALE 5552",
    "locID": "LOC000131464860",
    "tech": "SATELLITE",
    "upgrade": "NULL_NA",
    "gnaf_pid": "GASA_424829372"
   }
  },
  {
   "type": "Feature",
   "geometry": {
    "type": "Point",
    "coordinates": [
     137.86852005,
     -34.16380079
    ]
   },
   "properties": {
    "name": "LOT 5 UPPER YORKE ROAD SUNNYVALE 5552",
    "locID": "LOC000116345938",
    "tech": "SATELLITE",
    "upgrade": "NULL_NA",
    "gnaf_pid": "GASA_424829373"
   }
  },
  {
   "type": "Feature",
   "geometry": {
    "type": "Point",
    "coordinates": [
     137.85786184,
     -34.10648502
    ]
   },
   "properties": {
    "name": "1035 BUSSENSCHUTT ROAD SUNNYVALE 5552",
    "locID": "LOC100079388907",
    "tech": "WIRELESS",
    "upgrade": "NULL_NA",
    "gnaf_pid": "GASA_424833701"
   }
  },
  {
   "type": "Feature",
   "geometry": {
    "type": "Point",
    "coordinates": [
     137.82690921,
     -34.09780667
    ]
   },
   "properties": {
    "name": "734 BUSSENSCHUTT ROAD SUNNYVALE 5552",
    "locID": "LOC000116358837",
    "tech": "WIRELESS",
    "upgrade": "NULL_NA",
    "gnaf_pid": "GASA_424833702"
   }
  },
  {
   "type": "Feature",
   "geometry": {
    "type": "Point",
    "coordinates": [
     137.85417477,
     -34.16990048
    ]
   },
   "properties": {
    "name": "7685 UPPER YORKE ROAD SUNNYVALE 5552",
    "locID": "LOC000116345938",
    "tech": "SATELLITE",
    "upgrade": "NULL_NA",
    "gnaf_pid": "GASA_424839268"
   }
  },
  {
   "type": "Feature",
   "geometry": {
    "type": "Point",
    "coordinates": [
     137.8461251,
     -34.13981401
    ]
   },
   "properties": {
    "name": "96 ADAMS ROAD SUNNYVALE 5552",
    "locID": "EixBZGFtcyBSZCwgQ2FycGVudGVyIFJvY2tzIFNBIDUyOTEsIEF1c3RyYWxpYSIuKiwKFAoSCQ_Ov8KrzJ-qERAHhX0jKbPIEhQKEgmNMcqhKzWeqhEQ7I5iVDYDBA",
    "tech": "SATELLITE",
    "upgrade": "UNKNOWN",
    "gnaf_pid": "GASA_424899461"
   }
  },
  {
   "type": "Feature",
   "geometry": {
    "type": "Point",
    "coordinates": [
     137.78718571,
     -34.15827158
    ]
   },
   "properties": {
    "name": "218 COOTE ROAD SUNNYVALE 5552",
    "locID": "LOC000131787908",
    "tech": "WIRELESS",
    "upgrade": "NULL_NA",
    "gnaf_pid": "GASA_424900679"
   }
  },
  {
   "type": "Feature",
   "geometry": {
    "type": "Point",
    "coordinates": [
     137.84604086,
     -34.14998925
    ]
   },
   "properties": {
    "name": "297 ELIX ROAD SUNNYVALE 5552",
    "locID": "LOC000131804126",
    "tech": "SATELLITE",
    "upgrade": "NULL_NA",
    "gnaf_pid": "GASA_424900918"
   }
  },
  {
   "type": "Feature",
   "geometry": {
    "type": "Point",
    "coordinates": [
     137.846038,
     -34.193001
    ]
   },
   "properties": {
    "name": "178 JERICHO ROAD SUNNYVALE 5552",
    "locID": "LOC000131455976",
    "tech": "WIRELESS",
    "upgrade": "NULL_NA",
    "gnaf_pid": "GASA_424902374"
   }
  },
  {
   "type": "Feature",
   "geometry": {
    "type": "Point",
    "coordinates": [
     137.81806983,
     -34.15359233
    ]
   },
   "properties": {
    "name": "656 KALKABURY SCHOOL ROAD SUNNYVALE 5552",
    "locID": "LOC000131792400",
    "tech": "SATELLITE",
    "upgrade": "NULL_NA",
    "gnaf_pid": "GASA_424902525"
   }
  },
  {
   "type": "Feature",
   "geometry": {
    "type": "Point",
    "coordinates": [
     137.81827198,
     -34.15356969
    ]
   },
   "properties": {
    "name": "657 KALKABURY SCHOOL ROAD SUNNYVALE 5552",
    "locID": "LOC000131792416",
    "tech": "SATELLITE",
    "upgrade": "NULL_NA",
    "gnaf_pid": "GASA_424902526"
   }
  },
  {
   "type": "Feature",
   "geometry": {
    "type": "Point",
    "coordinates": [
     137.87249589,
     -34.18600785
    ]
   },
   "properties": {
    "name": "364 LOVERIDGE ROAD SUNNYVALE 5552",
    "locID": "LOC000131460193",
    "tech": "SATELLITE",
    "upgrade": "NULL_NA",
    "gnaf_pid": "GASA_424902818"
   }
  },
  {
   "type": "Feature",
   "geometry": {
    "type": "Point",
    "coordinates": [
     137.79484963,
     -34.19404637
    ]
   },
   "properties": {
    "name": "326 SAWLEY ROAD SUNNYVALE 5552",
    "locID": "LOC000131460186",
    "tech": "WIRELESS",
    "upgrade": "NULL_NA",
    "gnaf_pid": "GASA_424904359"
   }
  },
  {
   "type": "Feature",
   "geometry": {
    "type": "Point",
    "coordinates": [
     137.82846885,
     -34.19290387
    ]
   },
   "properties": {
    "name": "8034A UPPER YORKE ROAD SUNNYVALE 5552",
    "locID": "LOC000131464860",
    "tech": "SATELLITE",
    "upgrade": "NULL_NA",
    "gnaf_pid": "GASA_424905303"
   }
  },
  {
   "type": "Feature",
   "geometry": {
    "type": "Point",
    "coordinates": [
     137.82842922,
     -34.19294041
    ]
   },
   "properties": {
    "name": "8034B UPPER YORKE ROAD SUNNYVALE 5552",
    "locID": "LOC000131464873",
    "tech": "SATELLITE",
    "upgrade": "NULL_NA",
    "gnaf_pid": "GASA_424905304"
   }
  },
  {
   "type": "Feature",
   "geometry": {
    "type": "Point",
    "coordinates": [
     137.82353496,
     -34.17664814
    ]
   },
   "properties": {
    "name": "212 WAYLANDS ROAD SUNNYVALE 5552",
    "locID": "LOC000131785095",
    "tech": "SATELLITE",
    "upgrade": "NULL_NA",
    "gnaf_pid": "GASA_424905393"
   }
  },
  {
   "type": "Feature",
   "geometry": {
    "type": "Point",
    "coordinates": [
     137.80114503,
     -34.17665056
    ]
   },
   "properties": {
    "name": "420 WAYLANDS ROAD SUNNYVALE 5552",
    "locID": "LOC000131766916",
    "tech": "WIRELESS",
    "upgrade": "NULL_NA",
    "gnaf_pid": "GASA_424905394"
   }
  },
  {
   "type": "Feature",
   "geometry": {
    "type": "Point",
    "coordinates": [
     137.80017058,
     -34.17664461
    ]
   },
   "properties": {
    "name": "428 WAYLANDS ROAD SUNNYVALE 5552",
    "locID": "LOC000182782942",
    "tech": "WIRELESS",
    "upgrade": "NULL_NA",
    "gnaf_pid": "GASA_424905395"
   }
  },
  {
   "type": "Feature",
   "geometry": {
    "type": "Point",
    "coordinates": [
     137.84597162,
     -34.17674536
    ]
   },
   "properties": {
    "name": "5 WAYLANDS ROAD SUNNYVALE 5552",
    "locID": "LOC000131809068",
    "tech": "SATELLITE",
    "upgrade": "NULL_NA",
    "gnaf_pid": "GASA_424905396"
   }
  },
  {
   "type": "Feature",
   "geometry": {
    "type": "Point",
    "coordinates": [
     137.8374774,
     -34.17662095
    ]
   },
   "properties": {
    "name": "84 WAYLANDS ROAD SUNNYVALE 5552",
    "locID": "LOC000131809068",
    "tech": "SATELLITE",
    "upgrade": "NULL_NA",
    "gnaf_pid": "GASA_424905397"
   }
  },
  {
   "type": "Feature",
   "geometry": {
    "type": "Point",
    "coordinates": [
     137.81758197,
     -34.14750849
    ]
   },
   "properties": {
    "name": "1043 KALKABURY SCHOOL ROAD SUNNYVALE 5552",
    "locID": "ChIJX2B38TOZumoRD30rJaiINoU",
    "tech": "WIRELESS",
    "upgrade": "UNKNOWN",
    "gnaf_pid": "GASA_424924640"
   }
  },
  {
   "type": "Feature",
   "geometry": {
    "type": "Point",
    "coordinates": [
     137.86321789,
     -34.11151552
    ]
   },
   "properties": {
    "name": "1084 LAMSHED ROAD SUNNYVALE 5552",
    "locID": "ChIJT209RWuaumoR78xEINn47_s",
    "tech": "WIRELESS",
    "upgrade": "UNKNOWN",
    "gnaf_pid": "GASA_424924739"
   }
  },
  {
   "type": "Feature",
   "geometry": {
    "type": "Point",
    "coordinates": [
     137.78746681,
     -34.11521196
    ]
   },
   "properties": {
    "name": "385 LAMSHED ROAD SUNNYVALE 5552",
    "locID": "LOC000131758501",
    "tech": "SATELLITE",
    "upgrade": "NULL_NA",
    "gnaf_pid": "GASA_424924740"
   }
  },
  {
   "type": "Feature",
   "geometry": {
    "type": "Point",
    "coordinates": [
     137.82137542,
     -34.11364827
    ]
   },
   "properties": {
    "name": "696 LAMSHED ROAD SUNNYVALE 5552",
    "locID": "LOC000131796155",
    "tech": "WIRELESS",
    "upgrade": "NULL_NA",
    "gnaf_pid": "GASA_424924741"
   }
  },
  {
   "type": "Feature",
   "geometry": {
    "type": "Point",
    "coordinates": [
     137.79798134,
     -34.11478047
    ]
   },
   "properties": {
    "name": "480 LAMSHED ROAD SUNNYVALE 5552",
    "locID": "ChIJqwnWW_uYumoRGeRye0B9l-M",
    "tech": "SATELLITE",
    "upgrade": "UNKNOWN",
    "gnaf_pid": "GASA_424949509"
   }
  },
  {
   "type": "Feature",
   "geometry": {
    "type": "Point",
    "coordinates": [
     137.78931812,
     -34.09535232
    ]
   },
   "properties": {
    "name": "1732 PEDLER ROAD SUNNYVALE 5552",
    "locID": "ChIJV3uOcVuYumoRkxNADKAOP_E",
    "tech": "SATELLITE",
    "upgrade": "UNKNOWN",
    "gnaf_pid": "GASA_425067475"
   }
  },
  {
   "type": "Feature",
   "geometry": {
    "type": "Point",
    "coordinates": [
     137.81671108,
     -34.14387571
    ]
   },
   "properties": {
    "name": "527 SUNNYVALE ROAD SUNNYVALE 5552",
    "locID": "ChIJWRFa3zCZumoRARi1cpfnZgY",
    "tech": "WIRELESS",
    "upgrade": "UNKNOWN",
    "gnaf_pid": "GASA_425069581"
   }
  },
  {
   "type": "Feature",
   "geometry": {
    "type": "Point",
    "coordinates": [
     137.79735775,
     -34.14188427
    ]
   },
   "properties": {
    "name": "708 SUNNYVALE ROAD SUNNYVALE 5552",
    "locID": "LOC000131800337",
    "tech": "SATELLITE",
    "upgrade": "NULL_NA",
    "gnaf_pid": "GASA_425069582"
   }
  },
  {
   "type": "Feature",
   "geometry": {
    "type": "Point",
    "coordinates": [
     137.81287311,
     -34.14202814
    ]
   },
   "properties": {
    "name": "LOT 392 SUNNYVALE ROAD SUNNYVALE 5552",
    "locID": "Ei4zOTIgU3Vubnl2YWxlIFJkLCBTdW5ueXZhbGUgU0EgNTU1MiwgQXVzdHJhbGlhIjESLwoUChIJEV9DxTGZumoRgGw7SVQ2AxMQiAMqFAoSCR30SmIrmbpqEeL-QuY3vOUQ",
    "tech": "WIRELESS",
    "upgrade": "UNKNOWN",
    "gnaf_pid": "GASA_425069583"
   }
  },
  {
   "type": "Feature",
   "geometry": {
    "type": "Point",
    "coordinates": [
     137.83957127,
     -34.14232973
    ]
   },
   "properties": {
    "name": "LOT 430 SUNNYVALE ROAD SUNNYVALE 5552",
    "locID": "Ei40MzAgU3Vubnl2YWxlIFJkLCBTdW5ueXZhbGUgU0EgNTU1MiwgQXVzdHJhbGlhIjESLwoUChIJEV9DxTGZumoRgGw7SVQ2AxMQrgMqFAoSCR30SmIrmbpqEeL-QuY3vOUQ",
    "tech": "WIRELESS",
    "upgrade": "UNKNOWN",
    "gnaf_pid": "GASA_425069584"
   }
  },
  {
   "type": "Feature",
   "geometry": {
    "type": "Point",
    "coordinates": [
     137.86664669,
     -34.14677871
    ]
   },
   "properties": {
    "name": "LOT 432E SUNNYVALE ROAD SUNNYVALE 5552",
    "locID": "LOC000131800337",
    "tech": "SATELLITE",
    "upgrade": "NULL_NA",
    "gnaf_pid": "GASA_425069585"
   }
  },
  {
   "type": "Feature",
   "geometry": {
    "type": "Point",
    "coordinates": [
     137.8065011,
     -34.10949813
    ]
   },
   "properties": {
    "name": "LOT 448 LAMSHED ROAD SUNNYVALE 5552",
    "locID": "Eiw0NDggTGFtc2hlZCBSZCwgU3Vubnl2YWxlIFNBIDU1NTIsIEF1c3RyYWxpYSIxEi8KFAoSCcmRPqL9mLpqEeusHkO2ydL-EMADKhQKEglrCZ8bB5m6ahHDRCFtx-xa4w",
    "tech": "SATELLITE",
    "upgrade": "UNKNOWN",
    "gnaf_pid": "GASA_425442709"
   }
  },
  {
   "type": "Feature",
   "geometry": {
    "type": "Point",
    "coordinates": [
     137.82724534,
     -34.10894314
    ]
   },
   "properties": {
    "name": "LOT 449 LAMSHED ROAD SUNNYVALE 5552",
    "locID": "Eiw0NDkgTGFtc2hlZCBSZCwgU3Vubnl2YWxlIFNBIDU1NTIsIEF1c3RyYWxpYSIxEi8KFAoSCcmRPqL9mLpqEeusHkO2ydL-EMEDKhQKEglrCZ8bB5m6ahHDRCFtx-xa4w",
    "tech": "SATELLITE",
    "upgrade": "UNKNOWN",
    "gnaf_pid": "GASA_425442710"
   }
  },
  {
   "type": "Feature",
   "geometry": {
    "type": "Point",
    "coordinates": [
     137.82030445,
     -34.1002088
    ]
   },
   "properties": {
    "name": "LOT 1 BUSSENSCHUTT ROAD SUNNYVALE 5552",
    "locID": "LOC100079388907",
    "tech": "WIRELESS",
    "upgrade": "NULL_NA",
    "gnaf_pid": "GASA_425500581"
   }
  },
  {
   "type": "Feature",
   "geometry": {
    "type": "Point",
    "coordinates": [
     137.84898272,
     -34.09869723
    ]
   },
   "properties": {
    "name": "LOT 453 BUSSENSCHUTT ROAD SUNNYVALE 5552",
    "locID": "LOC100079388907",
    "tech": "WIRELESS",
    "upgrade": "NULL_NA",
    "gnaf_pid": "GASA_425500582"
   }
  },
  {
   "type": "Feature",
   "geometry": {
    "type": "Point",
    "coordinates": [
     137.83317088,
     -34.09652944
    ]
   },
   "properties": {
    "name": "LOT 455 BUSSENSCHUTT ROAD SUNNYVALE 5552",
    "locID": "LOC100079388907",
    "tech": "WIRELESS",
    "upgrade": "NULL_NA",
    "gnaf_pid": "GASA_425500583"
   }
  },
  {
   "type": "Feature",
   "geometry": {
    "type": "Point",
    "coordinates": [
     137.83188789,
     -34.10215406
    ]
   },
   "properties": {
    "name": "LOT 4 BUSSENSCHUTT ROAD SUNNYVALE 5552",
    "locID": "LOC100079388907",
    "tech": "WIRELESS",
    "upgrade": "NULL_NA",
    "gnaf_pid": "GASA_425500584"
   }
  },
  {
   "type": "Feature",
   "geometry": {
    "type": "Point",
    "coordinates": [
     137.86418487,
     -34.09693824
    ]
   },
   "properties": {
    "name": "LOT 452 HOLMAN ROAD SUNNYVALE 5552",
    "locID": "Eik0NTIgSG9sbWFuIFJkLCBLYWludG9uIFNBIDU1NTIsIEF1c3RyYWxpYSIxEi8KFAoSCYdCC2SFkLpqEZDiSklUNgMTEMQDKhQKEgl7RmxYmZC6ahHaXFTnG-5vSA",
    "tech": "WIRELESS",
    "upgrade": "UNKNOWN",
    "gnaf_pid": "GASA_425501997"
   }
  },
  {
   "type": "Feature",
   "geometry": {
    "type": "Point",
    "coordinates": [
     137.82687626,
     -34.12574875
    ]
   },
   "properties": {
    "name": "LOT 1 KALKABURY SCHOOL ROAD SUNNYVALE 5552",
    "locID": "LOC000131792416",
    "tech": "SATELLITE",
    "upgrade": "NULL_NA",
    "gnaf_pid": "GASA_425502152"
   }
  },
  {
   "type": "Feature",
   "geometry": {
    "type": "Point",
    "coordinates": [
     137.8251102,
     -34.13084603
    ]
   },
   "properties": {
    "name": "LOT 2 KALKABURY SCHOOL ROAD SUNNYVALE 5552",
    "locID": "LOC000131792416",
    "tech": "SATELLITE",
    "upgrade": "NULL_NA",
    "gnaf_pid": "GASA_425502153"
   }
  },
  {
   "type": "Feature",
   "geometry": {
    "type": "Point",
    "coordinates": [
     137.81316735,
     -34.16070962
    ]
   },
   "properties": {
    "name": "LOT 389 KALKABURY SCHOOL ROAD SUNNYVALE 5552",
    "locID": "EjUzODkgS2Fsa2FidXJ5IFNjaG9vbCBSZCwgU3Vubnl2YWxlIFNBIDU1NTIsIEF1c3RyYWxpYSIxEi8KFAoSCTWxW37LnrpqEeJkix0j5qF0EIUDKhQKEgnjz9H2M5m6ahEbWT1xrdkGqg",
    "tech": "SATELLITE",
    "upgrade": "UNKNOWN",
    "gnaf_pid": "GASA_425502154"
   }
  },
  {
   "type": "Feature",
   "geometry": {
    "type": "Point",
    "coordinates": [
     137.81633267,
     -34.17054783
    ]
   },
   "properties": {
    "name": "LOT 91 KALKABURY SCHOOL ROAD SUNNYVALE 5552",
    "locID": "LOC000131792416",
    "tech": "SATELLITE",
    "upgrade": "NULL_NA",
    "gnaf_pid": "GASA_425502155"
   }
  },
  {
   "type": "Feature",
   "geometry": {
    "type": "Point",
    "coordinates": [
     137.85347128,
     -34.10883662
    ]
   },
   "properties": {
    "name": "LOT 450E LAMSHED ROAD SUNNYVALE 5552",
    "locID": "Eiw0NTAgTGFtc2hlZCBSZCwgU3Vubnl2YWxlIFNBIDU1NTIsIEF1c3RyYWxpYSIxEi8KFAoSCcmRPqL9mLpqEeusHkO2ydL-EMIDKhQKEglrCZ8bB5m6ahHDRCFtx-xa4w",
    "tech": "SATELLITE",
    "upgrade": "UNKNOWN",
    "gnaf_pid": "GASA_425502320"
   }
  },
  {
   "type": "Feature",
   "geometry": {
    "type": "Point",
    "coordinates": [
     137.84168964,
     -34.10783339
    ]
   },
   "properties": {
    "name": "LOT 450W LAMSHED ROAD SUNNYVALE 5552",
    "locID": "Eiw0NTAgTGFtc2hlZCBSZCwgU3Vubnl2YWxlIFNBIDU1NTIsIEF1c3RyYWxpYSIxEi8KFAoSCcmRPqL9mLpqEeusHkO2ydL-EMIDKhQKEglrCZ8bB5m6ahHDRCFtx-xa4w",
    "tech": "SATELLITE",
    "upgrade": "UNKNOWN",
    "gnaf_pid": "GASA_425502321"
   }
  },
  {
   "type": "Feature",
   "geometry": {
    "type": "Point",
    "coordinates": [
     137.80651426,
     -34.09978008
    ]
   },
   "properties": {
    "name": "LOT 457 PEDLER ROAD SUNNYVALE 5552",
    "locID": "EidQZWRsZXIgUmQsIFN1bm55dmFsZSBTQSA1NTUyLCBBdXN0cmFsaWEiLiosChQKEgkfI61Rw6O6ahGBIX9A3Zs3JBIUChIJ_72X6PmbumoRwBKPYlQ2AwQ",
    "tech": "SATELLITE",
    "upgrade": "UNKNOWN",
    "gnaf_pid": "GASA_425503232"
   }
  },
  {
   "type": "Feature",
   "geometry": {
    "type": "Point",
    "coordinates": [
     137.86361242,
     -34.12880615
    ]
   },
   "properties": {
    "name": "LOT 3 SCHILLING ROAD SUNNYVALE 5552",
    "locID": "EipTY2hpbGxpbmcgUmQsIFN1bm55dmFsZSBTQSA1NTUyLCBBdXN0cmFsaWEiLiosChQKEgnD027gUZq6ahEq_GmB2S8U5BIUChIJ_72X6PmbumoRwBKPYlQ2AwQ",
    "tech": "SATELLITE",
    "upgrade": "UNKNOWN",
    "gnaf_pid": "GASA_425503742"
   }
  },
  {
   "type": "Feature",
   "geometry": {
    "type": "Point",
    "coordinates": [
     137.85982793,
     -34.17188408
    ]
   },
   "properties": {
    "name": "LOT 3 UPPER YORKE ROAD SUNNYVALE 5552",
    "locID": "LOC000131464860",
    "tech": "SATELLITE",
    "upgrade": "NULL_NA",
    "gnaf_pid": "GASA_425504536"
   }
  },
  {
   "type": "Feature",
   "geometry": {
    "type": "Point",
    "coordinates": [
     137.86533049,
     -34.17616077
    ]
   },
   "properties": {
    "name": "LOT 386 WILLIAMSON ROAD SUNNYVALE 5552",
    "locID": "LOC000131430009",
    "tech": "SATELLITE",
    "upgrade": "NULL_NA",
    "gnaf_pid": "GASA_425504715"
   }
  },
  {
   "type": "Feature",
   "geometry": {
    "type": "Point",
    "coordinates": [
     137.84654719,
     -34.17669635
    ]
   },
   "properties": {
    "name": "406W UPPER YORKE ROAD SUNNYVALE 5552",
    "locID": "ChIJGx9IGBycumoRos3YkQ-vpgg",
    "tech": "SATELLITE",
    "upgrade": "UNKNOWN",
    "gnaf_pid": "GASA_719782260"
   }
  },
  {
   "type": "Feature",
   "geometry": {
    "type": "Point",
    "coordinates": [
     137.83921041,
     -34.19052703
    ]
   },
   "properties": {
    "name": "LOT 50 UPPER YORKE ROAD SUNNYVALE 5552",
    "locID": "LOC000116345938",
    "tech": "SATELLITE",
    "upgrade": "NULL_NA",
    "gnaf_pid": "GASA_720237509"
   }
  }
 ]
}