{
 "type": "FeatureCollection",
 "generated": "2024-07-23T06:06:51.871519",
 "suburb": "SUNNYVALE",
 "features": [
  {
   "type": "Feature",
   "geometry": {
    "type": "Point",
    "coordinates": [
     137.83947696,
     -34.15447707
    ]
   },
   "properties": {
    "name": "LOT 1 SUNNYVALE ROAD SUNNYVALE 5552",
    "locID": "LOC000131800337",
    "tech": "WIRELESS",
    "upgrade": "NULL_NA",
    "gnaf_pid": "GASA_424122891",
    "tech_change_status": "Not Planned",
    "program_type": "Fixed Wireless and Satellite Upgrade Program",
    "target_eligibility_quarter": "NA"
   }
  },
  {
   "type": "Feature",
   "geometry": {
    "type": "Point",
    "coordinates": [
     137.85594138,
     -34.15741133
    ]
   },
   "properties": {
    "name": "LOT 407N UPPER YORKE ROAD SUNNYVALE 5552",
    "locID": "LOC000131464860",
    "tech": "WIRELESS",
    "upgrade": "NULL_NA",
    "gnaf_pid": "GASA_424829371",
    "tech_change_status": "Not Planned",
    "program_type": "Fixed Wireless and Satellite Upgrade Program",
    "target_eligibility_quarter": "NA"
   }
  },
  {
   "type": "Feature",
   "geometry": {
    "type": "Point",
    "coordinates": [
     137.85013443,
     -34.16974487
    ]
   },
   "properties": {
    "name": "LOT 407S UPPER YORKE ROAD SUNNYVALE 5552",
    "locID": "LOC000131464860",
    "tech": "WIRELESS",
    "upgrade": "NULL_NA",
    "gnaf_pid": "GASA_424829372",
    "tech_change_status": "Not Planned",
    "program_type": "Fixed Wireless and Satellite Upgrade Program",
    "target_eligibility_quarter": "NA"
   }
  },
  {
   "type": "Feature",
   "geometry": {
    "type": "Point",
    "coordinates": [
     137.86852005,
     -34.16380079
    ]
   },
   "properties": {
    "name": "LOT 5 UPPER YORKE ROAD SUNNYVALE 5552",
    "locID": "LOC000116345938",
    "tech": "SATELLITE",
    "upgrade": "NULL_NA",
    "gnaf_pid": "GASA_424829373",
    "tech_change_status": "Not Planned"
   }
  },
  {
   "type": "Feature",
   "geometry": {
    "type": "Point",
    "coordinates": [
     137.85786184,
     -34.10648502
    ]
   },
   "properties": {
    "name": "1035 BUSSENSCHUTT ROAD SUNNYVALE 5552",
    "locID": "LOC100079388907",
    "tech": "WIRELESS",
    "upgrade": "NULL_NA",
    "gnaf_pid": "GASA_424833701",
    "tech_change_status": "Not Planned",
    "program_type": "Fixed Wireless and Satellite Upgrade Program",
    "target_eligibility_quarter": "NA"
   }
  },
  {
   "type": "Feature",
   "geometry": {
    "type": "Point",
    "coordinates": [
     137.82690921,
     -34.09780667
    ]
   },
   "properties": {
    "name": "734 BUSSENSCHUTT ROAD SUNNYVALE 5552",
    "locID": "LOC000116358837",
    "tech": "WIRELESS",
    "upgrade": "NULL_NA",
    "gnaf_pid": "GASA_424833702",
    "tech_change_status": "Not Planned",
    "program_type": "Fixed Wireless and Satellite Upgrade Program",
    "target_eligibility_quarter": "NA"
   }
  },
  {
   "type": "Feature",
   "geometry": {
    "type": "Point",
    "coordinates": [
     137.85417477,
     -34.16990048
    ]
   },
   "properties": {
    "name": "7685 UPPER YORKE ROAD SUNNYVALE 5552",
    "locID": "LOC000116345938",
    "tech": "SATELLITE",
    "upgrade": "NULL_NA",
    "gnaf_pid": "GASA_424839268",
    "tech_change_status": "Not Planned"
   }
  },
  {
   "type": "Feature",
   "geometry": {
    "type": "Point",
    "coordinates": [
     137.78718571,
     -34.15827158
    ]
   },
   "properties": {
    "name": "218 COOTE ROAD SUNNYVALE 5552",
    "locID": "LOC000131787908",
    "tech": "WIRELESS",
    "upgrade": "NULL_NA",
    "gnaf_pid": "GASA_424900679",
    "tech_change_status": "Not Planned",
    "program_type": "Fixed Wireless and Satellite Upgrade Program",
    "target_eligibility_quarter": "NA"
   }
  },
  {
   "type": "Feature",
   "geometry": {
    "type": "Point",
    "coordinates": [
     137.84604086,
     -34.14998925
    ]
   },
   "properties": {
    "name": "297 ELIX ROAD SUNNYVALE 5552",
    "locID": "LOC000131804126",
    "tech": "SATELLITE",
    "upgrade": "NULL_NA",
    "gnaf_pid": "GASA_424900918",
    "tech_change_status": "Not Planned"
   }
  },
  {
   "type": "Feature",
   "geometry": {
    "type": "Point",
    "coordinates": [
     137.846038,
     -34.193001
    ]
   },
   "properties": {
    "name": "178 JERICHO ROAD SUNNYVALE 5552",
    "locID": "LOC000131455976",
    "tech": "WIRELESS",
    "upgrade": "NULL_NA",
    "gnaf_pid": "GASA_424902374",
    "tech_change_status": "Not Planned",
    "program_type": "Fixed Wireless and Satellite Upgrade Program",
    "target_eligibility_quarter": "NA"
   }
  },
  {
   "type": "Feature",
   "geometry": {
    "type": "Point",
    "coordinates": [
     137.81806983,
     -34.15359233
    ]
   },
   "properties": {
    "name": "656 KALKABURY SCHOOL ROAD SUNNYVALE 5552",
    "locID": "LOC000131792400",
    "tech": "WIRELESS",
    "upgrade": "NULL_NA",
    "gnaf_pid": "GASA_424902525",
    "tech_change_status": "Not Planned",
    "program_type": "Fixed Wireless and Satellite Upgrade Program",
    "target_eligibility_quarter": "NA"
   }
  },
  {
   "type": "Feature",
   "geometry": {
    "type": "Point",
    "coordinates": [
     137.81827198,
     -34.15356969
    ]
   },
   "properties": {
    "name": "657 KALKABURY SCHOOL ROAD SUNNYVALE 5552",
    "locID": "LOC000131792416",
    "tech": "WIRELESS",
    "upgrade": "NULL_NA",
    "gnaf_pid": "GASA_424902526",
    "tech_change_status": "Not Planned",
    "program_type": "Fixed Wireless and Satellite Upgrade Program",
    "target_eligibility_quarter": "NA"
   }
  },
  {
   "type": "Feature",
   "geometry": {
    "type": "Point",
    "coordinates": [
     137.87249589,
     -34.18600785
    ]
   },
   "properties": {
    "name": "364 LOVERIDGE ROAD SUNNYVALE 5552",
    "locID": "LOC000131460193",
    "tech": "SATELLITE",
    "upgrade": "NULL_NA",
    "gnaf_pid": "GASA_424902818",
    "tech_change_status": "Not Planned"
   }
  },
  {
   "type": "Feature",
   "geometry": {
    "type": "Point",
    "coordinates": [
     137.79484963,
     -34.19404637
    ]
   },
   "properties": {
    "name": "326 SAWLEY ROAD SUNNYVALE 5552",
    "locID": "LOC000131460186",
    "tech": "WIRELESS",
    "upgrade": "NULL_NA",
    "gnaf_pid": "GASA_424904359",
    "tech_change_status": "Not Planned",
    "program_type": "Fixed Wireless and Satellite Upgrade Program",
    "target_eligibility_quarter": "NA"
   }
  },
  {
   "type": "Feature",
   "geometry": {
    "type": "Point",
    "coordinates": [
     137.82846885,
     -34.19290387
    ]
   },
   "properties": {
    "name": "8034A UPPER YORKE ROAD SUNNYVALE 5552",
    "locID": "LOC000131464860",
    "tech": "WIRELESS",
    "upgrade": "NULL_NA",
    "gnaf_pid": "GASA_424905303",
    "tech_change_status": "Not Planned",
    "program_type": "Fixed Wireless and Satellite Upgrade Program",
    "target_eligibility_quarter": "NA"
   }
  },
  {
   "type": "Feature",
   "geometry": {
    "type": "Point",
    "coordinates": [
     137.82842922,
     -34.19294041
    ]
   },
   "properties": {
    "name": "8034B UPPER YORKE ROAD SUNNYVALE 5552",
    "locID": "LOC000131464873",
    "tech": "WIRELESS",
    "upgrade": "NULL_NA",
    "gnaf_pid": "GASA_424905304",
    "tech_change_status": "Not Planned",
    "program_type": "Fixed Wireless and Satellite Upgrade Program",
    "target_eligibility_quarter": "NA"
   }
  },
  {
   "type": "Feature",
   "geometry": {
    "type": "Point",
    "coordinates": [
     137.82353496,
     -34.17664814
    ]
   },
   "properties": {
    "name": "212 WAYLANDS ROAD SUNNYVALE 5552",
    "locID": "LOC000131785095",
    "tech": "WIRELESS",
    "upgrade": "NULL_NA",
    "gnaf_pid": "GASA_424905393",
    "tech_change_status": "Not Planned",
    "program_type": "Fixed Wireless and Satellite Upgrade Program",
    "target_eligibility_quarter": "NA"
   }
  },
  {
   "type": "Feature",
   "geometry": {
    "type": "Point",
    "coordinates": [
     137.80114503,
     -34.17665056
    ]
   },
   "properties": {
    "name": "420 WAYLANDS ROAD SUNNYVALE 5552",
    "locID": "LOC000131766916",
    "tech": "WIRELESS",
    "upgrade": "NULL_NA",
    "gnaf_pid": "GASA_424905394",
    "tech_change_status": "Not Planned",
    "program_type": "Fixed Wireless and Satellite Upgrade Program",
    "target_eligibility_quarter": "NA"
   }
  },
  {
   "type": "Feature",
   "geometry": {
    "type": "Point",
    "coordinates": [
     137.80017058,
     -34.17664461
    ]
   },
   "properties": {
    "name": "428 WAYLANDS ROAD SUNNYVALE 5552",
    "locID": "LOC000182782942",
    "tech": "WIRELESS",
    "upgrade": "NULL_NA",
    "gnaf_pid": "GASA_424905395",
    "tech_change_status": "Not Planned",
    "program_type": "Fixed Wireless and Satellite Upgrade Program",
    "target_eligibility_quarter": "NA"
   }
  },
  {
   "type": "Feature",
   "geometry": {
    "type": "Point",
    "coordinates": [
     137.84597162,
     -34.17674536
    ]
   },
   "properties": {
    "name": "5 WAYLANDS ROAD SUNNYVALE 5552",
    "locID": "LOC000131809068",
    "tech": "WIRELESS",
    "upgrade": "NULL_NA",
    "gnaf_pid": "GASA_424905396",
    "tech_change_status": "Not Planned",
    "program_type": "Fixed Wireless and Satellite Upgrade Program",
    "target_eligibility_quarter": "NA"
   }
  },
  {
   "type": "Feature",
   "geometry": {
    "type": "Point",
    "coordinates": [
     137.8374774,
     -34.17662095
    ]
   },
   "properties": {
    "name": "84 WAYLANDS ROAD SUNNYVALE 5552",
    "locID": "LOC000131809068",
    "tech": "WIRELESS",
    "upgrade": "NULL_NA",
    "gnaf_pid": "GASA_424905397",
    "tech_change_status": "Not Planned",
    "program_type": "Fixed Wireless and Satellite Upgrade Program",
    "target_eligibility_quarter": "NA"
   }
  },
  {
   "type": "Feature",
   "geometry": {
    "type": "Point",
    "coordinates": [
     137.78746681,
     -34.11521196
    ]
   },
   "properties": {
    "name": "385 LAMSHED ROAD SUNNYVALE 5552",
    "locID": "LOC000131758501",
    "tech": "WIRELESS",
    "upgrade": "NULL_NA",
    "gnaf_pid": "GASA_424924740",
    "tech_change_status": "Not Planned",
    "program_type": "Fixed Wireless and Satellite Upgrade Program",
    "target_eligibility_quarter": "NA"
   }
  },
  {
   "type": "Feature",
   "geometry": {
    "type": "Point",
    "coordinates": [
     137.82137542,
     -34.11364827
    ]
   },
   "properties": {
    "name": "696 LAMSHED ROAD SUNNYVALE 5552",
    "locID": "LOC000131796155",
    "tech": "WIRELESS",
    "upgrade": "NULL_NA",
    "gnaf_pid": "GASA_424924741",
    "tech_change_status": "Not Planned",
    "program_type": "Fixed Wireless and Satellite Upgrade Program",
    "target_eligibility_quarter": "NA"
   }
  },
  {
   "type": "Feature",
   "geometry": {
    "type": "Point",
    "coordinates": [
     137.79735775,
     -34.14188427
    ]
   },
   "properties": {
    "name": "708 SUNNYVALE ROAD SUNNYVALE 5552",
    "locID": "LOC000131800337",
    "tech": "WIRELESS",
    "upgrade": "NULL_NA",
    "gnaf_pid": "GASA_425069582",
    "tech_change_status": "Not Planned",
    "program_type": "Fixed Wireless and Satellite Upgrade Program",
    "target_eligibility_quarter": "NA"
   }
  },
  {
   "type": "Feature",
   "geometry": {
    "type": "Point",
    "coordinates": [
     137.86664669,
     -34.14677871
    ]
   },
   "properties": {
    "name": "LOT 432E SUNNYVALE ROAD SUNNYVALE 5552",
    "locID": "LOC000131800337",
    "tech": "WIRELESS",
    "upgrade": "NULL_NA",
    "gnaf_pid": "GASA_425069585",
    "tech_change_status": "Not Planned",
    "program_type": "Fixed Wireless and Satellite Upgrade Program",
    "target_eligibility_quarter": "NA"
   }
  },
  {
   "type": "Feature",
   "geometry": {
    "type": "Point",
    "coordinates": [
     137.82030445,
     -34.1002088
    ]
   },
   "properties": {
    "name": "LOT 1 BUSSENSCHUTT ROAD SUNNYVALE 5552",
    "locID": "LOC100079388907",
    "tech": "WIRELESS",
    "upgrade": "NULL_NA",
    "gnaf_pid": "GASA_425500581",
    "tech_change_status": "Not Planned",
    "program_type": "Fixed Wireless and Satellite Upgrade Program",
    "target_eligibility_quarter": "NA"
   }
  },
  {
   "type": "Feature",
   "geometry": {
    "type": "Point",
    "coordinates": [
     137.84898272,
     -34.09869723
    ]
   },
   "properties": {
    "name": "LOT 453 BUSSENSCHUTT ROAD SUNNYVALE 5552",
    "locID": "LOC100079388907",
    "tech": "WIRELESS",
    "upgrade": "NULL_NA",
    "gnaf_pid": "GASA_425500582",
    "tech_change_status": "Not Planned",
    "program_type": "Fixed Wireless and Satellite Upgrade Program",
    "target_eligibility_quarter": "NA"
   }
  },
  {
   "type": "Feature",
   "geometry": {
    "type": "Point",
    "coordinates": [
     137.83317088,
     -34.09652944
    ]
   },
   "properties": {
    "name": "LOT 455 BUSSENSCHUTT ROAD SUNNYVALE 5552",
    "locID": "LOC100079388907",
    "tech": "WIRELESS",
    "upgrade": "NULL_NA",
    "gnaf_pid": "GASA_425500583",
    "tech_change_status": "Not Planned",
    "program_type": "Fixed Wireless and Satellite Upgrade Program",
    "target_eligibility_quarter": "NA"
   }
  },
  {
   "type": "Feature",
   "geometry": {
    "type": "Point",
    "coordinates": [
     137.83188789,
     -34.10215406
    ]
   },
   "properties": {
    "name": "LOT 4 BUSSENSCHUTT ROAD SUNNYVALE 5552",
    "locID": "LOC100079388907",
    "tech": "WIRELESS",
    "upgrade": "NULL_NA",
    "gnaf_pid": "GASA_425500584",
    "tech_change_status": "Not Planned",
    "program_type": "Fixed Wireless and Satellite Upgrade Program",
    "target_eligibility_quarter": "NA"
   }
  },
  {
   "type": "Feature",
   "geometry": {
    "type": "Point",
    "coordinates": [
     137.82687626,
     -34.12574875
    ]
   },
   "properties": {
    "name": "LOT 1 KALKABURY SCHOOL ROAD SUNNYVALE 5552",
    "locID": "LOC000131792416",
    "tech": "WIRELESS",
    "upgrade": "NULL_NA",
    "gnaf_pid": "GASA_425502152",
    "tech_change_status": "Not Planned",
    "program_type": "Fixed Wireless and Satellite Upgrade Program",
    "target_eligibility_quarter": "NA"
   }
  },
  {
   "type": "Feature",
   "geometry": {
    "type": "Point",
    "coordinates": [
     137.8251102,
     -34.13084603
    ]
   },
   "properties": {
    "name": "LOT 2 KALKABURY SCHOOL ROAD SUNNYVALE 5552",
    "locID": "LOC000131792416",
    "tech": "WIRELESS",
    "upgrade": "NULL_NA",
    "gnaf_pid": "GASA_425502153",
    "tech_change_status": "Not Planned",
    "program_type": "Fixed Wireless and Satellite Upgrade Program",
    "target_eligibility_quarter": "NA"
   }
  },
  {
   "type": "Feature",
   "geometry": {
    "type": "Point",
    "coordinates": [
     137.81633267,
     -34.17054783
    ]
   },
   "properties": {
    "name": "LOT 91 KALKABURY SCHOOL ROAD SUNNYVALE 5552",
    "locID": "LOC000131792416",
    "tech": "WIRELESS",
    "upgrade": "NULL_NA",
    "gnaf_pid": "GASA_425502155",
    "tech_change_status": "Not Planned",
    "program_type": "Fixed Wireless and Satellite Upgrade Program",
    "target_eligibility_quarter": "NA"
   }
  },
  {
   "type": "Feature",
   "geometry": {
    "type": "Point",
    "coordinates": [
     137.85982793,
     -34.17188408
    ]
   },
   "properties": {
    "name": "LOT 3 UPPER YORKE ROAD SUNNYVALE 5552",
    "locID": "LOC000131464860",
    "tech": "WIRELESS",
    "upgrade": "NULL_NA",
    "gnaf_pid": "GASA_425504536",
    "tech_change_status": "Not Planned",
    "program_type": "Fixed Wireless and Satellite Upgrade Program",
    "target_eligibility_quarter": "NA"
   }
  },
  {
   "type": "Feature",
   "geometry": {
    "type": "Point",
    "coordinates": [
     137.86533049,
     -34.17616077
    ]
   },
   "properties": {
    "name": "LOT 386 WILLIAMSON ROAD SUNNYVALE 5552",
    "locID": "LOC000131430009",
    "tech": "SATELLITE",
    "upgrade": "NULL_NA",
    "gnaf_pid": "GASA_425504715",
    "tech_change_status": "Not Planned"
   }
  },
  {
   "type": "Feature",
   "geometry": {
    "type": "Point",
    "coordinates": [
     137.83921041,
     -34.19052703
    ]
   },
   "properties": {
    "name": "LOT 50 UPPER YORKE ROAD SUNNYVALE 5552",
    "locID": "LOC000116345938",
    "tech": "SATELLITE",
    "upgrade": "NULL_NA",
    "gnaf_pid": "GASA_720237509",
    "tech_change_status": "Not Planned"
   }
  }
 ]
}