{
 "type": "FeatureCollection",
 "generated": "2023-10-22T13:32:58.733406",
 "suburb": "TAUNTON",
 "features": [
  {
   "type": "Feature",
   "geometry": {
    "type": "Point",
    "coordinates": [
     139.08362274,
     -34.68525161
    ]
   },
   "properties": {
    "name": "LOT 36 CEMETERY ROAD TAUNTON 5235",
    "locID": "LOC000017667550",
    "tech": "WIRELESS",
    "upgrade": "NULL_NA",
    "gnaf_pid": "GASA_423021353"
   }
  },
  {
   "type": "Feature",
   "geometry": {
    "type": "Point",
    "coordinates": [
     139.08292984,
     -34.67968644
    ]
   },
   "properties": {
    "name": "LOT 181 VIGARS ROAD TAUNTON 5235",
    "locID": "EikxODEgVmlnYXJzIFJkLCBUYXVudG9uIFNBIDUyMzUsIEF1c3RyYWxpYSIxEi8KFAoSCYG8y4d_3rlqEcwaIfzXw0PRELUBKhQKEgmnX55_f965ahGUnJ07VGJo6A",
    "tech": "WIRELESS",
    "upgrade": "UNKNOWN",
    "gnaf_pid": "GASA_423048851"
   }
  },
  {
   "type": "Feature",
   "geometry": {
    "type": "Point",
    "coordinates": [
     139.08805373,
     -34.68693848
    ]
   },
   "properties": {
    "name": "LOT 37 CEMETERY ROAD TAUNTON 5235",
    "locID": "LOC000017667550",
    "tech": "WIRELESS",
    "upgrade": "NULL_NA",
    "gnaf_pid": "GASA_424161623"
   }
  },
  {
   "type": "Feature",
   "geometry": {
    "type": "Point",
    "coordinates": [
     139.08831197,
     -34.68701565
    ]
   },
   "properties": {
    "name": "LOT 38 CEMETERY ROAD TAUNTON 5235",
    "locID": "LOC000017667550",
    "tech": "WIRELESS",
    "upgrade": "NULL_NA",
    "gnaf_pid": "GASA_424161624"
   }
  },
  {
   "type": "Feature",
   "geometry": {
    "type": "Point",
    "coordinates": [
     139.08889397,
     -34.68103789
    ]
   },
   "properties": {
    "name": "LOT 500 CEMETERY ROAD TAUNTON 5235",
    "locID": "EitDZW1ldGVyeSBSZCwgRWRlbiBWYWxsZXkgU0EgNTIzNSwgQXVzdHJhbGlhIi4qLAoUChIJzzv8CWPeuWoR3lHAd4XVm98SFAoSCfthQXS627lqEfDgjmJUNgME",
    "tech": "WIRELESS",
    "upgrade": "UNKNOWN",
    "gnaf_pid": "GASA_424161626"
   }
  },
  {
   "type": "Feature",
   "geometry": {
    "type": "Point",
    "coordinates": [
     139.09746097,
     -34.69215421
    ]
   },
   "properties": {
    "name": "LOT 567 C KUCHELS ROAD TAUNTON 5235",
    "locID": "LOC000007549792",
    "tech": "WIRELESS",
    "upgrade": "NULL_NA",
    "gnaf_pid": "GASA_424381881"
   }
  },
  {
   "type": "Feature",
   "geometry": {
    "type": "Point",
    "coordinates": [
     139.0797274,
     -34.68691564
    ]
   },
   "properties": {
    "name": "LOT 570 CEMETERY ROAD TAUNTON 5235",
    "locID": "EitDZW1ldGVyeSBSZCwgRWRlbiBWYWxsZXkgU0EgNTIzNSwgQXVzdHJhbGlhIi4qLAoUChIJzzv8CWPeuWoR3lHAd4XVm98SFAoSCfthQXS627lqEfDgjmJUNgME",
    "tech": "WIRELESS",
    "upgrade": "UNKNOWN",
    "gnaf_pid": "GASA_424382655"
   }
  },
  {
   "type": "Feature",
   "geometry": {
    "type": "Point",
    "coordinates": [
     139.09527783,
     -34.69706405
    ]
   },
   "properties": {
    "name": "LOT 585 FOULDS ROAD TAUNTON 5235",
    "locID": "LOC000017611686",
    "tech": "WIRELESS",
    "upgrade": "NULL_NA",
    "gnaf_pid": "GASA_424387258"
   }
  },
  {
   "type": "Feature",
   "geometry": {
    "type": "Point",
    "coordinates": [
     139.10421993,
     -34.68456428
    ]
   },
   "properties": {
    "name": "205 C KUCHELS ROAD TAUNTON 5235",
    "locID": "LOC000029206619",
    "tech": "WIRELESS",
    "upgrade": "NULL_NA",
    "gnaf_pid": "GASA_424656369"
   }
  },
  {
   "type": "Feature",
   "geometry": {
    "type": "Point",
    "coordinates": [
     139.08773224,
     -34.68650433
    ]
   },
   "properties": {
    "name": "19 CEMETERY ROAD TAUNTON 5235",
    "locID": "ChIJLwBOP4_euWoRCU4zBnmioAI",
    "tech": "WIRELESS",
    "upgrade": "UNKNOWN",
    "gnaf_pid": "GASA_424656511"
   }
  },
  {
   "type": "Feature",
   "geometry": {
    "type": "Point",
    "coordinates": [
     139.08872064,
     -34.68680115
    ]
   },
   "properties": {
    "name": "9 CEMETERY ROAD TAUNTON 5235",
    "locID": "LOC000017667550",
    "tech": "WIRELESS",
    "upgrade": "NULL_NA",
    "gnaf_pid": "GASA_424656512"
   }
  },
  {
   "type": "Feature",
   "geometry": {
    "type": "Point",
    "coordinates": [
     139.08748128,
     -34.69750236
    ]
   },
   "properties": {
    "name": "17 FOULDS ROAD TAUNTON 5235",
    "locID": "LOC000006227755",
    "tech": "WIRELESS",
    "upgrade": "NULL_NA",
    "gnaf_pid": "GASA_424658139"
   }
  },
  {
   "type": "Feature",
   "geometry": {
    "type": "Point",
    "coordinates": [
     139.09742002,
     -34.6783165
    ]
   },
   "properties": {
    "name": "34 SHEARERS ROAD TAUNTON 5235",
    "locID": "LOC000015985186",
    "tech": "WIRELESS",
    "upgrade": "NULL_NA",
    "gnaf_pid": "GASA_424664354"
   }
  },
  {
   "type": "Feature",
   "geometry": {
    "type": "Point",
    "coordinates": [
     139.09117711,
     -34.68371216
    ]
   },
   "properties": {
    "name": "2203 EDEN VALLEY ROAD TAUNTON 5235",
    "locID": "LOC000116238678",
    "tech": "WIRELESS",
    "upgrade": "NULL_NA",
    "gnaf_pid": "GASA_424820003"
   }
  },
  {
   "type": "Feature",
   "geometry": {
    "type": "Point",
    "coordinates": [
     139.08944559,
     -34.68767754
    ]
   },
   "properties": {
    "name": "2251 EDEN VALLEY ROAD TAUNTON 5235",
    "locID": "ChIJhyXLp4_euWoRxje0EXFIfTo",
    "tech": "WIRELESS",
    "upgrade": "UNKNOWN",
    "gnaf_pid": "GASA_424820004"
   }
  },
  {
   "type": "Feature",
   "geometry": {
    "type": "Point",
    "coordinates": [
     139.08926601,
     -34.68697624
    ]
   },
   "properties": {
    "name": "5 CEMETERY ROAD TAUNTON 5235",
    "locID": "LOC000017667550",
    "tech": "WIRELESS",
    "upgrade": "NULL_NA",
    "gnaf_pid": "GASA_425187297"
   }
  },
  {
   "type": "Feature",
   "geometry": {
    "type": "Point",
    "coordinates": [
     139.08122753,
     -34.69284779
    ]
   },
   "properties": {
    "name": "LOT 3 EDEN VALLEY ROAD TAUNTON 5235",
    "locID": "LOC000116238678",
    "tech": "WIRELESS",
    "upgrade": "NULL_NA",
    "gnaf_pid": "GASA_425501377"
   }
  },
  {
   "type": "Feature",
   "geometry": {
    "type": "Point",
    "coordinates": [
     139.089817,
     -34.686711
    ]
   },
   "properties": {
    "name": "2239 EDEN VALLEY ROAD TAUNTON 5235",
    "locID": "LOC000182076029",
    "tech": "WIRELESS",
    "upgrade": "NULL_NA",
    "gnaf_pid": "GASA_720186635"
   }
  }
 ]
}