{
 "type": "FeatureCollection",
 "generated": "2024-10-09T12:24:18.707811",
 "suburb": "TAUNTON",
 "features": [
  {
   "type": "Feature",
   "geometry": {
    "type": "Point",
    "coordinates": [
     139.08805373,
     -34.68693848
    ]
   },
   "properties": {
    "name": "LOT 37 CEMETERY ROAD TAUNTON 5235",
    "locID": "LOC000017667550",
    "tech": "WIRELESS",
    "upgrade": "NULL_NA",
    "gnaf_pid": "GASA_424161623",
    "tech_change_status": "Not Planned",
    "program_type": "Fixed Wireless and Satellite Upgrade Program",
    "target_eligibility_quarter": "Dec 2024"
   }
  },
  {
   "type": "Feature",
   "geometry": {
    "type": "Point",
    "coordinates": [
     139.08831197,
     -34.68701565
    ]
   },
   "properties": {
    "name": "LOT 38 CEMETERY ROAD TAUNTON 5235",
    "locID": "LOC000017667550",
    "tech": "WIRELESS",
    "upgrade": "NULL_NA",
    "gnaf_pid": "GASA_424161624",
    "tech_change_status": "Not Planned",
    "program_type": "Fixed Wireless and Satellite Upgrade Program",
    "target_eligibility_quarter": "Dec 2024"
   }
  },
  {
   "type": "Feature",
   "geometry": {
    "type": "Point",
    "coordinates": [
     139.09746097,
     -34.69215421
    ]
   },
   "properties": {
    "name": "LOT 567 C KUCHELS ROAD TAUNTON 5235",
    "locID": "LOC000007549792",
    "tech": "WIRELESS",
    "upgrade": "NULL_NA",
    "gnaf_pid": "GASA_424381881",
    "tech_change_status": "Not Planned",
    "program_type": "Fixed Wireless and Satellite Upgrade Program",
    "target_eligibility_quarter": "Dec 2024"
   }
  },
  {
   "type": "Feature",
   "geometry": {
    "type": "Point",
    "coordinates": [
     139.09527783,
     -34.69706405
    ]
   },
   "properties": {
    "name": "LOT 585 FOULDS ROAD TAUNTON 5235",
    "locID": "LOC000017611686",
    "tech": "WIRELESS",
    "upgrade": "NULL_NA",
    "gnaf_pid": "GASA_424387258",
    "tech_change_status": "Not Planned",
    "program_type": "Fixed Wireless and Satellite Upgrade Program",
    "target_eligibility_quarter": "Dec 2024"
   }
  },
  {
   "type": "Feature",
   "geometry": {
    "type": "Point",
    "coordinates": [
     139.10421993,
     -34.68456428
    ]
   },
   "properties": {
    "name": "205 C KUCHELS ROAD TAUNTON 5235",
    "locID": "LOC000029206619",
    "tech": "WIRELESS",
    "upgrade": "NULL_NA",
    "gnaf_pid": "GASA_424656369",
    "tech_change_status": "Not Planned",
    "program_type": "Fixed Wireless and Satellite Upgrade Program",
    "target_eligibility_quarter": "Dec 2024"
   }
  },
  {
   "type": "Feature",
   "geometry": {
    "type": "Point",
    "coordinates": [
     139.08872064,
     -34.68680115
    ]
   },
   "properties": {
    "name": "9 CEMETERY ROAD TAUNTON 5235",
    "locID": "LOC000017667550",
    "tech": "WIRELESS",
    "upgrade": "NULL_NA",
    "gnaf_pid": "GASA_424656512",
    "tech_change_status": "Not Planned",
    "program_type": "Fixed Wireless and Satellite Upgrade Program",
    "target_eligibility_quarter": "Dec 2024"
   }
  },
  {
   "type": "Feature",
   "geometry": {
    "type": "Point",
    "coordinates": [
     139.08748128,
     -34.69750236
    ]
   },
   "properties": {
    "name": "17 FOULDS ROAD TAUNTON 5235",
    "locID": "LOC000006227755",
    "tech": "WIRELESS",
    "upgrade": "NULL_NA",
    "gnaf_pid": "GASA_424658139",
    "tech_change_status": "Not Planned",
    "program_type": "Fixed Wireless and Satellite Upgrade Program",
    "target_eligibility_quarter": "Dec 2024"
   }
  },
  {
   "type": "Feature",
   "geometry": {
    "type": "Point",
    "coordinates": [
     139.09742002,
     -34.6783165
    ]
   },
   "properties": {
    "name": "34 SHEARERS ROAD TAUNTON 5235",
    "locID": "LOC000015985186",
    "tech": "WIRELESS",
    "upgrade": "NULL_NA",
    "gnaf_pid": "GASA_424664354",
    "tech_change_status": "Not Planned",
    "program_type": "Fixed Wireless and Satellite Upgrade Program",
    "target_eligibility_quarter": "Dec 2024"
   }
  },
  {
   "type": "Feature",
   "geometry": {
    "type": "Point",
    "coordinates": [
     139.09117711,
     -34.68371216
    ]
   },
   "properties": {
    "name": "2203 EDEN VALLEY ROAD TAUNTON 5235",
    "locID": "LOC000116238678",
    "tech": "WIRELESS",
    "upgrade": "NULL_NA",
    "gnaf_pid": "GASA_424820003",
    "tech_change_status": "Not Planned",
    "program_type": "Fixed Wireless and Satellite Upgrade Program",
    "target_eligibility_quarter": "Dec 2024"
   }
  },
  {
   "type": "Feature",
   "geometry": {
    "type": "Point",
    "coordinates": [
     139.08926601,
     -34.68697624
    ]
   },
   "properties": {
    "name": "5 CEMETERY ROAD TAUNTON 5235",
    "locID": "LOC000017667550",
    "tech": "WIRELESS",
    "upgrade": "NULL_NA",
    "gnaf_pid": "GASA_425187297",
    "tech_change_status": "Not Planned",
    "program_type": "Fixed Wireless and Satellite Upgrade Program",
    "target_eligibility_quarter": "Dec 2024"
   }
  },
  {
   "type": "Feature",
   "geometry": {
    "type": "Point",
    "coordinates": [
     139.08122753,
     -34.69284779
    ]
   },
   "properties": {
    "name": "LOT 3 EDEN VALLEY ROAD TAUNTON 5235",
    "locID": "LOC000116238678",
    "tech": "WIRELESS",
    "upgrade": "NULL_NA",
    "gnaf_pid": "GASA_425501377",
    "tech_change_status": "Not Planned",
    "program_type": "Fixed Wireless and Satellite Upgrade Program",
    "target_eligibility_quarter": "Dec 2024"
   }
  },
  {
   "type": "Feature",
   "geometry": {
    "type": "Point",
    "coordinates": [
     139.089817,
     -34.686711
    ]
   },
   "properties": {
    "name": "2239 EDEN VALLEY ROAD TAUNTON 5235",
    "locID": "LOC000182076029",
    "tech": "WIRELESS",
    "upgrade": "NULL_NA",
    "gnaf_pid": "GASA_720186635",
    "tech_change_status": "Not Planned",
    "program_type": "Fixed Wireless and Satellite Upgrade Program",
    "target_eligibility_quarter": "Dec 2024"
   }
  }
 ]
}