{
 "type": "FeatureCollection",
 "generated": "2024-07-23T06:34:11.869219",
 "suburb": "THOMAS PLAIN",
 "features": [
  {
   "type": "Feature",
   "geometry": {
    "type": "Point",
    "coordinates": [
     137.8995833,
     -33.94090842
    ]
   },
   "properties": {
    "name": "LOT 414 G MILLARDS ROAD THOMAS PLAIN 5554",
    "locID": "LOC000150250358",
    "tech": "SATELLITE",
    "upgrade": "NULL_NA",
    "gnaf_pid": "GASA_415490807",
    "tech_change_status": "Not Planned"
   }
  },
  {
   "type": "Feature",
   "geometry": {
    "type": "Point",
    "coordinates": [
     137.8832767,
     -33.98850509
    ]
   },
   "properties": {
    "name": "LOT 408 PINE FOREST ROAD THOMAS PLAIN 5554",
    "locID": "LOC000152915913",
    "tech": "WIRELESS",
    "upgrade": "NULL_NA",
    "gnaf_pid": "GASA_424139856",
    "tech_change_status": "Not Planned",
    "program_type": "Fixed Wireless and Satellite Upgrade Program",
    "target_eligibility_quarter": "NA"
   }
  },
  {
   "type": "Feature",
   "geometry": {
    "type": "Point",
    "coordinates": [
     137.89765221,
     -33.91656879
    ]
   },
   "properties": {
    "name": "LOT 78 AYLES BACK ROAD THOMAS PLAIN 5554",
    "locID": "LOC000150250327",
    "tech": "SATELLITE",
    "upgrade": "NULL_NA",
    "gnaf_pid": "GASA_424287844",
    "tech_change_status": "Not Planned"
   }
  },
  {
   "type": "Feature",
   "geometry": {
    "type": "Point",
    "coordinates": [
     137.96042727,
     -33.9119531
    ]
   },
   "properties": {
    "name": "LOT 89 B WEHRS ROAD THOMAS PLAIN 5554",
    "locID": "LOC000167655124",
    "tech": "WIRELESS",
    "upgrade": "NULL_NA",
    "gnaf_pid": "GASA_424287880",
    "tech_change_status": "Not Planned",
    "program_type": "Fixed Wireless and Satellite Upgrade Program",
    "target_eligibility_quarter": "NA"
   }
  },
  {
   "type": "Feature",
   "geometry": {
    "type": "Point",
    "coordinates": [
     137.88120756,
     -33.95376593
    ]
   },
   "properties": {
    "name": "LOT 15N CHURCH ROAD THOMAS PLAIN 5554",
    "locID": "LOC000150250336",
    "tech": "WIRELESS",
    "upgrade": "NULL_NA",
    "gnaf_pid": "GASA_424294561",
    "tech_change_status": "Not Planned",
    "program_type": "Fixed Wireless and Satellite Upgrade Program",
    "target_eligibility_quarter": "NA"
   }
  },
  {
   "type": "Feature",
   "geometry": {
    "type": "Point",
    "coordinates": [
     137.92247367,
     -33.91896387
    ]
   },
   "properties": {
    "name": "LOT 82 CHURCH ROAD THOMAS PLAIN 5554",
    "locID": "LOC000150250336",
    "tech": "WIRELESS",
    "upgrade": "NULL_NA",
    "gnaf_pid": "GASA_424294564",
    "tech_change_status": "Not Planned",
    "program_type": "Fixed Wireless and Satellite Upgrade Program",
    "target_eligibility_quarter": "NA"
   }
  },
  {
   "type": "Feature",
   "geometry": {
    "type": "Point",
    "coordinates": [
     137.92599423,
     -33.97831306
    ]
   },
   "properties": {
    "name": "LOT 3 J PRICE ROAD THOMAS PLAIN 5554",
    "locID": "LOC000182330011",
    "tech": "WIRELESS",
    "upgrade": "NULL_NA",
    "gnaf_pid": "GASA_424309159",
    "tech_change_status": "Not Planned",
    "program_type": "Fixed Wireless and Satellite Upgrade Program",
    "target_eligibility_quarter": "NA"
   }
  },
  {
   "type": "Feature",
   "geometry": {
    "type": "Point",
    "coordinates": [
     137.94282755,
     -33.93765071
    ]
   },
   "properties": {
    "name": "94 R PRICE ROAD THOMAS PLAIN 5554",
    "locID": "LOC000161957030",
    "tech": "WIRELESS",
    "upgrade": "NULL_NA",
    "gnaf_pid": "GASA_425301815",
    "tech_change_status": "Not Planned",
    "program_type": "Fixed Wireless and Satellite Upgrade Program",
    "target_eligibility_quarter": "NA"
   }
  },
  {
   "type": "Feature",
   "geometry": {
    "type": "Point",
    "coordinates": [
     137.9117188,
     -33.90594056
    ]
   },
   "properties": {
    "name": "27 AYLES BACK ROAD THOMAS PLAIN 5554",
    "locID": "LOC000150250327",
    "tech": "SATELLITE",
    "upgrade": "NULL_NA",
    "gnaf_pid": "GASA_425302169",
    "tech_change_status": "Not Planned"
   }
  },
  {
   "type": "Feature",
   "geometry": {
    "type": "Point",
    "coordinates": [
     137.95361659,
     -33.90420343
    ]
   },
   "properties": {
    "name": "221 B WEHRS ROAD THOMAS PLAIN 5554",
    "locID": "LOC000145152557",
    "tech": "WIRELESS",
    "upgrade": "NULL_NA",
    "gnaf_pid": "GASA_425302178",
    "tech_change_status": "Not Planned",
    "program_type": "Fixed Wireless and Satellite Upgrade Program",
    "target_eligibility_quarter": "NA"
   }
  },
  {
   "type": "Feature",
   "geometry": {
    "type": "Point",
    "coordinates": [
     137.92442115,
     -33.94718406
    ]
   },
   "properties": {
    "name": "753 CHURCH ROAD THOMAS PLAIN 5554",
    "locID": "LOC000150250336",
    "tech": "WIRELESS",
    "upgrade": "NULL_NA",
    "gnaf_pid": "GASA_425302786",
    "tech_change_status": "Not Planned",
    "program_type": "Fixed Wireless and Satellite Upgrade Program",
    "target_eligibility_quarter": "NA"
   }
  },
  {
   "type": "Feature",
   "geometry": {
    "type": "Point",
    "coordinates": [
     137.91032627,
     -33.9343645
    ]
   },
   "properties": {
    "name": "52 G MILLARDS ROAD THOMAS PLAIN 5554",
    "locID": "LOC000150250343",
    "tech": "SATELLITE",
    "upgrade": "NULL_NA",
    "gnaf_pid": "GASA_425303279",
    "tech_change_status": "Not Planned"
   }
  },
  {
   "type": "Feature",
   "geometry": {
    "type": "Point",
    "coordinates": [
     137.91034888,
     -33.9344521
    ]
   },
   "properties": {
    "name": "53 G MILLARDS ROAD THOMAS PLAIN 5554",
    "locID": "LOC000150250358",
    "tech": "SATELLITE",
    "upgrade": "NULL_NA",
    "gnaf_pid": "GASA_425303280",
    "tech_change_status": "Not Planned"
   }
  },
  {
   "type": "Feature",
   "geometry": {
    "type": "Point",
    "coordinates": [
     137.92109821,
     -33.98467686
    ]
   },
   "properties": {
    "name": "550 J PRICE ROAD THOMAS PLAIN 5554",
    "locID": "LOC000182330011",
    "tech": "WIRELESS",
    "upgrade": "NULL_NA",
    "gnaf_pid": "GASA_425303882",
    "tech_change_status": "Not Planned",
    "program_type": "Fixed Wireless and Satellite Upgrade Program",
    "target_eligibility_quarter": "NA"
   }
  },
  {
   "type": "Feature",
   "geometry": {
    "type": "Point",
    "coordinates": [
     137.96463175,
     -33.93567676
    ]
   },
   "properties": {
    "name": "82 MCPHERSON ROAD THOMAS PLAIN 5554",
    "locID": "LOC000145815253",
    "tech": "SATELLITE",
    "upgrade": "NULL_NA",
    "gnaf_pid": "GASA_425304276",
    "tech_change_status": "Not Planned"
   }
  },
  {
   "type": "Feature",
   "geometry": {
    "type": "Point",
    "coordinates": [
     137.90016268,
     -33.9653062
    ]
   },
   "properties": {
    "name": "147 THOMAS PLAINS-KADINA ROAD THOMAS PLAIN 5554",
    "locID": "LOC000154482251",
    "tech": "WIRELESS",
    "upgrade": "NULL_NA",
    "gnaf_pid": "GASA_425305850",
    "tech_change_status": "Not Planned",
    "program_type": "Fixed Wireless and Satellite Upgrade Program",
    "target_eligibility_quarter": "NA"
   }
  },
  {
   "type": "Feature",
   "geometry": {
    "type": "Point",
    "coordinates": [
     137.909264,
     -33.965178
    ]
   },
   "properties": {
    "name": "64 THOMAS PLAINS-KADINA ROAD THOMAS PLAIN 5554",
    "locID": "LOC000153924543",
    "tech": "WIRELESS",
    "upgrade": "NULL_NA",
    "gnaf_pid": "GASA_425305852",
    "tech_change_status": "Not Planned",
    "program_type": "Fixed Wireless and Satellite Upgrade Program",
    "target_eligibility_quarter": "NA"
   }
  },
  {
   "type": "Feature",
   "geometry": {
    "type": "Point",
    "coordinates": [
     137.91547391,
     -33.96519504
    ]
   },
   "properties": {
    "name": "6 THOMAS PLAINS-KADINA ROAD THOMAS PLAIN 5554",
    "locID": "LOC000153924543",
    "tech": "WIRELESS",
    "upgrade": "NULL_NA",
    "gnaf_pid": "GASA_425305853",
    "tech_change_status": "Not Planned",
    "program_type": "Fixed Wireless and Satellite Upgrade Program",
    "target_eligibility_quarter": "NA"
   }
  },
  {
   "type": "Feature",
   "geometry": {
    "type": "Point",
    "coordinates": [
     137.97725353,
     -33.91234318
    ]
   },
   "properties": {
    "name": "1541 LIME KILN ROAD THOMAS PLAIN 5554",
    "locID": "LOC000144366446",
    "tech": "WIRELESS",
    "upgrade": "NULL_NA",
    "gnaf_pid": "GASA_425355179",
    "tech_change_status": "Not Planned",
    "program_type": "Fixed Wireless and Satellite Upgrade Program",
    "target_eligibility_quarter": "NA"
   }
  },
  {
   "type": "Feature",
   "geometry": {
    "type": "Point",
    "coordinates": [
     137.934162,
     -33.933502
    ]
   },
   "properties": {
    "name": "366 MCPHERSON ROAD THOMAS PLAIN 5554",
    "locID": "LOC000178929078",
    "tech": "SATELLITE",
    "upgrade": "NULL_NA",
    "gnaf_pid": "GASA_425722610",
    "tech_change_status": "Not Planned"
   }
  },
  {
   "type": "Feature",
   "geometry": {
    "type": "Point",
    "coordinates": [
     137.88893419,
     -33.98321049
    ]
   },
   "properties": {
    "name": "LOT 5 PINE FOREST ROAD THOMAS PLAIN 5554",
    "locID": "LOC000152915913",
    "tech": "WIRELESS",
    "upgrade": "NULL_NA",
    "gnaf_pid": "GASA_425723713",
    "tech_change_status": "Not Planned",
    "program_type": "Fixed Wireless and Satellite Upgrade Program",
    "target_eligibility_quarter": "NA"
   }
  },
  {
   "type": "Feature",
   "geometry": {
    "type": "Point",
    "coordinates": [
     137.89998932,
     -33.95573869
    ]
   },
   "properties": {
    "name": "LOT 6 THOMAS PLAINS-KADINA ROAD THOMAS PLAIN 5554",
    "locID": "LOC000153924543",
    "tech": "WIRELESS",
    "upgrade": "NULL_NA",
    "gnaf_pid": "GASA_719861205",
    "tech_change_status": "Not Planned",
    "program_type": "Fixed Wireless and Satellite Upgrade Program",
    "target_eligibility_quarter": "NA"
   }
  },
  {
   "type": "Feature",
   "geometry": {
    "type": "Point",
    "coordinates": [
     137.91128394,
     -33.98453373
    ]
   },
   "properties": {
    "name": "LOT 203 CHURCH ROAD THOMAS PLAIN 5554",
    "locID": "LOC000150250336",
    "tech": "WIRELESS",
    "upgrade": "NULL_NA",
    "gnaf_pid": "GASA_719863242",
    "tech_change_status": "Not Planned",
    "program_type": "Fixed Wireless and Satellite Upgrade Program",
    "target_eligibility_quarter": "NA"
   }
  },
  {
   "type": "Feature",
   "geometry": {
    "type": "Point",
    "coordinates": [
     137.952198,
     -33.965166
    ]
   },
   "properties": {
    "name": "86 R BUSSENSCHUTTS ROAD THOMAS PLAIN 5554",
    "locID": "LOC000181089679",
    "tech": "WIRELESS",
    "upgrade": "NULL_NA",
    "gnaf_pid": "GASA_720090272",
    "tech_change_status": "Not Planned",
    "program_type": "Fixed Wireless and Satellite Upgrade Program",
    "target_eligibility_quarter": "NA"
   }
  }
 ]
}