{
 "type": "FeatureCollection",
 "generated": "2023-10-22T13:53:45.442450",
 "suburb": "THOMAS PLAIN",
 "features": [
  {
   "type": "Feature",
   "geometry": {
    "type": "Point",
    "coordinates": [
     137.8995833,
     -33.94090842
    ]
   },
   "properties": {
    "name": "LOT 414 G MILLARDS ROAD THOMAS PLAIN 5554",
    "locID": "LOC000150250358",
    "tech": "SATELLITE",
    "upgrade": "NULL_NA",
    "gnaf_pid": "GASA_415490807"
   }
  },
  {
   "type": "Feature",
   "geometry": {
    "type": "Point",
    "coordinates": [
     137.94758422,
     -33.91265652
    ]
   },
   "properties": {
    "name": "LOT 417 B WEHRS ROAD THOMAS PLAIN 5554",
    "locID": "Eic0MTcgQiBXZWhycyBSZCwgQnV0ZSBTQSA1NTYwLCBBdXN0cmFsaWEiMRIvChQKEgnrIyvhmvG6ahElK91Qox4EORChAyoUChIJKy0iM4zxumoRkAra223AjFc",
    "tech": "WIRELESS",
    "upgrade": "UNKNOWN",
    "gnaf_pid": "GASA_415490810"
   }
  },
  {
   "type": "Feature",
   "geometry": {
    "type": "Point",
    "coordinates": [
     137.8832767,
     -33.98850509
    ]
   },
   "properties": {
    "name": "LOT 408 PINE FOREST ROAD THOMAS PLAIN 5554",
    "locID": "LOC000152915913",
    "tech": "WIRELESS",
    "upgrade": "NULL_NA",
    "gnaf_pid": "GASA_424139856"
   }
  },
  {
   "type": "Feature",
   "geometry": {
    "type": "Point",
    "coordinates": [
     137.89765221,
     -33.91656879
    ]
   },
   "properties": {
    "name": "LOT 78 AYLES BACK ROAD THOMAS PLAIN 5554",
    "locID": "LOC000150250327",
    "tech": "SATELLITE",
    "upgrade": "NULL_NA",
    "gnaf_pid": "GASA_424287844"
   }
  },
  {
   "type": "Feature",
   "geometry": {
    "type": "Point",
    "coordinates": [
     137.96042727,
     -33.9119531
    ]
   },
   "properties": {
    "name": "LOT 89 B WEHRS ROAD THOMAS PLAIN 5554",
    "locID": "LOC000167655124",
    "tech": "WIRELESS",
    "upgrade": "NULL_NA",
    "gnaf_pid": "GASA_424287880"
   }
  },
  {
   "type": "Feature",
   "geometry": {
    "type": "Point",
    "coordinates": [
     137.88120756,
     -33.95376593
    ]
   },
   "properties": {
    "name": "LOT 15N CHURCH ROAD THOMAS PLAIN 5554",
    "locID": "LOC000150250336",
    "tech": "WIRELESS",
    "upgrade": "NULL_NA",
    "gnaf_pid": "GASA_424294561"
   }
  },
  {
   "type": "Feature",
   "geometry": {
    "type": "Point",
    "coordinates": [
     137.91161349,
     -33.97253082
    ]
   },
   "properties": {
    "name": "LOT 409 CHURCH ROAD THOMAS PLAIN 5554",
    "locID": "Ei40MDkgQ2h1cmNoIFJkLCBUaG9tYXMgUGxhaW4gU0EgNTU1NCwgQXVzdHJhbGlhIjESLwoUChIJ93awwWTtumoRWOmqijK-p6AQmQMqFAoSCXP4REt47bpqEau0MFbDTGo7",
    "tech": "SATELLITE",
    "upgrade": "UNKNOWN",
    "gnaf_pid": "GASA_424294563"
   }
  },
  {
   "type": "Feature",
   "geometry": {
    "type": "Point",
    "coordinates": [
     137.92247367,
     -33.91896387
    ]
   },
   "properties": {
    "name": "LOT 82 CHURCH ROAD THOMAS PLAIN 5554",
    "locID": "LOC000150250336",
    "tech": "WIRELESS",
    "upgrade": "NULL_NA",
    "gnaf_pid": "GASA_424294564"
   }
  },
  {
   "type": "Feature",
   "geometry": {
    "type": "Point",
    "coordinates": [
     137.88866699,
     -33.94295863
    ]
   },
   "properties": {
    "name": "LOT 72 G MILLARDS ROAD THOMAS PLAIN 5554",
    "locID": "EjE3MiBHIE1pbGxhcmRzIFJkLCBUaG9tYXMgUGxhaW4gU0EgNTU1NCwgQXVzdHJhbGlhIjASLgoUChIJ6QuAn4LtumoRzxpcdbhj9QcQSCoUChIJxzkA0Q_tumoR3E-rIStLNIs",
    "tech": "SATELLITE",
    "upgrade": "UNKNOWN",
    "gnaf_pid": "GASA_424302557"
   }
  },
  {
   "type": "Feature",
   "geometry": {
    "type": "Point",
    "coordinates": [
     137.92599423,
     -33.97831306
    ]
   },
   "properties": {
    "name": "LOT 3 J PRICE ROAD THOMAS PLAIN 5554",
    "locID": "LOC000182330011",
    "tech": "WIRELESS",
    "upgrade": "NULL_NA",
    "gnaf_pid": "GASA_424309159"
   }
  },
  {
   "type": "Feature",
   "geometry": {
    "type": "Point",
    "coordinates": [
     137.9458606,
     -33.92695594
    ]
   },
   "properties": {
    "name": "LOT 87 MCPHERSON ROAD THOMAS PLAIN 5554",
    "locID": "EjA4NyBNY1BoZXJzb24gUmQsIFRob21hcyBQbGFpbiBTQSA1NTU0LCBBdXN0cmFsaWEiMBIuChQKEgm1yXlZSPK6ahHUW6bdNgphgBBXKhQKEgl73g_IQ_K6ahG95UEs3dLlrQ",
    "tech": "SATELLITE",
    "upgrade": "UNKNOWN",
    "gnaf_pid": "GASA_424317491"
   }
  },
  {
   "type": "Feature",
   "geometry": {
    "type": "Point",
    "coordinates": [
     137.93626085,
     -33.95788618
    ]
   },
   "properties": {
    "name": "LOT 19 R BUSSENSCHUTTS ROAD THOMAS PLAIN 5554",
    "locID": "EjYxOSBSIEJ1c3NlbnNjaHV0dHMgUmQsIFRob21hcyBQbGFpbiBTQSA1NTU0LCBBdXN0cmFsaWEiMBIuChQKEgkJwXuM4_K6ahGQEYM4rcRmSxATKhQKEgl3jDdOvvK6ahEa6uVdx-AASA",
    "tech": "SATELLITE",
    "upgrade": "UNKNOWN",
    "gnaf_pid": "GASA_424327553"
   }
  },
  {
   "type": "Feature",
   "geometry": {
    "type": "Point",
    "coordinates": [
     137.94282755,
     -33.93765071
    ]
   },
   "properties": {
    "name": "94 R PRICE ROAD THOMAS PLAIN 5554",
    "locID": "LOC000161957030",
    "tech": "WIRELESS",
    "upgrade": "NULL_NA",
    "gnaf_pid": "GASA_425301815"
   }
  },
  {
   "type": "Feature",
   "geometry": {
    "type": "Point",
    "coordinates": [
     137.9117188,
     -33.90594056
    ]
   },
   "properties": {
    "name": "27 AYLES BACK ROAD THOMAS PLAIN 5554",
    "locID": "LOC000150250327",
    "tech": "SATELLITE",
    "upgrade": "NULL_NA",
    "gnaf_pid": "GASA_425302169"
   }
  },
  {
   "type": "Feature",
   "geometry": {
    "type": "Point",
    "coordinates": [
     137.95361659,
     -33.90420343
    ]
   },
   "properties": {
    "name": "221 B WEHRS ROAD THOMAS PLAIN 5554",
    "locID": "LOC000145152557",
    "tech": "WIRELESS",
    "upgrade": "NULL_NA",
    "gnaf_pid": "GASA_425302178"
   }
  },
  {
   "type": "Feature",
   "geometry": {
    "type": "Point",
    "coordinates": [
     137.92442115,
     -33.94718406
    ]
   },
   "properties": {
    "name": "753 CHURCH ROAD THOMAS PLAIN 5554",
    "locID": "LOC000150250336",
    "tech": "WIRELESS",
    "upgrade": "NULL_NA",
    "gnaf_pid": "GASA_425302786"
   }
  },
  {
   "type": "Feature",
   "geometry": {
    "type": "Point",
    "coordinates": [
     137.91032627,
     -33.9343645
    ]
   },
   "properties": {
    "name": "52 G MILLARDS ROAD THOMAS PLAIN 5554",
    "locID": "LOC000150250343",
    "tech": "SATELLITE",
    "upgrade": "NULL_NA",
    "gnaf_pid": "GASA_425303279"
   }
  },
  {
   "type": "Feature",
   "geometry": {
    "type": "Point",
    "coordinates": [
     137.91034888,
     -33.9344521
    ]
   },
   "properties": {
    "name": "53 G MILLARDS ROAD THOMAS PLAIN 5554",
    "locID": "LOC000150250358",
    "tech": "SATELLITE",
    "upgrade": "NULL_NA",
    "gnaf_pid": "GASA_425303280"
   }
  },
  {
   "type": "Feature",
   "geometry": {
    "type": "Point",
    "coordinates": [
     137.92109821,
     -33.98467686
    ]
   },
   "properties": {
    "name": "550 J PRICE ROAD THOMAS PLAIN 5554",
    "locID": "LOC000182330011",
    "tech": "WIRELESS",
    "upgrade": "NULL_NA",
    "gnaf_pid": "GASA_425303882"
   }
  },
  {
   "type": "Feature",
   "geometry": {
    "type": "Point",
    "coordinates": [
     137.93220479,
     -33.93368504
    ]
   },
   "properties": {
    "name": "382 MCPHERSON ROAD THOMAS PLAIN 5554",
    "locID": "ChIJAZv4UGXyumoRILCYHC2xnAY",
    "tech": "SATELLITE",
    "upgrade": "UNKNOWN",
    "gnaf_pid": "GASA_425304275"
   }
  },
  {
   "type": "Feature",
   "geometry": {
    "type": "Point",
    "coordinates": [
     137.96463175,
     -33.93567676
    ]
   },
   "properties": {
    "name": "82 MCPHERSON ROAD THOMAS PLAIN 5554",
    "locID": "LOC000145815253",
    "tech": "SATELLITE",
    "upgrade": "NULL_NA",
    "gnaf_pid": "GASA_425304276"
   }
  },
  {
   "type": "Feature",
   "geometry": {
    "type": "Point",
    "coordinates": [
     137.92174559,
     -33.96527708
    ]
   },
   "properties": {
    "name": "367 R BUSSENSCHUTTS ROAD THOMAS PLAIN 5554",
    "locID": "ChIJrxxAB1jtumoRDMUCXuRS_xo",
    "tech": "WIRELESS",
    "upgrade": "UNKNOWN",
    "gnaf_pid": "GASA_425304936"
   }
  },
  {
   "type": "Feature",
   "geometry": {
    "type": "Point",
    "coordinates": [
     137.90016268,
     -33.9653062
    ]
   },
   "properties": {
    "name": "147 THOMAS PLAINS-KADINA ROAD THOMAS PLAIN 5554",
    "locID": "LOC000154482251",
    "tech": "WIRELESS",
    "upgrade": "NULL_NA",
    "gnaf_pid": "GASA_425305850"
   }
  },
  {
   "type": "Feature",
   "geometry": {
    "type": "Point",
    "coordinates": [
     137.88344061,
     -33.96532204
    ]
   },
   "properties": {
    "name": "301 THOMAS PLAINS-KADINA ROAD THOMAS PLAIN 5554",
    "locID": "ChIJ-4cWNtaSumoRMnUJ_wc3QVE",
    "tech": "WIRELESS",
    "upgrade": "UNKNOWN",
    "gnaf_pid": "GASA_425305851"
   }
  },
  {
   "type": "Feature",
   "geometry": {
    "type": "Point",
    "coordinates": [
     137.909264,
     -33.965178
    ]
   },
   "properties": {
    "name": "64 THOMAS PLAINS-KADINA ROAD THOMAS PLAIN 5554",
    "locID": "LOC000153924543",
    "tech": "WIRELESS",
    "upgrade": "NULL_NA",
    "gnaf_pid": "GASA_425305852"
   }
  },
  {
   "type": "Feature",
   "geometry": {
    "type": "Point",
    "coordinates": [
     137.91547391,
     -33.96519504
    ]
   },
   "properties": {
    "name": "6 THOMAS PLAINS-KADINA ROAD THOMAS PLAIN 5554",
    "locID": "LOC000153924543",
    "tech": "WIRELESS",
    "upgrade": "NULL_NA",
    "gnaf_pid": "GASA_425305853"
   }
  },
  {
   "type": "Feature",
   "geometry": {
    "type": "Point",
    "coordinates": [
     137.99264769,
     -33.91237642
    ]
   },
   "properties": {
    "name": "1291 LIME KILN ROAD THOMAS PLAIN 5554",
    "locID": "ChIJLayN-8TzumoR463m9fHFJFc",
    "tech": "SATELLITE",
    "upgrade": "UNKNOWN",
    "gnaf_pid": "GASA_425355178"
   }
  },
  {
   "type": "Feature",
   "geometry": {
    "type": "Point",
    "coordinates": [
     137.97725353,
     -33.91234318
    ]
   },
   "properties": {
    "name": "1541 LIME KILN ROAD THOMAS PLAIN 5554",
    "locID": "LOC000144366446",
    "tech": "WIRELESS",
    "upgrade": "NULL_NA",
    "gnaf_pid": "GASA_425355179"
   }
  },
  {
   "type": "Feature",
   "geometry": {
    "type": "Point",
    "coordinates": [
     137.97740631,
     -33.91220483
    ]
   },
   "properties": {
    "name": "1542 LIME KILN ROAD THOMAS PLAIN 5554",
    "locID": "ChIJ0zffPWnxumoRYJUusko8JMc",
    "tech": "WIRELESS",
    "upgrade": "UNKNOWN",
    "gnaf_pid": "GASA_425355180"
   }
  },
  {
   "type": "Feature",
   "geometry": {
    "type": "Point",
    "coordinates": [
     137.9650682,
     -33.95938341
    ]
   },
   "properties": {
    "name": "LOT 60 LIME KILN ROAD THOMAS PLAIN 5554",
    "locID": "EitMaW1lIEtpbG4gUmQsIFBhc2tldmlsbGUgU0EgNTU1MiwgQXVzdHJhbGlhIi4qLAoUChIJBS0O0gjzumoR-ozBYlPB-r4SFAoSCbv80AEHkrpqEUDWjmJUNgME",
    "tech": "SATELLITE",
    "upgrade": "UNKNOWN",
    "gnaf_pid": "GASA_425355181"
   }
  },
  {
   "type": "Feature",
   "geometry": {
    "type": "Point",
    "coordinates": [
     137.96442188,
     -33.95055343
    ]
   },
   "properties": {
    "name": "LOT 61 LIME KILN ROAD THOMAS PLAIN 5554",
    "locID": "EitMaW1lIEtpbG4gUmQsIFBhc2tldmlsbGUgU0EgNTU1MiwgQXVzdHJhbGlhIi4qLAoUChIJBS0O0gjzumoR-ozBYlPB-r4SFAoSCbv80AEHkrpqEUDWjmJUNgME",
    "tech": "SATELLITE",
    "upgrade": "UNKNOWN",
    "gnaf_pid": "GASA_425355182"
   }
  },
  {
   "type": "Feature",
   "geometry": {
    "type": "Point",
    "coordinates": [
     137.88321447,
     -33.96520308
    ]
   },
   "properties": {
    "name": "304 THOMAS PLAINS-KADINA ROAD THOMAS PLAIN 5554",
    "locID": "ChIJG-vPNtaSumoRyUse70nMBOI",
    "tech": "WIRELESS",
    "upgrade": "UNKNOWN",
    "gnaf_pid": "GASA_425630599"
   }
  },
  {
   "type": "Feature",
   "geometry": {
    "type": "Point",
    "coordinates": [
     137.934162,
     -33.933502
    ]
   },
   "properties": {
    "name": "366 MCPHERSON ROAD THOMAS PLAIN 5554",
    "locID": "LOC000178929078",
    "tech": "SATELLITE",
    "upgrade": "NULL_NA",
    "gnaf_pid": "GASA_425722610"
   }
  },
  {
   "type": "Feature",
   "geometry": {
    "type": "Point",
    "coordinates": [
     137.89998932,
     -33.95573869
    ]
   },
   "properties": {
    "name": "LOT 6 THOMAS PLAINS-KADINA ROAD THOMAS PLAIN 5554",
    "locID": "LOC000153924543",
    "tech": "WIRELESS",
    "upgrade": "NULL_NA",
    "gnaf_pid": "GASA_719861205"
   }
  },
  {
   "type": "Feature",
   "geometry": {
    "type": "Point",
    "coordinates": [
     137.91128394,
     -33.98453373
    ]
   },
   "properties": {
    "name": "LOT 203 CHURCH ROAD THOMAS PLAIN 5554",
    "locID": "LOC000150250336",
    "tech": "WIRELESS",
    "upgrade": "NULL_NA",
    "gnaf_pid": "GASA_719863242"
   }
  },
  {
   "type": "Feature",
   "geometry": {
    "type": "Point",
    "coordinates": [
     137.952198,
     -33.965166
    ]
   },
   "properties": {
    "name": "86 R BUSSENSCHUTTS ROAD THOMAS PLAIN 5554",
    "locID": "LOC000181089679",
    "tech": "WIRELESS",
    "upgrade": "NULL_NA",
    "gnaf_pid": "GASA_720090272"
   }
  }
 ]
}