{
 "type": "FeatureCollection",
 "generated": "2024-08-11T05:47:04.325691",
 "suburb": "TOTHILL CREEK",
 "features": [
  {
   "type": "Feature",
   "geometry": {
    "type": "Point",
    "coordinates": [
     138.93484017,
     -34.04171081
    ]
   },
   "properties": {
    "name": "70 BRAEWOOD ROAD TOTHILL CREEK 5413",
    "locID": "LOC000148402995",
    "tech": "SATELLITE",
    "upgrade": "NULL_NA",
    "gnaf_pid": "GASA_425302541",
    "tech_change_status": "Not Planned"
   }
  },
  {
   "type": "Feature",
   "geometry": {
    "type": "Point",
    "coordinates": [
     138.91587987,
     -34.10583203
    ]
   },
   "properties": {
    "name": "620 QUARRY ROAD TOTHILL CREEK 5413",
    "locID": "LOC000148405064",
    "tech": "SATELLITE",
    "upgrade": "NULL_NA",
    "gnaf_pid": "GASA_425304926",
    "tech_change_status": "Not Planned"
   }
  },
  {
   "type": "Feature",
   "geometry": {
    "type": "Point",
    "coordinates": [
     138.94106451,
     -34.08812469
    ]
   },
   "properties": {
    "name": "164 SALT CREEK ROAD TOTHILL CREEK 5413",
    "locID": "LOC000148405399",
    "tech": "SATELLITE",
    "upgrade": "NULL_NA",
    "gnaf_pid": "GASA_425305287",
    "tech_change_status": "Not Planned"
   }
  },
  {
   "type": "Feature",
   "geometry": {
    "type": "Point",
    "coordinates": [
     138.92385895,
     -34.06918177
    ]
   },
   "properties": {
    "name": "68 TAYLOR LANE TOTHILL CREEK 5413",
    "locID": "LOC000148253281",
    "tech": "SATELLITE",
    "upgrade": "NULL_NA",
    "gnaf_pid": "GASA_425305756",
    "tech_change_status": "Not Planned"
   }
  },
  {
   "type": "Feature",
   "geometry": {
    "type": "Point",
    "coordinates": [
     138.91665878,
     -34.08624161
    ]
   },
   "properties": {
    "name": "147 TOTHILL BELT ROAD TOTHILL CREEK 5413",
    "locID": "LOC000148405830",
    "tech": "SATELLITE",
    "upgrade": "NULL_NA",
    "gnaf_pid": "GASA_425305907",
    "tech_change_status": "Not Planned"
   }
  },
  {
   "type": "Feature",
   "geometry": {
    "type": "Point",
    "coordinates": [
     138.9165407,
     -34.07523485
    ]
   },
   "properties": {
    "name": "268 TOTHILL BELT ROAD TOTHILL CREEK 5413",
    "locID": "LOC000148247456",
    "tech": "SATELLITE",
    "upgrade": "NULL_NA",
    "gnaf_pid": "GASA_425305908",
    "tech_change_status": "Not Planned"
   }
  },
  {
   "type": "Feature",
   "geometry": {
    "type": "Point",
    "coordinates": [
     138.91829836,
     -34.06388148
    ]
   },
   "properties": {
    "name": "398 TOTHILL BELT ROAD TOTHILL CREEK 5413",
    "locID": "LOC000148405848",
    "tech": "SATELLITE",
    "upgrade": "NULL_NA",
    "gnaf_pid": "GASA_425305909",
    "tech_change_status": "Not Planned"
   }
  },
  {
   "type": "Feature",
   "geometry": {
    "type": "Point",
    "coordinates": [
     138.92103343,
     -34.05614896
    ]
   },
   "properties": {
    "name": "488 TOTHILL BELT ROAD TOTHILL CREEK 5413",
    "locID": "LOC000148250594",
    "tech": "SATELLITE",
    "upgrade": "NULL_NA",
    "gnaf_pid": "GASA_425305910",
    "tech_change_status": "Not Planned"
   }
  },
  {
   "type": "Feature",
   "geometry": {
    "type": "Point",
    "coordinates": [
     138.941295,
     -34.102813
    ]
   },
   "properties": {
    "name": "245 TOTHILL CREEK ROAD TOTHILL CREEK 5413",
    "locID": "LOC000148405853",
    "tech": "SATELLITE",
    "upgrade": "NULL_NA",
    "gnaf_pid": "GASA_425305912",
    "tech_change_status": "Not Planned"
   }
  },
  {
   "type": "Feature",
   "geometry": {
    "type": "Point",
    "coordinates": [
     138.931836,
     -34.11781362
    ]
   },
   "properties": {
    "name": "LOT 214 REHDER ROAD TOTHILL CREEK 5413",
    "locID": "LOC100071994331",
    "tech": "SATELLITE",
    "upgrade": "NULL_NA",
    "gnaf_pid": "GASA_719858493",
    "tech_change_status": "Not Planned"
   }
  },
  {
   "type": "Feature",
   "geometry": {
    "type": "Point",
    "coordinates": [
     138.92217617,
     -34.11761981
    ]
   },
   "properties": {
    "name": "LOT 181 QUARRY ROAD TOTHILL CREEK 5413",
    "locID": "LOC000148405064",
    "tech": "SATELLITE",
    "upgrade": "NULL_NA",
    "gnaf_pid": "GASA_719859287",
    "tech_change_status": "Not Planned"
   }
  },
  {
   "type": "Feature",
   "geometry": {
    "type": "Point",
    "coordinates": [
     138.91225648,
     -34.10608317
    ]
   },
   "properties": {
    "name": "LOT 215 QUARRY ROAD TOTHILL CREEK 5413",
    "locID": "LOC000148405064",
    "tech": "SATELLITE",
    "upgrade": "NULL_NA",
    "gnaf_pid": "GASA_719859391",
    "tech_change_status": "Not Planned"
   }
  },
  {
   "type": "Feature",
   "geometry": {
    "type": "Point",
    "coordinates": [
     138.91199778,
     -34.11231813
    ]
   },
   "properties": {
    "name": "LOT 264 QUARRY ROAD TOTHILL CREEK 5413",
    "locID": "LOC000148405064",
    "tech": "SATELLITE",
    "upgrade": "NULL_NA",
    "gnaf_pid": "GASA_719859836",
    "tech_change_status": "Not Planned"
   }
  },
  {
   "type": "Feature",
   "geometry": {
    "type": "Point",
    "coordinates": [
     138.93770623,
     -34.11856482
    ]
   },
   "properties": {
    "name": "LOT 216 REHDER ROAD TOTHILL CREEK 5413",
    "locID": "LOC100071994331",
    "tech": "SATELLITE",
    "upgrade": "NULL_NA",
    "gnaf_pid": "GASA_719860363",
    "tech_change_status": "Not Planned"
   }
  },
  {
   "type": "Feature",
   "geometry": {
    "type": "Point",
    "coordinates": [
     138.93272291,
     -34.11251045
    ]
   },
   "properties": {
    "name": "LOT 231 REHDER ROAD TOTHILL CREEK 5413",
    "locID": "LOC100071994331",
    "tech": "SATELLITE",
    "upgrade": "NULL_NA",
    "gnaf_pid": "GASA_719860678",
    "tech_change_status": "Not Planned"
   }
  },
  {
   "type": "Feature",
   "geometry": {
    "type": "Point",
    "coordinates": [
     138.91257637,
     -34.11756795
    ]
   },
   "properties": {
    "name": "LOT 180 QUARRY ROAD TOTHILL CREEK 5413",
    "locID": "LOC000148405064",
    "tech": "SATELLITE",
    "upgrade": "NULL_NA",
    "gnaf_pid": "GASA_719864014",
    "tech_change_status": "Not Planned"
   }
  },
  {
   "type": "Feature",
   "geometry": {
    "type": "Point",
    "coordinates": [
     138.91967826,
     -34.09433649
    ]
   },
   "properties": {
    "name": "LOT 2 TOTHILL BELT ROAD TOTHILL CREEK 5413",
    "locID": "LOC000148405848",
    "tech": "SATELLITE",
    "upgrade": "NULL_NA",
    "gnaf_pid": "GASA_719864112",
    "tech_change_status": "Not Planned"
   }
  },
  {
   "type": "Feature",
   "geometry": {
    "type": "Point",
    "coordinates": [
     138.92211596,
     -34.11259353
    ]
   },
   "properties": {
    "name": "LOT 236 QUARRY ROAD TOTHILL CREEK 5413",
    "locID": "LOC000148405064",
    "tech": "SATELLITE",
    "upgrade": "NULL_NA",
    "gnaf_pid": "GASA_719864113",
    "tech_change_status": "Not Planned"
   }
  },
  {
   "type": "Feature",
   "geometry": {
    "type": "Point",
    "coordinates": [
     138.90813599,
     -34.10174605
    ]
   },
   "properties": {
    "name": "LOT 93 TOTHILL ROAD TOTHILL CREEK 5413",
    "locID": "LOC100071994159",
    "tech": "SATELLITE",
    "upgrade": "NULL_NA",
    "gnaf_pid": "GASA_719864660",
    "tech_change_status": "Not Planned"
   }
  }
 ]
}