{
 "type": "FeatureCollection",
 "generated": "2024-10-09T13:14:40.872314",
 "suburb": "TUNKALILLA",
 "features": [
  {
   "type": "Feature",
   "geometry": {
    "type": "Point",
    "coordinates": [
     138.30556201,
     -35.63496067
    ]
   },
   "properties": {
    "name": "LOT 2 MCGREGOR ROAD TUNKALILLA 5203",
    "locID": "LOC000028399196",
    "tech": "SATELLITE",
    "upgrade": "NULL_NA",
    "gnaf_pid": "GASA_424190929",
    "tech_change_status": "Not Planned"
   }
  },
  {
   "type": "Feature",
   "geometry": {
    "type": "Point",
    "coordinates": [
     138.35918433,
     -35.59908519
    ]
   },
   "properties": {
    "name": "LOT 388 TAYLOR ROAD TUNKALILLA 5203",
    "locID": "LOC000042224633",
    "tech": "NULL",
    "upgrade": "NULL_NA",
    "gnaf_pid": "GASA_424335655",
    "tech_change_status": "Not Planned"
   }
  },
  {
   "type": "Feature",
   "geometry": {
    "type": "Point",
    "coordinates": [
     138.3767838,
     -35.59946951
    ]
   },
   "properties": {
    "name": "560 BOLLAPARUDDA ROAD TUNKALILLA 5203",
    "locID": "LOC000060527254",
    "tech": "SATELLITE",
    "upgrade": "NULL_NA",
    "gnaf_pid": "GASA_424656085",
    "tech_change_status": "Not Planned"
   }
  },
  {
   "type": "Feature",
   "geometry": {
    "type": "Point",
    "coordinates": [
     138.377362,
     -35.604332
    ]
   },
   "properties": {
    "name": "618 BOLLAPARUDDA ROAD TUNKALILLA 5203",
    "locID": "LOC000009274500",
    "tech": "SATELLITE",
    "upgrade": "NULL_NA",
    "gnaf_pid": "GASA_424656086",
    "tech_change_status": "Not Planned"
   }
  },
  {
   "type": "Feature",
   "geometry": {
    "type": "Point",
    "coordinates": [
     138.38532116,
     -35.61504809
    ]
   },
   "properties": {
    "name": "756 BOLLAPARUDDA ROAD TUNKALILLA 5203",
    "locID": "LOC000103879655",
    "tech": "SATELLITE",
    "upgrade": "NULL_NA",
    "gnaf_pid": "GASA_424656087",
    "tech_change_status": "Not Planned"
   }
  },
  {
   "type": "Feature",
   "geometry": {
    "type": "Point",
    "coordinates": [
     138.31097439,
     -35.60618605
    ]
   },
   "properties": {
    "name": "11 MCGREGOR ROAD TUNKALILLA 5203",
    "locID": "LOC000109822797",
    "tech": "SATELLITE",
    "upgrade": "NULL_NA",
    "gnaf_pid": "GASA_424661060",
    "tech_change_status": "Not Planned"
   }
  },
  {
   "type": "Feature",
   "geometry": {
    "type": "Point",
    "coordinates": [
     138.29273291,
     -35.62099556
    ]
   },
   "properties": {
    "name": "299 MCGREGOR ROAD TUNKALILLA 5203",
    "locID": "LOC000028399196",
    "tech": "SATELLITE",
    "upgrade": "NULL_NA",
    "gnaf_pid": "GASA_424661061",
    "tech_change_status": "Not Planned"
   }
  },
  {
   "type": "Feature",
   "geometry": {
    "type": "Point",
    "coordinates": [
     138.30858743,
     -35.60623134
    ]
   },
   "properties": {
    "name": "34 MCGREGOR ROAD TUNKALILLA 5203",
    "locID": "LOC000017141853",
    "tech": "SATELLITE",
    "upgrade": "NULL_NA",
    "gnaf_pid": "GASA_424661062",
    "tech_change_status": "Not Planned"
   }
  },
  {
   "type": "Feature",
   "geometry": {
    "type": "Point",
    "coordinates": [
     138.33223709,
     -35.60207998
    ]
   },
   "properties": {
    "name": "197 RYMILL ROAD TUNKALILLA 5203",
    "locID": "LOC000044516711",
    "tech": "NULL",
    "upgrade": "NULL_NA",
    "gnaf_pid": "GASA_424664019",
    "tech_change_status": "Not Planned"
   }
  },
  {
   "type": "Feature",
   "geometry": {
    "type": "Point",
    "coordinates": [
     138.36625749,
     -35.6005829
    ]
   },
   "properties": {
    "name": "114 TAYLOR ROAD TUNKALILLA 5203",
    "locID": "LOC000042224633",
    "tech": "NULL",
    "upgrade": "NULL_NA",
    "gnaf_pid": "GASA_424665305",
    "tech_change_status": "Not Planned"
   }
  },
  {
   "type": "Feature",
   "geometry": {
    "type": "Point",
    "coordinates": [
     138.31439126,
     -35.63377816
    ]
   },
   "properties": {
    "name": "978 TUNKALILLA ROAD TUNKALILLA 5203",
    "locID": "LOC000116222444",
    "tech": "SATELLITE",
    "upgrade": "NULL_NA",
    "gnaf_pid": "GASA_424665789",
    "tech_change_status": "Not Planned"
   }
  },
  {
   "type": "Feature",
   "geometry": {
    "type": "Point",
    "coordinates": [
     138.35461722,
     -35.5913586
    ]
   },
   "properties": {
    "name": "251 TUNK HEAD ROAD TUNKALILLA 5203",
    "locID": "LOC000114191121",
    "tech": "SATELLITE",
    "upgrade": "NULL_NA",
    "gnaf_pid": "GASA_424709909",
    "tech_change_status": "Not Planned"
   }
  },
  {
   "type": "Feature",
   "geometry": {
    "type": "Point",
    "coordinates": [
     138.36352759,
     -35.61737835
    ]
   },
   "properties": {
    "name": "769 TUNK HEAD ROAD TUNKALILLA 5203",
    "locID": "LOC000114594184",
    "tech": "NULL",
    "upgrade": "NULL_NA",
    "gnaf_pid": "GASA_424815273",
    "tech_change_status": "Not Planned"
   }
  },
  {
   "type": "Feature",
   "geometry": {
    "type": "Point",
    "coordinates": [
     138.31439126,
     -35.63377816
    ]
   },
   "properties": {
    "name": "978A TUNKALILLA ROAD TUNKALILLA 5203",
    "locID": "LOC000116222463",
    "tech": "SATELLITE",
    "upgrade": "NULL_NA",
    "gnaf_pid": "GASA_424829159",
    "tech_change_status": "Not Planned"
   }
  },
  {
   "type": "Feature",
   "geometry": {
    "type": "Point",
    "coordinates": [
     138.31440288,
     -35.63377733
    ]
   },
   "properties": {
    "name": "978B TUNKALILLA ROAD TUNKALILLA 5203",
    "locID": "LOC000116222444",
    "tech": "SATELLITE",
    "upgrade": "NULL_NA",
    "gnaf_pid": "GASA_424829160",
    "tech_change_status": "Not Planned"
   }
  },
  {
   "type": "Feature",
   "geometry": {
    "type": "Point",
    "coordinates": [
     138.31441988,
     -35.63378835
    ]
   },
   "properties": {
    "name": "978D TUNKALILLA ROAD TUNKALILLA 5203",
    "locID": "LOC000116222463",
    "tech": "SATELLITE",
    "upgrade": "NULL_NA",
    "gnaf_pid": "GASA_424829162",
    "tech_change_status": "Not Planned"
   }
  },
  {
   "type": "Feature",
   "geometry": {
    "type": "Point",
    "coordinates": [
     138.28782719,
     -35.63945968
    ]
   },
   "properties": {
    "name": "LOT 396 TUNKALILLA ROAD TUNKALILLA 5203",
    "locID": "LOC000116222444",
    "tech": "SATELLITE",
    "upgrade": "NULL_NA",
    "gnaf_pid": "GASA_425849277",
    "tech_change_status": "Not Planned"
   }
  },
  {
   "type": "Feature",
   "geometry": {
    "type": "Point",
    "coordinates": [
     138.36103538,
     -35.60314632
    ]
   },
   "properties": {
    "name": "LOT 234 TUNK HEAD ROAD TUNKALILLA 5203",
    "locID": "LOC000114594184",
    "tech": "NULL",
    "upgrade": "NULL_NA",
    "gnaf_pid": "GASA_719247802",
    "tech_change_status": "Not Planned"
   }
  },
  {
   "type": "Feature",
   "geometry": {
    "type": "Point",
    "coordinates": [
     138.37334066,
     -35.60688961
    ]
   },
   "properties": {
    "name": "LOT 50 BOLLAPARUDDA ROAD TUNKALILLA 5203",
    "locID": "LOC000060527254",
    "tech": "SATELLITE",
    "upgrade": "NULL_NA",
    "gnaf_pid": "GASA_720586633",
    "tech_change_status": "Not Planned"
   }
  }
 ]
}