{
 "type": "FeatureCollection",
 "generated": "2023-10-22T14:23:19.294125",
 "suburb": "TUNKALILLA",
 "features": [
  {
   "type": "Feature",
   "geometry": {
    "type": "Point",
    "coordinates": [
     138.30556201,
     -35.63496067
    ]
   },
   "properties": {
    "name": "LOT 2 MCGREGOR ROAD TUNKALILLA 5203",
    "locID": "LOC000028399196",
    "tech": "SATELLITE",
    "upgrade": "NULL_NA",
    "gnaf_pid": "GASA_424190929"
   }
  },
  {
   "type": "Feature",
   "geometry": {
    "type": "Point",
    "coordinates": [
     138.33023364,
     -35.59541127
    ]
   },
   "properties": {
    "name": "LOT 158 ILLAWONG ROAD TUNKALILLA 5203",
    "locID": "Ei4xNTggSWxsYXdvbmcgUmQsIFR1bmthbGlsbGEgU0EgNTIwMywgQXVzdHJhbGlhIjESLwoUChIJXyd3YpFhsWoRiIa_GQ4Apz0QngEqFAoSCckJfgKFYbFqEcI3UXzV4Eq1",
    "tech": "SATELLITE",
    "upgrade": "UNKNOWN",
    "gnaf_pid": "GASA_424308986"
   }
  },
  {
   "type": "Feature",
   "geometry": {
    "type": "Point",
    "coordinates": [
     138.32997601,
     -35.60085178
    ]
   },
   "properties": {
    "name": "LOT 356 RYMILL ROAD TUNKALILLA 5203",
    "locID": "EiwzNTYgUnltaWxsIFJkLCBUdW5rYWxpbGxhIFNBIDUyMDMsIEF1c3RyYWxpYSIxEi8KFAoSCQE-UZ_kYbFqEZSb1D1jULoMEOQCKhQKEglXfcI172GxahEj8U3OL7-qlw",
    "tech": "SATELLITE",
    "upgrade": "UNKNOWN",
    "gnaf_pid": "GASA_424330647"
   }
  },
  {
   "type": "Feature",
   "geometry": {
    "type": "Point",
    "coordinates": [
     138.35918433,
     -35.59908519
    ]
   },
   "properties": {
    "name": "LOT 388 TAYLOR ROAD TUNKALILLA 5203",
    "locID": "LOC000042224633",
    "tech": "SATELLITE",
    "upgrade": "NULL_NA",
    "gnaf_pid": "GASA_424335655"
   }
  },
  {
   "type": "Feature",
   "geometry": {
    "type": "Point",
    "coordinates": [
     138.34453549,
     -35.63704613
    ]
   },
   "properties": {
    "name": "LOT 1365 TUNKALILLA ROAD TUNKALILLA 5203",
    "locID": "EjExMzY1IFR1bmthbGlsbGEgUmQsIFR1bmthbGlsbGEgU0EgNTIwMywgQXVzdHJhbGlhIjESLwoUChIJe_EeLtTYs2oRjiKd4qdyxDkQ1QoqFAoSCaXcT8EAYrFqEYeFOyVxYDX-",
    "tech": "SATELLITE",
    "upgrade": "UNKNOWN",
    "gnaf_pid": "GASA_424407237"
   }
  },
  {
   "type": "Feature",
   "geometry": {
    "type": "Point",
    "coordinates": [
     138.31645597,
     -35.63597441
    ]
   },
   "properties": {
    "name": "LOT 1371 TUNKALILLA ROAD TUNKALILLA 5203",
    "locID": "EjExMzcxIFR1bmthbGlsbGEgUmQsIFR1bmthbGlsbGEgU0EgNTIwMywgQXVzdHJhbGlhIjESLwoUChIJe_EeLtTYs2oRjiKd4qdyxDkQ2woqFAoSCaXcT8EAYrFqEYeFOyVxYDX-",
    "tech": "SATELLITE",
    "upgrade": "UNKNOWN",
    "gnaf_pid": "GASA_424407241"
   }
  },
  {
   "type": "Feature",
   "geometry": {
    "type": "Point",
    "coordinates": [
     138.3767838,
     -35.59946951
    ]
   },
   "properties": {
    "name": "560 BOLLAPARUDDA ROAD TUNKALILLA 5203",
    "locID": "LOC000060527254",
    "tech": "SATELLITE",
    "upgrade": "NULL_NA",
    "gnaf_pid": "GASA_424656085"
   }
  },
  {
   "type": "Feature",
   "geometry": {
    "type": "Point",
    "coordinates": [
     138.377362,
     -35.604332
    ]
   },
   "properties": {
    "name": "618 BOLLAPARUDDA ROAD TUNKALILLA 5203",
    "locID": "LOC000009274500",
    "tech": "SATELLITE",
    "upgrade": "NULL_NA",
    "gnaf_pid": "GASA_424656086"
   }
  },
  {
   "type": "Feature",
   "geometry": {
    "type": "Point",
    "coordinates": [
     138.38532116,
     -35.61504809
    ]
   },
   "properties": {
    "name": "756 BOLLAPARUDDA ROAD TUNKALILLA 5203",
    "locID": "LOC000103879655",
    "tech": "SATELLITE",
    "upgrade": "NULL_NA",
    "gnaf_pid": "GASA_424656087"
   }
  },
  {
   "type": "Feature",
   "geometry": {
    "type": "Point",
    "coordinates": [
     138.3246075,
     -35.59081952
    ]
   },
   "properties": {
    "name": "451 ILLAWONG ROAD TUNKALILLA 5203",
    "locID": "ChIJB4j5V_FhsWoRJvurzhoK-vs",
    "tech": "SATELLITE",
    "upgrade": "UNKNOWN",
    "gnaf_pid": "GASA_424659529"
   }
  },
  {
   "type": "Feature",
   "geometry": {
    "type": "Point",
    "coordinates": [
     138.31097439,
     -35.60618605
    ]
   },
   "properties": {
    "name": "11 MCGREGOR ROAD TUNKALILLA 5203",
    "locID": "LOC000109822797",
    "tech": "SATELLITE",
    "upgrade": "NULL_NA",
    "gnaf_pid": "GASA_424661060"
   }
  },
  {
   "type": "Feature",
   "geometry": {
    "type": "Point",
    "coordinates": [
     138.29273291,
     -35.62099556
    ]
   },
   "properties": {
    "name": "299 MCGREGOR ROAD TUNKALILLA 5203",
    "locID": "LOC000028399196",
    "tech": "SATELLITE",
    "upgrade": "NULL_NA",
    "gnaf_pid": "GASA_424661061"
   }
  },
  {
   "type": "Feature",
   "geometry": {
    "type": "Point",
    "coordinates": [
     138.30858743,
     -35.60623134
    ]
   },
   "properties": {
    "name": "34 MCGREGOR ROAD TUNKALILLA 5203",
    "locID": "LOC000017141853",
    "tech": "SATELLITE",
    "upgrade": "NULL_NA",
    "gnaf_pid": "GASA_424661062"
   }
  },
  {
   "type": "Feature",
   "geometry": {
    "type": "Point",
    "coordinates": [
     138.33376014,
     -35.60097958
    ]
   },
   "properties": {
    "name": "141 RYMILL ROAD TUNKALILLA 5203",
    "locID": "ChIJr88Q1-VhsWoRb-L36ekYAkQ",
    "tech": "SATELLITE",
    "upgrade": "UNKNOWN",
    "gnaf_pid": "GASA_424664018"
   }
  },
  {
   "type": "Feature",
   "geometry": {
    "type": "Point",
    "coordinates": [
     138.33223709,
     -35.60207998
    ]
   },
   "properties": {
    "name": "197 RYMILL ROAD TUNKALILLA 5203",
    "locID": "LOC000044516711",
    "tech": "SATELLITE",
    "upgrade": "NULL_NA",
    "gnaf_pid": "GASA_424664019"
   }
  },
  {
   "type": "Feature",
   "geometry": {
    "type": "Point",
    "coordinates": [
     138.36625749,
     -35.6005829
    ]
   },
   "properties": {
    "name": "114 TAYLOR ROAD TUNKALILLA 5203",
    "locID": "LOC000042224633",
    "tech": "SATELLITE",
    "upgrade": "NULL_NA",
    "gnaf_pid": "GASA_424665305"
   }
  },
  {
   "type": "Feature",
   "geometry": {
    "type": "Point",
    "coordinates": [
     138.31439126,
     -35.63377816
    ]
   },
   "properties": {
    "name": "978 TUNKALILLA ROAD TUNKALILLA 5203",
    "locID": "LOC000116222444",
    "tech": "SATELLITE",
    "upgrade": "NULL_NA",
    "gnaf_pid": "GASA_424665789"
   }
  },
  {
   "type": "Feature",
   "geometry": {
    "type": "Point",
    "coordinates": [
     138.37386436,
     -35.57923628
    ]
   },
   "properties": {
    "name": "208 WOODLANDS ROAD TUNKALILLA 5203",
    "locID": "EidXb29kbGFuZHMgUmQsIFBhcmF3YSBTQSA1MjAzLCBBdXN0cmFsaWEiLiosChQKEglVJUmM6WCxahExylro1OSZ7BIUChIJ6dtY--tmsWoRUPmOYlQ2AwQ",
    "tech": "SATELLITE",
    "upgrade": "UNKNOWN",
    "gnaf_pid": "GASA_424666558"
   }
  },
  {
   "type": "Feature",
   "geometry": {
    "type": "Point",
    "coordinates": [
     138.35461722,
     -35.5913586
    ]
   },
   "properties": {
    "name": "251 TUNK HEAD ROAD TUNKALILLA 5203",
    "locID": "LOC000114191121",
    "tech": "SATELLITE",
    "upgrade": "NULL_NA",
    "gnaf_pid": "GASA_424709909"
   }
  },
  {
   "type": "Feature",
   "geometry": {
    "type": "Point",
    "coordinates": [
     138.36352759,
     -35.61737835
    ]
   },
   "properties": {
    "name": "769 TUNK HEAD ROAD TUNKALILLA 5203",
    "locID": "LOC000114594184",
    "tech": "SATELLITE",
    "upgrade": "NULL_NA",
    "gnaf_pid": "GASA_424815273"
   }
  },
  {
   "type": "Feature",
   "geometry": {
    "type": "Point",
    "coordinates": [
     138.31439126,
     -35.63377816
    ]
   },
   "properties": {
    "name": "978A TUNKALILLA ROAD TUNKALILLA 5203",
    "locID": "LOC000116222463",
    "tech": "SATELLITE",
    "upgrade": "NULL_NA",
    "gnaf_pid": "GASA_424829159"
   }
  },
  {
   "type": "Feature",
   "geometry": {
    "type": "Point",
    "coordinates": [
     138.31440288,
     -35.63377733
    ]
   },
   "properties": {
    "name": "978B TUNKALILLA ROAD TUNKALILLA 5203",
    "locID": "LOC000116222444",
    "tech": "SATELLITE",
    "upgrade": "NULL_NA",
    "gnaf_pid": "GASA_424829160"
   }
  },
  {
   "type": "Feature",
   "geometry": {
    "type": "Point",
    "coordinates": [
     138.31441277,
     -35.63378464
    ]
   },
   "properties": {
    "name": "978C TUNKALILLA ROAD TUNKALILLA 5203",
    "locID": "ChIJX2GUtyXfs2oR-NKEnuYdGLQ",
    "tech": "SATELLITE",
    "upgrade": "UNKNOWN",
    "gnaf_pid": "GASA_424829161"
   }
  },
  {
   "type": "Feature",
   "geometry": {
    "type": "Point",
    "coordinates": [
     138.31441988,
     -35.63378835
    ]
   },
   "properties": {
    "name": "978D TUNKALILLA ROAD TUNKALILLA 5203",
    "locID": "LOC000116222463",
    "tech": "SATELLITE",
    "upgrade": "NULL_NA",
    "gnaf_pid": "GASA_424829162"
   }
  },
  {
   "type": "Feature",
   "geometry": {
    "type": "Point",
    "coordinates": [
     138.28782719,
     -35.63945968
    ]
   },
   "properties": {
    "name": "LOT 396 TUNKALILLA ROAD TUNKALILLA 5203",
    "locID": "LOC000116222444",
    "tech": "SATELLITE",
    "upgrade": "NULL_NA",
    "gnaf_pid": "GASA_425849277"
   }
  },
  {
   "type": "Feature",
   "geometry": {
    "type": "Point",
    "coordinates": [
     138.35721294,
     -35.60054894
    ]
   },
   "properties": {
    "name": "LOT 413 TUNK HEAD ROAD TUNKALILLA 5203",
    "locID": "LOC000067240578",
    "tech": "SATELLITE",
    "upgrade": "NULL_NA",
    "gnaf_pid": "GASA_719247013"
   }
  },
  {
   "type": "Feature",
   "geometry": {
    "type": "Point",
    "coordinates": [
     138.36103538,
     -35.60314632
    ]
   },
   "properties": {
    "name": "LOT 234 TUNK HEAD ROAD TUNKALILLA 5203",
    "locID": "LOC000114594184",
    "tech": "SATELLITE",
    "upgrade": "NULL_NA",
    "gnaf_pid": "GASA_719247802"
   }
  },
  {
   "type": "Feature",
   "geometry": {
    "type": "Point",
    "coordinates": [
     138.35470702,
     -35.59358961
    ]
   },
   "properties": {
    "name": "LOT 352 TUNK HEAD ROAD TUNKALILLA 5203",
    "locID": "Ei8zNTIgVHVuayBIZWFkIFJkLCBUdW5rYWxpbGxhIFNBIDUyMDMsIEF1c3RyYWxpYSIxEi8KFAoSCTdMqLrMYbFqETZYvGo4UwS6EOACKhQKEgkzqgqlUWCxahERZFnDQ7uLhA",
    "tech": "SATELLITE",
    "upgrade": "UNKNOWN",
    "gnaf_pid": "GASA_719249807"
   }
  },
  {
   "type": "Feature",
   "geometry": {
    "type": "Point",
    "coordinates": [
     138.359829,
     -35.609553
    ]
   },
   "properties": {
    "name": "663 TUNK HEAD ROAD TUNKALILLA 5203",
    "locID": "ChIJhShYuzJgsWoRov7uJROWQ7E",
    "tech": "SATELLITE",
    "upgrade": "UNKNOWN",
    "gnaf_pid": "GASA_720186140"
   }
  },
  {
   "type": "Feature",
   "geometry": {
    "type": "Point",
    "coordinates": [
     138.37334066,
     -35.60688961
    ]
   },
   "properties": {
    "name": "LOT 50 BOLLAPARUDDA ROAD TUNKALILLA 5203",
    "locID": "LOC000060527254",
    "tech": "SATELLITE",
    "upgrade": "NULL_NA",
    "gnaf_pid": "GASA_720586633"
   }
  },
  {
   "type": "Feature",
   "geometry": {
    "type": "Point",
    "coordinates": [
     138.39057697,
     -35.61786016
    ]
   },
   "properties": {
    "name": "1354 MOUNT SCRUB ROAD TUNKALILLA 5203",
    "locID": "ChIJG1wGxQ1gsWoR2_HoPJRXvCs",
    "tech": "SATELLITE",
    "upgrade": "UNKNOWN",
    "gnaf_pid": "GASA_721008203"
   }
  }
 ]
}