{
 "type": "FeatureCollection",
 "generated": "2024-07-23T08:49:13.630981",
 "suburb": "WHYTE YARCOWIE",
 "features": [
  {
   "type": "Feature",
   "geometry": {
    "type": "Point",
    "coordinates": [
     138.88525978,
     -33.23018468
    ]
   },
   "properties": {
    "name": "LOT 95 THIRD STREET WHYTE YARCOWIE 5420",
    "locID": "LOC000109694520",
    "tech": "SATELLITE",
    "upgrade": "NULL_NA",
    "gnaf_pid": "GASA_424141898",
    "tech_change_status": "Not Planned"
   }
  },
  {
   "type": "Feature",
   "geometry": {
    "type": "Point",
    "coordinates": [
     138.88615864,
     -33.2291728
    ]
   },
   "properties": {
    "name": "LOT 251 SECOND STREET WHYTE YARCOWIE 5420",
    "locID": "LOC000131513434",
    "tech": "SATELLITE",
    "upgrade": "NULL_NA",
    "gnaf_pid": "GASA_424208830",
    "tech_change_status": "Not Planned"
   }
  },
  {
   "type": "Feature",
   "geometry": {
    "type": "Point",
    "coordinates": [
     138.88717429,
     -33.23276332
    ]
   },
   "properties": {
    "name": "LOT 3 SOUTH TERRACE WHYTE YARCOWIE 5420",
    "locID": "LOC000108770315",
    "tech": "SATELLITE",
    "upgrade": "NULL_NA",
    "gnaf_pid": "GASA_424211158",
    "tech_change_status": "Not Planned"
   }
  },
  {
   "type": "Feature",
   "geometry": {
    "type": "Point",
    "coordinates": [
     138.88706073,
     -33.22948967
    ]
   },
   "properties": {
    "name": "LOT 116 THIRD STREET WHYTE YARCOWIE 5420",
    "locID": "LOC000109694520",
    "tech": "SATELLITE",
    "upgrade": "NULL_NA",
    "gnaf_pid": "GASA_424215401",
    "tech_change_status": "Not Planned"
   }
  },
  {
   "type": "Feature",
   "geometry": {
    "type": "Point",
    "coordinates": [
     138.88615966,
     -33.22974772
    ]
   },
   "properties": {
    "name": "LOT 252 THIRD STREET WHYTE YARCOWIE 5420",
    "locID": "LOC000109694520",
    "tech": "SATELLITE",
    "upgrade": "NULL_NA",
    "gnaf_pid": "GASA_424215402",
    "tech_change_status": "Not Planned"
   }
  },
  {
   "type": "Feature",
   "geometry": {
    "type": "Point",
    "coordinates": [
     138.84081893,
     -33.24335642
    ]
   },
   "properties": {
    "name": "LOT 60 ANGLE ROAD WHYTE YARCOWIE 5420",
    "locID": "LOC000150253364",
    "tech": "SATELLITE",
    "upgrade": "NULL_NA",
    "gnaf_pid": "GASA_424287247",
    "tech_change_status": "Not Planned"
   }
  },
  {
   "type": "Feature",
   "geometry": {
    "type": "Point",
    "coordinates": [
     138.85047835,
     -33.2501275
    ]
   },
   "properties": {
    "name": "LOT 75 ANGLE ROAD WHYTE YARCOWIE 5420",
    "locID": "LOC000150253364",
    "tech": "SATELLITE",
    "upgrade": "NULL_NA",
    "gnaf_pid": "GASA_424287248",
    "tech_change_status": "Not Planned"
   }
  },
  {
   "type": "Feature",
   "geometry": {
    "type": "Point",
    "coordinates": [
     138.88876353,
     -33.23233252
    ]
   },
   "properties": {
    "name": "LOT 1 SOUTH TERRACE WHYTE YARCOWIE 5420",
    "locID": "LOC000108770315",
    "tech": "SATELLITE",
    "upgrade": "NULL_NA",
    "gnaf_pid": "GASA_424333420",
    "tech_change_status": "Not Planned"
   }
  },
  {
   "type": "Feature",
   "geometry": {
    "type": "Point",
    "coordinates": [
     138.8439728,
     -33.30150744
    ]
   },
   "properties": {
    "name": "LOT 2 MERINO ROAD WHYTE YARCOWIE 5420",
    "locID": "LOC000111815558",
    "tech": "SATELLITE",
    "upgrade": "NULL_NA",
    "gnaf_pid": "GASA_424522513",
    "tech_change_status": "Not Planned"
   }
  },
  {
   "type": "Feature",
   "geometry": {
    "type": "Point",
    "coordinates": [
     138.83956382,
     -33.23577173
    ]
   },
   "properties": {
    "name": "LOT 8 ANGLE ROAD WHYTE YARCOWIE 5420",
    "locID": "LOC000150253364",
    "tech": "SATELLITE",
    "upgrade": "NULL_NA",
    "gnaf_pid": "GASA_424557433",
    "tech_change_status": "Not Planned"
   }
  },
  {
   "type": "Feature",
   "geometry": {
    "type": "Point",
    "coordinates": [
     138.88824703,
     -33.22929084
    ]
   },
   "properties": {
    "name": "LOT 82 FIFTH STREET WHYTE YARCOWIE 5420",
    "locID": "LOC000109383435",
    "tech": "SATELLITE",
    "upgrade": "NULL_NA",
    "gnaf_pid": "GASA_424605470",
    "tech_change_status": "Not Planned"
   }
  },
  {
   "type": "Feature",
   "geometry": {
    "type": "Point",
    "coordinates": [
     138.8326473,
     -33.2380427
    ]
   },
   "properties": {
    "name": "397 ANGLE ROAD WHYTE YARCOWIE 5420",
    "locID": "LOC000150253364",
    "tech": "SATELLITE",
    "upgrade": "NULL_NA",
    "gnaf_pid": "GASA_425302094",
    "tech_change_status": "Not Planned"
   }
  },
  {
   "type": "Feature",
   "geometry": {
    "type": "Point",
    "coordinates": [
     138.81207925,
     -33.16867542
    ]
   },
   "properties": {
    "name": "2009 BOOBOROWIE ROAD WHYTE YARCOWIE 5420",
    "locID": "LOC100024179808",
    "tech": "SATELLITE",
    "upgrade": "NULL_NA",
    "gnaf_pid": "GASA_425302471",
    "tech_change_status": "Not Planned"
   }
  },
  {
   "type": "Feature",
   "geometry": {
    "type": "Point",
    "coordinates": [
     138.80736094,
     -33.22752658
    ]
   },
   "properties": {
    "name": "2671 BOOBOROWIE ROAD WHYTE YARCOWIE 5420",
    "locID": "LOC000150253372",
    "tech": "SATELLITE",
    "upgrade": "NULL_NA",
    "gnaf_pid": "GASA_425302472",
    "tech_change_status": "Not Planned"
   }
  },
  {
   "type": "Feature",
   "geometry": {
    "type": "Point",
    "coordinates": [
     138.9441703,
     -33.20137217
    ]
   },
   "properties": {
    "name": "456 MUNJIBBIE ROAD WHYTE YARCOWIE 5420",
    "locID": "LOC100015890540",
    "tech": "SATELLITE",
    "upgrade": "NULL_NA",
    "gnaf_pid": "GASA_425304483",
    "tech_change_status": "Not Planned"
   }
  },
  {
   "type": "Feature",
   "geometry": {
    "type": "Point",
    "coordinates": [
     138.88285537,
     -33.19079971
    ]
   },
   "properties": {
    "name": "487 NEATHVALE ROAD WHYTE YARCOWIE 5420",
    "locID": "LOC000150253386",
    "tech": "SATELLITE",
    "upgrade": "NULL_NA",
    "gnaf_pid": "GASA_425304538",
    "tech_change_status": "Not Planned"
   }
  },
  {
   "type": "Feature",
   "geometry": {
    "type": "Point",
    "coordinates": [
     138.8952168,
     -33.22875264
    ]
   },
   "properties": {
    "name": "106 SECOND STREET WHYTE YARCOWIE 5420",
    "locID": "LOC100071967492",
    "tech": "SATELLITE",
    "upgrade": "NULL_NA",
    "gnaf_pid": "GASA_425305378",
    "tech_change_status": "Not Planned"
   }
  },
  {
   "type": "Feature",
   "geometry": {
    "type": "Point",
    "coordinates": [
     138.82254158,
     -33.27207876
    ]
   },
   "properties": {
    "name": "541 SUNSHINE ROAD WHYTE YARCOWIE 5420",
    "locID": "LOC100071968007",
    "tech": "SATELLITE",
    "upgrade": "NULL_NA",
    "gnaf_pid": "GASA_425305702",
    "tech_change_status": "Not Planned"
   }
  },
  {
   "type": "Feature",
   "geometry": {
    "type": "Point",
    "coordinates": [
     138.79596343,
     -33.27017858
    ]
   },
   "properties": {
    "name": "792 SUNSHINE ROAD WHYTE YARCOWIE 5420",
    "locID": "LOC000150253393",
    "tech": "SATELLITE",
    "upgrade": "NULL_NA",
    "gnaf_pid": "GASA_425305704",
    "tech_change_status": "Not Planned"
   }
  },
  {
   "type": "Feature",
   "geometry": {
    "type": "Point",
    "coordinates": [
     138.79566791,
     -33.27044988
    ]
   },
   "properties": {
    "name": "797 SUNSHINE ROAD WHYTE YARCOWIE 5420",
    "locID": "LOC000150253408",
    "tech": "SATELLITE",
    "upgrade": "NULL_NA",
    "gnaf_pid": "GASA_425305705",
    "tech_change_status": "Not Planned"
   }
  },
  {
   "type": "Feature",
   "geometry": {
    "type": "Point",
    "coordinates": [
     138.83032741,
     -33.23441567
    ]
   },
   "properties": {
    "name": "546 WHYTE ROAD WHYTE YARCOWIE 5420",
    "locID": "LOC000150253412",
    "tech": "SATELLITE",
    "upgrade": "NULL_NA",
    "gnaf_pid": "GASA_425306268",
    "tech_change_status": "Not Planned"
   }
  },
  {
   "type": "Feature",
   "geometry": {
    "type": "Point",
    "coordinates": [
     138.88635426,
     -33.22587115
    ]
   },
   "properties": {
    "name": "8 WHYTE ROAD WHYTE YARCOWIE 5420",
    "locID": "LOC000109648227",
    "tech": "SATELLITE",
    "upgrade": "NULL_NA",
    "gnaf_pid": "GASA_425306270",
    "tech_change_status": "Not Planned"
   }
  },
  {
   "type": "Feature",
   "geometry": {
    "type": "Point",
    "coordinates": [
     138.84185701,
     -33.28525613
    ]
   },
   "properties": {
    "name": "LOT 89 SUNSHINE ROAD WHYTE YARCOWIE 5420",
    "locID": "LOC000142389384",
    "tech": "SATELLITE",
    "upgrade": "NULL_NA",
    "gnaf_pid": "GASA_718985600",
    "tech_change_status": "Not Planned"
   }
  },
  {
   "type": "Feature",
   "geometry": {
    "type": "Point",
    "coordinates": [
     138.93287209,
     -33.18663679
    ]
   },
   "properties": {
    "name": "LOT 150 MUNJIBBIE ROAD WHYTE YARCOWIE 5420",
    "locID": "LOC100078079839",
    "tech": "SATELLITE",
    "upgrade": "NULL_NA",
    "gnaf_pid": "GASA_719394930",
    "tech_change_status": "Not Planned"
   }
  },
  {
   "type": "Feature",
   "geometry": {
    "type": "Point",
    "coordinates": [
     138.82173338,
     -33.21646254
    ]
   },
   "properties": {
    "name": "LOT 596 BOOBOROWIE ROAD WHYTE YARCOWIE 5420",
    "locID": "LOC100024179808",
    "tech": "SATELLITE",
    "upgrade": "NULL_NA",
    "gnaf_pid": "GASA_719858660",
    "tech_change_status": "Not Planned"
   }
  },
  {
   "type": "Feature",
   "geometry": {
    "type": "Point",
    "coordinates": [
     138.88733978,
     -33.22790618
    ]
   },
   "properties": {
    "name": "LOT 612 MAIN ROAD WHYTE YARCOWIE 5420",
    "locID": "LOC000109648227",
    "tech": "SATELLITE",
    "upgrade": "NULL_NA",
    "gnaf_pid": "GASA_719859375",
    "tech_change_status": "Not Planned"
   }
  },
  {
   "type": "Feature",
   "geometry": {
    "type": "Point",
    "coordinates": [
     138.87292248,
     -33.22957368
    ]
   },
   "properties": {
    "name": "LOT 497 WHYTE ROAD WHYTE YARCOWIE 5420",
    "locID": "LOC000150253412",
    "tech": "SATELLITE",
    "upgrade": "NULL_NA",
    "gnaf_pid": "GASA_719860738",
    "tech_change_status": "Not Planned"
   }
  },
  {
   "type": "Feature",
   "geometry": {
    "type": "Point",
    "coordinates": [
     138.85343641,
     -33.28744724
    ]
   },
   "properties": {
    "name": "LOT 91 SUNSHINE ROAD WHYTE YARCOWIE 5420",
    "locID": "LOC000142389384",
    "tech": "SATELLITE",
    "upgrade": "NULL_NA",
    "gnaf_pid": "GASA_719861187",
    "tech_change_status": "Not Planned"
   }
  },
  {
   "type": "Feature",
   "geometry": {
    "type": "Point",
    "coordinates": [
     138.88857887,
     -33.22763843
    ]
   },
   "properties": {
    "name": "LOT 610 FIFTH STREET WHYTE YARCOWIE 5420",
    "locID": "LOC000175104673",
    "tech": "SATELLITE",
    "upgrade": "NULL_NA",
    "gnaf_pid": "GASA_719863487",
    "tech_change_status": "Not Planned"
   }
  },
  {
   "type": "Feature",
   "geometry": {
    "type": "Point",
    "coordinates": [
     138.83998321,
     -33.16971102
    ]
   },
   "properties": {
    "name": "LOT 2 BOOBOROWIE ROAD WHYTE YARCOWIE 5420",
    "locID": "LOC100024179808",
    "tech": "SATELLITE",
    "upgrade": "NULL_NA",
    "gnaf_pid": "GASA_719864442",
    "tech_change_status": "Not Planned"
   }
  },
  {
   "type": "Feature",
   "geometry": {
    "type": "Point",
    "coordinates": [
     138.87999377,
     -33.22659726
    ]
   },
   "properties": {
    "name": "LOT 91 WHYTE ROAD WHYTE YARCOWIE 5420",
    "locID": "LOC000150253412",
    "tech": "SATELLITE",
    "upgrade": "NULL_NA",
    "gnaf_pid": "GASA_719864663",
    "tech_change_status": "Not Planned"
   }
  },
  {
   "type": "Feature",
   "geometry": {
    "type": "Point",
    "coordinates": [
     138.88604875,
     -33.22851237
    ]
   },
   "properties": {
    "name": "5 SECOND STREET WHYTE YARCOWIE 5420",
    "locID": "LOC100071967492",
    "tech": "SATELLITE",
    "upgrade": "NULL_NA",
    "gnaf_pid": "GASA_721109986",
    "tech_change_status": "Not Planned"
   }
  },
  {
   "type": "Feature",
   "geometry": {
    "type": "Point",
    "coordinates": [
     138.88447117,
     -33.23120879
    ]
   },
   "properties": {
    "name": "1 WEST TERRACE WHYTE YARCOWIE 5420",
    "locID": "LOC000108770315",
    "tech": "SATELLITE",
    "upgrade": "NULL_NA",
    "gnaf_pid": "GASA_721111327",
    "tech_change_status": "Not Planned"
   }
  },
  {
   "type": "Feature",
   "geometry": {
    "type": "Point",
    "coordinates": [
     138.88446696,
     -33.22949555
    ]
   },
   "properties": {
    "name": "2 SECOND STREET WHYTE YARCOWIE 5420",
    "locID": "LOC000131513434",
    "tech": "SATELLITE",
    "upgrade": "NULL_NA",
    "gnaf_pid": "GASA_721112143",
    "tech_change_status": "Not Planned"
   }
  },
  {
   "type": "Feature",
   "geometry": {
    "type": "Point",
    "coordinates": [
     138.89844299,
     -33.17341308
    ]
   },
   "properties": {
    "name": "LOT 33 NEATHVALE ROAD WHYTE YARCOWIE 5420",
    "locID": "LOC000150253386",
    "tech": "SATELLITE",
    "upgrade": "NULL_NA",
    "gnaf_pid": "GASA_721276694",
    "tech_change_status": "Not Planned"
   }
  }
 ]
}