{
 "type": "FeatureCollection",
 "generated": "2024-02-15T12:02:52.653504",
 "suburb": "WHYTE YARCOWIE",
 "features": [
  {
   "type": "Feature",
   "geometry": {
    "type": "Point",
    "coordinates": [
     138.88525978,
     -33.23018468
    ]
   },
   "properties": {
    "name": "LOT 95 THIRD STREET WHYTE YARCOWIE 5420",
    "locID": "LOC000109694520",
    "tech": "SATELLITE",
    "upgrade": "NULL_NA",
    "gnaf_pid": "GASA_424141898"
   }
  },
  {
   "type": "Feature",
   "geometry": {
    "type": "Point",
    "coordinates": [
     138.8861359,
     -33.22915825
    ]
   },
   "properties": {
    "name": "LOT 251 SECOND STREET WHYTE YARCOWIE 5420",
    "locID": "LOC000131513434",
    "tech": "SATELLITE",
    "upgrade": "NULL_NA",
    "gnaf_pid": "GASA_424208830"
   }
  },
  {
   "type": "Feature",
   "geometry": {
    "type": "Point",
    "coordinates": [
     138.88715013,
     -33.23274258
    ]
   },
   "properties": {
    "name": "LOT 3 SOUTH TERRACE WHYTE YARCOWIE 5420",
    "locID": "LOC000108770315",
    "tech": "SATELLITE",
    "upgrade": "NULL_NA",
    "gnaf_pid": "GASA_424211158"
   }
  },
  {
   "type": "Feature",
   "geometry": {
    "type": "Point",
    "coordinates": [
     138.88704016,
     -33.2294762
    ]
   },
   "properties": {
    "name": "LOT 116 THIRD STREET WHYTE YARCOWIE 5420",
    "locID": "LOC000109694520",
    "tech": "SATELLITE",
    "upgrade": "NULL_NA",
    "gnaf_pid": "GASA_424215401"
   }
  },
  {
   "type": "Feature",
   "geometry": {
    "type": "Point",
    "coordinates": [
     138.88613607,
     -33.22972895
    ]
   },
   "properties": {
    "name": "LOT 252 THIRD STREET WHYTE YARCOWIE 5420",
    "locID": "LOC000109694520",
    "tech": "SATELLITE",
    "upgrade": "NULL_NA",
    "gnaf_pid": "GASA_424215402"
   }
  },
  {
   "type": "Feature",
   "geometry": {
    "type": "Point",
    "coordinates": [
     138.8408468,
     -33.24336644
    ]
   },
   "properties": {
    "name": "LOT 60 ANGLE ROAD WHYTE YARCOWIE 5420",
    "locID": "LOC000150253364",
    "tech": "SATELLITE",
    "upgrade": "NULL_NA",
    "gnaf_pid": "GASA_424287247"
   }
  },
  {
   "type": "Feature",
   "geometry": {
    "type": "Point",
    "coordinates": [
     138.85038919,
     -33.25020561
    ]
   },
   "properties": {
    "name": "LOT 75 ANGLE ROAD WHYTE YARCOWIE 5420",
    "locID": "LOC000150253364",
    "tech": "SATELLITE",
    "upgrade": "NULL_NA",
    "gnaf_pid": "GASA_424287248"
   }
  },
  {
   "type": "Feature",
   "geometry": {
    "type": "Point",
    "coordinates": [
     138.88874639,
     -33.23231295
    ]
   },
   "properties": {
    "name": "LOT 1 SOUTH TERRACE WHYTE YARCOWIE 5420",
    "locID": "LOC000108770315",
    "tech": "SATELLITE",
    "upgrade": "NULL_NA",
    "gnaf_pid": "GASA_424333420"
   }
  },
  {
   "type": "Feature",
   "geometry": {
    "type": "Point",
    "coordinates": [
     138.84389524,
     -33.30163645
    ]
   },
   "properties": {
    "name": "LOT 2 MERINO ROAD WHYTE YARCOWIE 5420",
    "locID": "LOC000111815558",
    "tech": "SATELLITE",
    "upgrade": "NULL_NA",
    "gnaf_pid": "GASA_424522513"
   }
  },
  {
   "type": "Feature",
   "geometry": {
    "type": "Point",
    "coordinates": [
     138.83952603,
     -33.23580859
    ]
   },
   "properties": {
    "name": "LOT 8 ANGLE ROAD WHYTE YARCOWIE 5420",
    "locID": "LOC000150253364",
    "tech": "SATELLITE",
    "upgrade": "NULL_NA",
    "gnaf_pid": "GASA_424557433"
   }
  },
  {
   "type": "Feature",
   "geometry": {
    "type": "Point",
    "coordinates": [
     138.88824703,
     -33.22929084
    ]
   },
   "properties": {
    "name": "LOT 82 FIFTH STREET WHYTE YARCOWIE 5420",
    "locID": "LOC000109383435",
    "tech": "SATELLITE",
    "upgrade": "NULL_NA",
    "gnaf_pid": "GASA_424605470"
   }
  },
  {
   "type": "Feature",
   "geometry": {
    "type": "Point",
    "coordinates": [
     138.8326473,
     -33.2380427
    ]
   },
   "properties": {
    "name": "397 ANGLE ROAD WHYTE YARCOWIE 5420",
    "locID": "LOC000150253364",
    "tech": "SATELLITE",
    "upgrade": "NULL_NA",
    "gnaf_pid": "GASA_425302094"
   }
  },
  {
   "type": "Feature",
   "geometry": {
    "type": "Point",
    "coordinates": [
     138.81207925,
     -33.16867542
    ]
   },
   "properties": {
    "name": "2009 BOOBOROWIE ROAD WHYTE YARCOWIE 5420",
    "locID": "LOC100024179808",
    "tech": "SATELLITE",
    "upgrade": "NULL_NA",
    "gnaf_pid": "GASA_425302471"
   }
  },
  {
   "type": "Feature",
   "geometry": {
    "type": "Point",
    "coordinates": [
     138.80736094,
     -33.22752658
    ]
   },
   "properties": {
    "name": "2671 BOOBOROWIE ROAD WHYTE YARCOWIE 5420",
    "locID": "LOC000150253372",
    "tech": "SATELLITE",
    "upgrade": "NULL_NA",
    "gnaf_pid": "GASA_425302472"
   }
  },
  {
   "type": "Feature",
   "geometry": {
    "type": "Point",
    "coordinates": [
     138.9441703,
     -33.20137217
    ]
   },
   "properties": {
    "name": "456 MUNJIBBIE ROAD WHYTE YARCOWIE 5420",
    "locID": "LOC100015890540",
    "tech": "SATELLITE",
    "upgrade": "NULL_NA",
    "gnaf_pid": "GASA_425304483"
   }
  },
  {
   "type": "Feature",
   "geometry": {
    "type": "Point",
    "coordinates": [
     138.88285537,
     -33.19079971
    ]
   },
   "properties": {
    "name": "487 NEATHVALE ROAD WHYTE YARCOWIE 5420",
    "locID": "LOC000150253386",
    "tech": "SATELLITE",
    "upgrade": "NULL_NA",
    "gnaf_pid": "GASA_425304538"
   }
  },
  {
   "type": "Feature",
   "geometry": {
    "type": "Point",
    "coordinates": [
     138.8952168,
     -33.22875264
    ]
   },
   "properties": {
    "name": "106 SECOND STREET WHYTE YARCOWIE 5420",
    "locID": "LOC100071967492",
    "tech": "SATELLITE",
    "upgrade": "NULL_NA",
    "gnaf_pid": "GASA_425305378"
   }
  },
  {
   "type": "Feature",
   "geometry": {
    "type": "Point",
    "coordinates": [
     138.82254158,
     -33.27207876
    ]
   },
   "properties": {
    "name": "541 SUNSHINE ROAD WHYTE YARCOWIE 5420",
    "locID": "LOC100071968007",
    "tech": "SATELLITE",
    "upgrade": "NULL_NA",
    "gnaf_pid": "GASA_425305702"
   }
  },
  {
   "type": "Feature",
   "geometry": {
    "type": "Point",
    "coordinates": [
     138.79596343,
     -33.27017858
    ]
   },
   "properties": {
    "name": "792 SUNSHINE ROAD WHYTE YARCOWIE 5420",
    "locID": "LOC000150253393",
    "tech": "SATELLITE",
    "upgrade": "NULL_NA",
    "gnaf_pid": "GASA_425305704"
   }
  },
  {
   "type": "Feature",
   "geometry": {
    "type": "Point",
    "coordinates": [
     138.79566791,
     -33.27044988
    ]
   },
   "properties": {
    "name": "797 SUNSHINE ROAD WHYTE YARCOWIE 5420",
    "locID": "LOC000150253408",
    "tech": "SATELLITE",
    "upgrade": "NULL_NA",
    "gnaf_pid": "GASA_425305705"
   }
  },
  {
   "type": "Feature",
   "geometry": {
    "type": "Point",
    "coordinates": [
     138.83032741,
     -33.23441567
    ]
   },
   "properties": {
    "name": "546 WHYTE ROAD WHYTE YARCOWIE 5420",
    "locID": "LOC000150253412",
    "tech": "SATELLITE",
    "upgrade": "NULL_NA",
    "gnaf_pid": "GASA_425306268"
   }
  },
  {
   "type": "Feature",
   "geometry": {
    "type": "Point",
    "coordinates": [
     138.88635426,
     -33.22587115
    ]
   },
   "properties": {
    "name": "8 WHYTE ROAD WHYTE YARCOWIE 5420",
    "locID": "LOC000109648227",
    "tech": "SATELLITE",
    "upgrade": "NULL_NA",
    "gnaf_pid": "GASA_425306270"
   }
  },
  {
   "type": "Feature",
   "geometry": {
    "type": "Point",
    "coordinates": [
     138.84179064,
     -33.28541871
    ]
   },
   "properties": {
    "name": "LOT 89 SUNSHINE ROAD WHYTE YARCOWIE 5420",
    "locID": "LOC000142389384",
    "tech": "SATELLITE",
    "upgrade": "NULL_NA",
    "gnaf_pid": "GASA_718985600"
   }
  },
  {
   "type": "Feature",
   "geometry": {
    "type": "Point",
    "coordinates": [
     138.9327787,
     -33.18670652
    ]
   },
   "properties": {
    "name": "LOT 150 MUNJIBBIE ROAD WHYTE YARCOWIE 5420",
    "locID": "LOC100078079839",
    "tech": "SATELLITE",
    "upgrade": "NULL_NA",
    "gnaf_pid": "GASA_719394930"
   }
  },
  {
   "type": "Feature",
   "geometry": {
    "type": "Point",
    "coordinates": [
     138.82173338,
     -33.21646254
    ]
   },
   "properties": {
    "name": "LOT 596 BOOBOROWIE ROAD WHYTE YARCOWIE 5420",
    "locID": "LOC100024179808",
    "tech": "SATELLITE",
    "upgrade": "NULL_NA",
    "gnaf_pid": "GASA_719858660"
   }
  },
  {
   "type": "Feature",
   "geometry": {
    "type": "Point",
    "coordinates": [
     138.88732068,
     -33.22789539
    ]
   },
   "properties": {
    "name": "LOT 612 MAIN ROAD WHYTE YARCOWIE 5420",
    "locID": "LOC000109648227",
    "tech": "SATELLITE",
    "upgrade": "NULL_NA",
    "gnaf_pid": "GASA_719859375"
   }
  },
  {
   "type": "Feature",
   "geometry": {
    "type": "Point",
    "coordinates": [
     138.87278167,
     -33.22962185
    ]
   },
   "properties": {
    "name": "LOT 497 WHYTE ROAD WHYTE YARCOWIE 5420",
    "locID": "LOC000150253412",
    "tech": "SATELLITE",
    "upgrade": "NULL_NA",
    "gnaf_pid": "GASA_719860738"
   }
  },
  {
   "type": "Feature",
   "geometry": {
    "type": "Point",
    "coordinates": [
     138.85342165,
     -33.28760094
    ]
   },
   "properties": {
    "name": "LOT 91 SUNSHINE ROAD WHYTE YARCOWIE 5420",
    "locID": "LOC000142389384",
    "tech": "SATELLITE",
    "upgrade": "NULL_NA",
    "gnaf_pid": "GASA_719861187"
   }
  },
  {
   "type": "Feature",
   "geometry": {
    "type": "Point",
    "coordinates": [
     138.88856663,
     -33.22762678
    ]
   },
   "properties": {
    "name": "LOT 610 FIFTH STREET WHYTE YARCOWIE 5420",
    "locID": "LOC000175104673",
    "tech": "SATELLITE",
    "upgrade": "NULL_NA",
    "gnaf_pid": "GASA_719863487"
   }
  },
  {
   "type": "Feature",
   "geometry": {
    "type": "Point",
    "coordinates": [
     138.83998321,
     -33.16971102
    ]
   },
   "properties": {
    "name": "LOT 2 BOOBOROWIE ROAD WHYTE YARCOWIE 5420",
    "locID": "LOC100024179808",
    "tech": "SATELLITE",
    "upgrade": "NULL_NA",
    "gnaf_pid": "GASA_719864442"
   }
  },
  {
   "type": "Feature",
   "geometry": {
    "type": "Point",
    "coordinates": [
     138.88002076,
     -33.22660326
    ]
   },
   "properties": {
    "name": "LOT 91 WHYTE ROAD WHYTE YARCOWIE 5420",
    "locID": "LOC000150253412",
    "tech": "SATELLITE",
    "upgrade": "NULL_NA",
    "gnaf_pid": "GASA_719864663"
   }
  },
  {
   "type": "Feature",
   "geometry": {
    "type": "Point",
    "coordinates": [
     138.88602173,
     -33.22848553
    ]
   },
   "properties": {
    "name": "5 SECOND STREET WHYTE YARCOWIE 5420",
    "locID": "LOC100071967492",
    "tech": "SATELLITE",
    "upgrade": "NULL_NA",
    "gnaf_pid": "GASA_721109986"
   }
  },
  {
   "type": "Feature",
   "geometry": {
    "type": "Point",
    "coordinates": [
     138.88442989,
     -33.23118329
    ]
   },
   "properties": {
    "name": "1 WEST TERRACE WHYTE YARCOWIE 5420",
    "locID": "LOC000108770315",
    "tech": "SATELLITE",
    "upgrade": "NULL_NA",
    "gnaf_pid": "GASA_721111327"
   }
  },
  {
   "type": "Feature",
   "geometry": {
    "type": "Point",
    "coordinates": [
     138.88443514,
     -33.2294741
    ]
   },
   "properties": {
    "name": "2 SECOND STREET WHYTE YARCOWIE 5420",
    "locID": "LOC000131513434",
    "tech": "SATELLITE",
    "upgrade": "NULL_NA",
    "gnaf_pid": "GASA_721112143"
   }
  },
  {
   "type": "Feature",
   "geometry": {
    "type": "Point",
    "coordinates": [
     138.89833666,
     -33.17351224
    ]
   },
   "properties": {
    "name": "LOT 33 NEATHVALE ROAD WHYTE YARCOWIE 5420",
    "locID": "LOC000150253386",
    "tech": "SATELLITE",
    "upgrade": "NULL_NA",
    "gnaf_pid": "GASA_721276694"
   }
  }
 ]
}