{
 "type": "FeatureCollection",
 "generated": "2024-09-21T17:32:45.849024",
 "suburb": "WINULTA",
 "features": [
  {
   "type": "Feature",
   "geometry": {
    "type": "Point",
    "coordinates": [
     137.85276144,
     -34.28201393
    ]
   },
   "properties": {
    "name": "LOT 341 CLINTON ROAD WINULTA 5570",
    "locID": "LOC000116337295",
    "tech": "WIRELESS",
    "upgrade": "NULL_NA",
    "gnaf_pid": "GASA_424163265",
    "tech_change_status": "Not Planned",
    "program_type": "Fixed Wireless and Satellite Upgrade Program",
    "target_eligibility_quarter": "NA"
   }
  },
  {
   "type": "Feature",
   "geometry": {
    "type": "Point",
    "coordinates": [
     137.89591555,
     -34.26270536
    ]
   },
   "properties": {
    "name": "LOT 91 CLINTON ROAD WINULTA 5570",
    "locID": "LOC000116337295",
    "tech": "WIRELESS",
    "upgrade": "NULL_NA",
    "gnaf_pid": "GASA_424163268",
    "tech_change_status": "Not Planned",
    "program_type": "Fixed Wireless and Satellite Upgrade Program",
    "target_eligibility_quarter": "NA"
   }
  },
  {
   "type": "Feature",
   "geometry": {
    "type": "Point",
    "coordinates": [
     137.86943784,
     -34.27773405
    ]
   },
   "properties": {
    "name": "LOT 180C CLINTON ROAD WINULTA 5570",
    "locID": "LOC000116337295",
    "tech": "WIRELESS",
    "upgrade": "NULL_NA",
    "gnaf_pid": "GASA_424294980",
    "tech_change_status": "Not Planned",
    "program_type": "Fixed Wireless and Satellite Upgrade Program",
    "target_eligibility_quarter": "NA"
   }
  },
  {
   "type": "Feature",
   "geometry": {
    "type": "Point",
    "coordinates": [
     137.8709094,
     -34.27742353
    ]
   },
   "properties": {
    "name": "2102 CLINTON ROAD WINULTA 5570",
    "locID": "LOC000116327862",
    "tech": "NULL",
    "upgrade": "NULL_NA",
    "gnaf_pid": "GASA_424834167",
    "tech_change_status": "Not Planned"
   }
  },
  {
   "type": "Feature",
   "geometry": {
    "type": "Point",
    "coordinates": [
     137.91237854,
     -34.26205571
    ]
   },
   "properties": {
    "name": "2521 CLINTON ROAD WINULTA 5570",
    "locID": "LOC000116327917",
    "tech": "WIRELESS",
    "upgrade": "NULL_NA",
    "gnaf_pid": "GASA_424834168",
    "tech_change_status": "Not Planned",
    "program_type": "Fixed Wireless and Satellite Upgrade Program",
    "target_eligibility_quarter": "NA"
   }
  },
  {
   "type": "Feature",
   "geometry": {
    "type": "Point",
    "coordinates": [
     137.91402582,
     -34.26163322
    ]
   },
   "properties": {
    "name": "2536 CLINTON ROAD WINULTA 5570",
    "locID": "LOC000116337295",
    "tech": "WIRELESS",
    "upgrade": "NULL_NA",
    "gnaf_pid": "GASA_424834169",
    "tech_change_status": "Not Planned",
    "program_type": "Fixed Wireless and Satellite Upgrade Program",
    "target_eligibility_quarter": "NA"
   }
  },
  {
   "type": "Feature",
   "geometry": {
    "type": "Point",
    "coordinates": [
     137.9207156,
     -34.25926093
    ]
   },
   "properties": {
    "name": "2604 CLINTON ROAD WINULTA 5570",
    "locID": "LOC000116337305",
    "tech": "WIRELESS",
    "upgrade": "NULL_NA",
    "gnaf_pid": "GASA_424834170",
    "tech_change_status": "Not Planned",
    "program_type": "Fixed Wireless and Satellite Upgrade Program",
    "target_eligibility_quarter": "NA"
   }
  },
  {
   "type": "Feature",
   "geometry": {
    "type": "Point",
    "coordinates": [
     137.9294074,
     -34.25603796
    ]
   },
   "properties": {
    "name": "2691 CLINTON ROAD WINULTA 5570",
    "locID": "LOC000116337314",
    "tech": "WIRELESS",
    "upgrade": "NULL_NA",
    "gnaf_pid": "GASA_424834171",
    "tech_change_status": "Not Planned",
    "program_type": "Fixed Wireless and Satellite Upgrade Program",
    "target_eligibility_quarter": "NA"
   }
  },
  {
   "type": "Feature",
   "geometry": {
    "type": "Point",
    "coordinates": [
     137.87261085,
     -34.26248759
    ]
   },
   "properties": {
    "name": "369 CORRELL ROAD WINULTA 5570",
    "locID": "LOC000131460206",
    "tech": "SATELLITE",
    "upgrade": "NULL_NA",
    "gnaf_pid": "GASA_424900692",
    "tech_change_status": "Not Planned"
   }
  },
  {
   "type": "Feature",
   "geometry": {
    "type": "Point",
    "coordinates": [
     137.93090571,
     -34.29786128
    ]
   },
   "properties": {
    "name": "406 CROWELL ROAD WINULTA 5570",
    "locID": "LOC000131420670",
    "tech": "WIRELESS",
    "upgrade": "NULL_NA",
    "gnaf_pid": "GASA_424900732",
    "tech_change_status": "Not Planned",
    "program_type": "Fixed Wireless and Satellite Upgrade Program",
    "target_eligibility_quarter": "NA"
   }
  },
  {
   "type": "Feature",
   "geometry": {
    "type": "Point",
    "coordinates": [
     137.881363,
     -34.293308
    ]
   },
   "properties": {
    "name": "762 DOWLINGVILLE SLANT ROAD WINULTA 5570",
    "locID": "LOC000131429879",
    "tech": "WIRELESS",
    "upgrade": "NULL_NA",
    "gnaf_pid": "GASA_424900834",
    "tech_change_status": "Not Planned",
    "program_type": "Fixed Wireless and Satellite Upgrade Program",
    "target_eligibility_quarter": "NA"
   }
  },
  {
   "type": "Feature",
   "geometry": {
    "type": "Point",
    "coordinates": [
     137.8746417,
     -34.2777878
    ]
   },
   "properties": {
    "name": "949 DOWLINGVILLE SLANT ROAD WINULTA 5570",
    "locID": "LOC000131426939",
    "tech": "WIRELESS",
    "upgrade": "NULL_NA",
    "gnaf_pid": "GASA_424900835",
    "tech_change_status": "Not Planned",
    "program_type": "Fixed Wireless and Satellite Upgrade Program",
    "target_eligibility_quarter": "NA"
   }
  },
  {
   "type": "Feature",
   "geometry": {
    "type": "Point",
    "coordinates": [
     137.834387,
     -34.284763
    ]
   },
   "properties": {
    "name": "1232 GRAHAM ROAD WINULTA 5570",
    "locID": "LOC000131430959",
    "tech": "WIRELESS",
    "upgrade": "NULL_NA",
    "gnaf_pid": "GASA_424901250",
    "tech_change_status": "Not Planned",
    "program_type": "Fixed Wireless and Satellite Upgrade Program",
    "target_eligibility_quarter": "NA"
   }
  },
  {
   "type": "Feature",
   "geometry": {
    "type": "Point",
    "coordinates": [
     137.90990568,
     -34.29797755
    ]
   },
   "properties": {
    "name": "697 MASON ROAD WINULTA 5570",
    "locID": "LOC000131429776",
    "tech": "NULL",
    "upgrade": "NULL_NA",
    "gnaf_pid": "GASA_424903014",
    "tech_change_status": "Not Planned"
   }
  },
  {
   "type": "Feature",
   "geometry": {
    "type": "Point",
    "coordinates": [
     137.861238,
     -34.276432
    ]
   },
   "properties": {
    "name": "3106 OLD BOUNDARY ROAD WINULTA 5570",
    "locID": "LOC000131460397",
    "tech": "SATELLITE",
    "upgrade": "NULL_NA",
    "gnaf_pid": "GASA_424903482",
    "tech_change_status": "Not Planned"
   }
  },
  {
   "type": "Feature",
   "geometry": {
    "type": "Point",
    "coordinates": [
     137.90929514,
     -34.27645954
    ]
   },
   "properties": {
    "name": "3548 OLD BOUNDARY ROAD WINULTA 5570",
    "locID": "LOC000131416206",
    "tech": "NULL",
    "upgrade": "NULL_NA",
    "gnaf_pid": "GASA_424903484",
    "tech_change_status": "Not Planned"
   }
  },
  {
   "type": "Feature",
   "geometry": {
    "type": "Point",
    "coordinates": [
     137.92873887,
     -34.27636264
    ]
   },
   "properties": {
    "name": "3729 OLD BOUNDARY ROAD WINULTA 5570",
    "locID": "LOC000131416234",
    "tech": "SATELLITE",
    "upgrade": "NULL_NA",
    "gnaf_pid": "GASA_424903485",
    "tech_change_status": "Not Planned"
   }
  },
  {
   "type": "Feature",
   "geometry": {
    "type": "Point",
    "coordinates": [
     137.91893104,
     -34.26049977
    ]
   },
   "properties": {
    "name": "291 PIONEER ROAD WINULTA 5570",
    "locID": "LOC100079109689",
    "tech": "WIRELESS",
    "upgrade": "NULL_NA",
    "gnaf_pid": "GASA_424903807",
    "tech_change_status": "Not Planned",
    "program_type": "Fixed Wireless and Satellite Upgrade Program",
    "target_eligibility_quarter": "NA"
   }
  },
  {
   "type": "Feature",
   "geometry": {
    "type": "Point",
    "coordinates": [
     137.93586902,
     -34.28180295
    ]
   },
   "properties": {
    "name": "LOT 345 OLD BOUNDARY ROAD WINULTA 5570",
    "locID": "LOC000131416206",
    "tech": "NULL",
    "upgrade": "NULL_NA",
    "gnaf_pid": "GASA_425393245",
    "tech_change_status": "Not Planned"
   }
  },
  {
   "type": "Feature",
   "geometry": {
    "type": "Point",
    "coordinates": [
     137.94705738,
     -34.28128431
    ]
   },
   "properties": {
    "name": "LOT 97 OLD BOUNDARY ROAD WINULTA 5570",
    "locID": "LOC000131416206",
    "tech": "NULL",
    "upgrade": "NULL_NA",
    "gnaf_pid": "GASA_425393246",
    "tech_change_status": "Not Planned"
   }
  },
  {
   "type": "Feature",
   "geometry": {
    "type": "Point",
    "coordinates": [
     137.94701978,
     -34.29169468
    ]
   },
   "properties": {
    "name": "LOT 12 CROWELL ROAD WINULTA 5570",
    "locID": "LOC000131420670",
    "tech": "WIRELESS",
    "upgrade": "NULL_NA",
    "gnaf_pid": "GASA_425501063",
    "tech_change_status": "Not Planned",
    "program_type": "Fixed Wireless and Satellite Upgrade Program",
    "target_eligibility_quarter": "NA"
   }
  },
  {
   "type": "Feature",
   "geometry": {
    "type": "Point",
    "coordinates": [
     137.88770438,
     -34.28181156
    ]
   },
   "properties": {
    "name": "LOT 182 OLD BOUNDARY ROAD WINULTA 5570",
    "locID": "LOC000116364487",
    "tech": "WIRELESS",
    "upgrade": "NULL_NA",
    "gnaf_pid": "GASA_425503064",
    "tech_change_status": "Not Planned",
    "program_type": "Fixed Wireless and Satellite Upgrade Program",
    "target_eligibility_quarter": "NA"
   }
  },
  {
   "type": "Feature",
   "geometry": {
    "type": "Point",
    "coordinates": [
     137.86151579,
     -34.29346196
    ]
   },
   "properties": {
    "name": "LOT 173 MASON ROAD WINULTA 5570",
    "locID": "LOC000131429776",
    "tech": "NULL",
    "upgrade": "NULL_NA",
    "gnaf_pid": "GASA_719519238",
    "tech_change_status": "Not Planned"
   }
  },
  {
   "type": "Feature",
   "geometry": {
    "type": "Point",
    "coordinates": [
     137.93809613,
     -34.25151223
    ]
   },
   "properties": {
    "name": "LOT 84 CLINTON ROAD WINULTA 5570",
    "locID": "LOC000116337295",
    "tech": "WIRELESS",
    "upgrade": "NULL_NA",
    "gnaf_pid": "GASA_719775915",
    "tech_change_status": "Not Planned",
    "program_type": "Fixed Wireless and Satellite Upgrade Program",
    "target_eligibility_quarter": "NA"
   }
  },
  {
   "type": "Feature",
   "geometry": {
    "type": "Point",
    "coordinates": [
     137.91531733,
     -34.25365546
    ]
   },
   "properties": {
    "name": "LOT 80 CLINTON ROAD WINULTA 5570",
    "locID": "LOC000116337295",
    "tech": "WIRELESS",
    "upgrade": "NULL_NA",
    "gnaf_pid": "GASA_719776862",
    "tech_change_status": "Not Planned",
    "program_type": "Fixed Wireless and Satellite Upgrade Program",
    "target_eligibility_quarter": "NA"
   }
  },
  {
   "type": "Feature",
   "geometry": {
    "type": "Point",
    "coordinates": [
     137.87978257,
     -34.27060948
    ]
   },
   "properties": {
    "name": "LOT 72 CLINTON ROAD WINULTA 5570",
    "locID": "LOC000116337295",
    "tech": "WIRELESS",
    "upgrade": "NULL_NA",
    "gnaf_pid": "GASA_719860015",
    "tech_change_status": "Not Planned",
    "program_type": "Fixed Wireless and Satellite Upgrade Program",
    "target_eligibility_quarter": "NA"
   }
  }
 ]
}