{
 "type": "FeatureCollection",
 "generated": "2023-10-22T16:38:34.508210",
 "suburb": "WITERA",
 "features": [
  {
   "type": "Feature",
   "geometry": {
    "type": "Point",
    "coordinates": [
     134.59997901,
     -33.12684316
    ]
   },
   "properties": {
    "name": "LOT 2 FLINDERS HIGHWAY WITERA 5671",
    "locID": "LOC000131587503",
    "tech": "SATELLITE",
    "upgrade": "NULL_NA",
    "gnaf_pid": "GASA_424106650"
   }
  },
  {
   "type": "Feature",
   "geometry": {
    "type": "Point",
    "coordinates": [
     134.57974123,
     -33.11567285
    ]
   },
   "properties": {
    "name": "LOT 1 KOOLKANNA ROAD WITERA 5671",
    "locID": "EidLb29sa2FubmEgUmQsIFdpdGVyYSBTQSA1NjcxLCBBdXN0cmFsaWEiLiosChQKEgkvNBJhuZyyKhEBT3gpopo81BIUChIJI8Hc6aydsioRUB2PYlQ2AwQ",
    "tech": "SATELLITE",
    "upgrade": "UNKNOWN",
    "gnaf_pid": "GASA_424521715"
   }
  },
  {
   "type": "Feature",
   "geometry": {
    "type": "Point",
    "coordinates": [
     134.59445347,
     -33.10534185
    ]
   },
   "properties": {
    "name": "LOT 2 KOOLKANNA ROAD WITERA 5671",
    "locID": "EidLb29sa2FubmEgUmQsIFdpdGVyYSBTQSA1NjcxLCBBdXN0cmFsaWEiLiosChQKEgkvNBJhuZyyKhEBT3gpopo81BIUChIJI8Hc6aydsioRUB2PYlQ2AwQ",
    "tech": "SATELLITE",
    "upgrade": "UNKNOWN",
    "gnaf_pid": "GASA_424521716"
   }
  },
  {
   "type": "Feature",
   "geometry": {
    "type": "Point",
    "coordinates": [
     134.55297756,
     -33.09815617
    ]
   },
   "properties": {
    "name": "LOT 1 WOORONG BOOLONG ROAD WITERA 5671",
    "locID": "LOC000131707820",
    "tech": "SATELLITE",
    "upgrade": "NULL_NA",
    "gnaf_pid": "GASA_424528951"
   }
  },
  {
   "type": "Feature",
   "geometry": {
    "type": "Point",
    "coordinates": [
     134.56281383,
     -33.15468261
    ]
   },
   "properties": {
    "name": "626 KOOLKANNA ROAD WITERA 5671",
    "locID": "ChIJZz4vJySdsioRcgzx9jrY3X4",
    "tech": "SATELLITE",
    "upgrade": "UNKNOWN",
    "gnaf_pid": "GASA_424957687"
   }
  },
  {
   "type": "Feature",
   "geometry": {
    "type": "Point",
    "coordinates": [
     134.57383654,
     -33.0981904
    ]
   },
   "properties": {
    "name": "171 WOORONG BOOLONG ROAD WITERA 5671",
    "locID": "LOC000131707820",
    "tech": "SATELLITE",
    "upgrade": "NULL_NA",
    "gnaf_pid": "GASA_424962208"
   }
  },
  {
   "type": "Feature",
   "geometry": {
    "type": "Point",
    "coordinates": [
     134.55297756,
     -33.09815617
    ]
   },
   "properties": {
    "name": "797 WOORONG BOOLONG ROAD WITERA 5671",
    "locID": "ChIJf47YrDWbsioRts6M3RNT30s",
    "tech": "SATELLITE",
    "upgrade": "UNKNOWN",
    "gnaf_pid": "GASA_425507606"
   }
  },
  {
   "type": "Feature",
   "geometry": {
    "type": "Point",
    "coordinates": [
     134.58478912,
     -33.19147495
    ]
   },
   "properties": {
    "name": "LOT 6 KOOLKANNA ROAD WITERA 5671",
    "locID": "EidLb29sa2FubmEgUmQsIFdpdGVyYSBTQSA1NjcxLCBBdXN0cmFsaWEiLiosChQKEgkvNBJhuZyyKhEBT3gpopo81BIUChIJI8Hc6aydsioRUB2PYlQ2AwQ",
    "tech": "SATELLITE",
    "upgrade": "UNKNOWN",
    "gnaf_pid": "GASA_425846454"
   }
  },
  {
   "type": "Feature",
   "geometry": {
    "type": "Point",
    "coordinates": [
     134.57544988,
     -33.14258244
    ]
   },
   "properties": {
    "name": "LOT 20 KOOLKANNA ROAD WITERA 5671",
    "locID": "EidLb29sa2FubmEgUmQsIFdpdGVyYSBTQSA1NjcxLCBBdXN0cmFsaWEiLiosChQKEgkvNBJhuZyyKhEBT3gpopo81BIUChIJI8Hc6aydsioRUB2PYlQ2AwQ",
    "tech": "SATELLITE",
    "upgrade": "UNKNOWN",
    "gnaf_pid": "GASA_719519628"
   }
  },
  {
   "type": "Feature",
   "geometry": {
    "type": "Point",
    "coordinates": [
     134.619046,
     -33.2118776
    ]
   },
   "properties": {
    "name": "LOT 145 KOOLKANNA ROAD WITERA 5671",
    "locID": "EidLb29sa2FubmEgUmQsIFdpdGVyYSBTQSA1NjcxLCBBdXN0cmFsaWEiLiosChQKEgkvNBJhuZyyKhEBT3gpopo81BIUChIJI8Hc6aydsioRUB2PYlQ2AwQ",
    "tech": "SATELLITE",
    "upgrade": "UNKNOWN",
    "gnaf_pid": "GASA_719520570"
   }
  },
  {
   "type": "Feature",
   "geometry": {
    "type": "Point",
    "coordinates": [
     134.63132624,
     -33.24349629
    ]
   },
   "properties": {
    "name": "LOT 175 KOOLKANNA ROAD WITERA 5671",
    "locID": "EidLb29sa2FubmEgUmQsIFdpdGVyYSBTQSA1NjcxLCBBdXN0cmFsaWEiLiosChQKEgkvNBJhuZyyKhEBT3gpopo81BIUChIJI8Hc6aydsioRUB2PYlQ2AwQ",
    "tech": "SATELLITE",
    "upgrade": "UNKNOWN",
    "gnaf_pid": "GASA_719859023"
   }
  }
 ]
}