{
 "type": "FeatureCollection",
 "generated": "2024-09-21T17:58:27.127931",
 "suburb": "WOOLSHEDS",
 "features": [
  {
   "type": "Feature",
   "geometry": {
    "type": "Point",
    "coordinates": [
     138.65019809,
     -34.48744853
    ]
   },
   "properties": {
    "name": "LOT 2 SELLECK ROAD WOOLSHEDS 5400",
    "locID": "LOC000114407552",
    "tech": "WIRELESS",
    "upgrade": "NULL_NA",
    "gnaf_pid": "GASA_424208919",
    "tech_change_status": "Not Planned",
    "program_type": "Fixed Wireless and Satellite Upgrade Program",
    "target_eligibility_quarter": "NA"
   }
  },
  {
   "type": "Feature",
   "geometry": {
    "type": "Point",
    "coordinates": [
     138.62983116,
     -34.49511733
    ]
   },
   "properties": {
    "name": "LOT 4 BOUNDARY ROAD WOOLSHEDS 5400",
    "locID": "LOC000112974961",
    "tech": "SATELLITE",
    "upgrade": "NULL_NA",
    "gnaf_pid": "GASA_424380865",
    "tech_change_status": "Not Planned"
   }
  },
  {
   "type": "Feature",
   "geometry": {
    "type": "Point",
    "coordinates": [
     138.64236123,
     -34.4978562
    ]
   },
   "properties": {
    "name": "LOT 650 BUCKBY ROAD WOOLSHEDS 5400",
    "locID": "LOC000114402797",
    "tech": "WIRELESS",
    "upgrade": "NULL_NA",
    "gnaf_pid": "GASA_424381578",
    "tech_change_status": "Not Planned",
    "program_type": "Fixed Wireless and Satellite Upgrade Program",
    "target_eligibility_quarter": "Dec 2024"
   }
  },
  {
   "type": "Feature",
   "geometry": {
    "type": "Point",
    "coordinates": [
     138.6298714,
     -34.49446921
    ]
   },
   "properties": {
    "name": "187 BOUNDARY ROAD WOOLSHEDS 5400",
    "locID": "LOC000114332936",
    "tech": "SATELLITE",
    "upgrade": "NULL_NA",
    "gnaf_pid": "GASA_424810476",
    "tech_change_status": "Not Planned"
   }
  },
  {
   "type": "Feature",
   "geometry": {
    "type": "Point",
    "coordinates": [
     138.62987843,
     -34.50923448
    ]
   },
   "properties": {
    "name": "351 BOUNDARY ROAD WOOLSHEDS 5400",
    "locID": "LOC000109057036",
    "tech": "WIRELESS",
    "upgrade": "NULL_NA",
    "gnaf_pid": "GASA_424810477",
    "tech_change_status": "Not Planned",
    "program_type": "Fixed Wireless and Satellite Upgrade Program",
    "target_eligibility_quarter": "NA"
   }
  },
  {
   "type": "Feature",
   "geometry": {
    "type": "Point",
    "coordinates": [
     138.62987896,
     -34.51044932
    ]
   },
   "properties": {
    "name": "365 BOUNDARY ROAD WOOLSHEDS 5400",
    "locID": "LOC000112974961",
    "tech": "SATELLITE",
    "upgrade": "NULL_NA",
    "gnaf_pid": "GASA_424810478",
    "tech_change_status": "Not Planned"
   }
  },
  {
   "type": "Feature",
   "geometry": {
    "type": "Point",
    "coordinates": [
     138.65442064,
     -34.49981709
    ]
   },
   "properties": {
    "name": "312 BUCKBY ROAD WOOLSHEDS 5400",
    "locID": "LOC000114039199",
    "tech": "WIRELESS",
    "upgrade": "NULL_NA",
    "gnaf_pid": "GASA_424810582",
    "tech_change_status": "Not Planned",
    "program_type": "Fixed Wireless and Satellite Upgrade Program",
    "target_eligibility_quarter": "NA"
   }
  },
  {
   "type": "Feature",
   "geometry": {
    "type": "Point",
    "coordinates": [
     138.6335348,
     -34.51243481
    ]
   },
   "properties": {
    "name": "33 DAY ROAD WOOLSHEDS 5400",
    "locID": "LOC000114489388",
    "tech": "WIRELESS",
    "upgrade": "NULL_NA",
    "gnaf_pid": "GASA_424810995",
    "tech_change_status": "Not Planned",
    "program_type": "Fixed Wireless and Satellite Upgrade Program",
    "target_eligibility_quarter": "Dec 2024"
   }
  },
  {
   "type": "Feature",
   "geometry": {
    "type": "Point",
    "coordinates": [
     138.65282977,
     -34.50796383
    ]
   },
   "properties": {
    "name": "100 GEORGE ROAD WOOLSHEDS 5400",
    "locID": "LOC000114306952",
    "tech": "WIRELESS",
    "upgrade": "NULL_NA",
    "gnaf_pid": "GASA_424811506",
    "tech_change_status": "Not Planned",
    "program_type": "Fixed Wireless and Satellite Upgrade Program",
    "target_eligibility_quarter": "Dec 2024"
   }
  },
  {
   "type": "Feature",
   "geometry": {
    "type": "Point",
    "coordinates": [
     138.65991897,
     -34.48655773
    ]
   },
   "properties": {
    "name": "379 SELLECK ROAD WOOLSHEDS 5400",
    "locID": "LOC000114407552",
    "tech": "WIRELESS",
    "upgrade": "NULL_NA",
    "gnaf_pid": "GASA_424814500",
    "tech_change_status": "Not Planned",
    "program_type": "Fixed Wireless and Satellite Upgrade Program",
    "target_eligibility_quarter": "NA"
   }
  },
  {
   "type": "Feature",
   "geometry": {
    "type": "Point",
    "coordinates": [
     138.65880203,
     -34.46817617
    ]
   },
   "properties": {
    "name": "583 SELLECK ROAD WOOLSHEDS 5400",
    "locID": "LOC000113207954",
    "tech": "WIRELESS",
    "upgrade": "NULL_NA",
    "gnaf_pid": "GASA_424814501",
    "tech_change_status": "Not Planned",
    "program_type": "Fixed Wireless and Satellite Upgrade Program",
    "target_eligibility_quarter": "NA"
   }
  },
  {
   "type": "Feature",
   "geometry": {
    "type": "Point",
    "coordinates": [
     138.64124474,
     -34.50675465
    ]
   },
   "properties": {
    "name": "LOT 4 BUCKBY ROAD WOOLSHEDS 5400",
    "locID": "LOC000114039199",
    "tech": "WIRELESS",
    "upgrade": "NULL_NA",
    "gnaf_pid": "GASA_425061651",
    "tech_change_status": "Not Planned",
    "program_type": "Fixed Wireless and Satellite Upgrade Program",
    "target_eligibility_quarter": "NA"
   }
  },
  {
   "type": "Feature",
   "geometry": {
    "type": "Point",
    "coordinates": [
     138.65040644,
     -34.49718483
    ]
   },
   "properties": {
    "name": "LOT 651 BUCKBY ROAD WOOLSHEDS 5400",
    "locID": "LOC000114402797",
    "tech": "WIRELESS",
    "upgrade": "NULL_NA",
    "gnaf_pid": "GASA_425061652",
    "tech_change_status": "Not Planned",
    "program_type": "Fixed Wireless and Satellite Upgrade Program",
    "target_eligibility_quarter": "Dec 2024"
   }
  },
  {
   "type": "Feature",
   "geometry": {
    "type": "Point",
    "coordinates": [
     138.63069129,
     -34.47393785
    ]
   },
   "properties": {
    "name": "13 OLIVER ROAD WOOLSHEDS 5400",
    "locID": "LOC100079008938",
    "tech": "WIRELESS",
    "upgrade": "NULL_NA",
    "gnaf_pid": "GASA_425067231",
    "tech_change_status": "Not Planned",
    "program_type": "Fixed Wireless and Satellite Upgrade Program",
    "target_eligibility_quarter": "Dec 2024"
   }
  },
  {
   "type": "Feature",
   "geometry": {
    "type": "Point",
    "coordinates": [
     138.63101792,
     -34.4747837
    ]
   },
   "properties": {
    "name": "1308 WASLEYS ROAD WOOLSHEDS 5400",
    "locID": "LOC100079008955",
    "tech": "WIRELESS",
    "upgrade": "NULL_NA",
    "gnaf_pid": "GASA_425194499",
    "tech_change_status": "Not Planned",
    "program_type": "Fixed Wireless and Satellite Upgrade Program",
    "target_eligibility_quarter": "NA"
   }
  },
  {
   "type": "Feature",
   "geometry": {
    "type": "Point",
    "coordinates": [
     138.64736767,
     -34.47356309
    ]
   },
   "properties": {
    "name": "1460 WASLEYS ROAD WOOLSHEDS 5400",
    "locID": "LOC000114209801",
    "tech": "WIRELESS",
    "upgrade": "NULL_NA",
    "gnaf_pid": "GASA_425194500",
    "tech_change_status": "Not Planned",
    "program_type": "Fixed Wireless and Satellite Upgrade Program",
    "target_eligibility_quarter": "Dec 2024"
   }
  }
 ]
}