{
 "type": "FeatureCollection",
 "generated": "2023-09-22T19:27:42.798698",
 "suburb": "MANBULLOO",
 "features": [
  {
   "type": "Feature",
   "geometry": {
    "type": "Point",
    "coordinates": [
     132.07062092,
     -14.70896539
    ]
   },
   "properties": {
    "name": "LOT 2529 VICTORIA HIGHWAY MANBULLOO 852",
    "locID": "EiwyNTI5IFZpY3RvcmlhIEh3eSwgQmFpbmVzIE5UIDA4NTIsIEF1c3RyYWxpYSIxEi8KFAoSCX0OLriij6IsEQD1k8rW8WtSEOETKhQKEglfAzN128miLBGilyPq-0Skcw",
    "tech": "SATELLITE",
    "upgrade": "UNKNOWN",
    "gnaf_pid": "GANT_717683491"
   }
  },
  {
   "type": "Feature",
   "geometry": {
    "type": "Point",
    "coordinates": [
     132.07062092,
     -14.70896539
    ]
   },
   "properties": {
    "name": "3730 VICTORIA HIGHWAY MANBULLOO 852",
    "locID": "EiwzNzMwIFZpY3RvcmlhIEh3eSwgQmFpbmVzIE5UIDA4NTIsIEF1c3RyYWxpYSIxEi8KFAoSCX0OLriij6IsEQD1k8rW8WtSEJIdKhQKEglfAzN128miLBGilyPq-0Skcw",
    "tech": "SATELLITE",
    "upgrade": "UNKNOWN",
    "gnaf_pid": "GANT_717683492"
   }
  },
  {
   "type": "Feature",
   "geometry": {
    "type": "Point",
    "coordinates": [
     132.26097497,
     -14.52230079
    ]
   },
   "properties": {
    "name": "581 VICTORIA HIGHWAY MANBULLOO 852",
    "locID": "LOC100079593795",
    "tech": "SATELLITE",
    "upgrade": "NULL_NA",
    "gnaf_pid": "GANT_717754048"
   }
  },
  {
   "type": "Feature",
   "geometry": {
    "type": "Point",
    "coordinates": [
     132.10180847,
     -14.6380379
    ]
   },
   "properties": {
    "name": "2702 VICTORIA HIGHWAY MANBULLOO 852",
    "locID": "ChIJixSAyZPPuiwRPn_scqPTlx4",
    "tech": "SATELLITE",
    "upgrade": "UNKNOWN",
    "gnaf_pid": "GANT_717884654"
   }
  },
  {
   "type": "Feature",
   "geometry": {
    "type": "Point",
    "coordinates": [
     132.23464562,
     -14.86371318
    ]
   },
   "properties": {
    "name": "3627 VICTORIA HIGHWAY MANBULLOO 852",
    "locID": "ChIJSaLRA8M3pSwRjtsUpiZxH-8",
    "tech": "SATELLITE",
    "upgrade": "UNKNOWN",
    "gnaf_pid": "GANT_717884655"
   }
  },
  {
   "type": "Feature",
   "geometry": {
    "type": "Point",
    "coordinates": [
     132.19143777,
     -14.62588426
    ]
   },
   "properties": {
    "name": "1567A VICTORIA HIGHWAY MANBULLOO 852",
    "locID": "ChIJaxPikfTIuiwRObom41lt4Vo",
    "tech": "SATELLITE",
    "upgrade": "UNKNOWN",
    "gnaf_pid": "GANT_717938856"
   }
  },
  {
   "type": "Feature",
   "geometry": {
    "type": "Point",
    "coordinates": [
     132.20365165,
     -14.62500316
    ]
   },
   "properties": {
    "name": "1567B VICTORIA HIGHWAY MANBULLOO 852",
    "locID": "LOC000118984591",
    "tech": "SATELLITE",
    "upgrade": "NULL_NA",
    "gnaf_pid": "GANT_717938857"
   }
  },
  {
   "type": "Feature",
   "geometry": {
    "type": "Point",
    "coordinates": [
     132.21319206,
     -14.62485391
    ]
   },
   "properties": {
    "name": "1567C VICTORIA HIGHWAY MANBULLOO 852",
    "locID": "ChIJi4wH2EbIuiwRfSIpgdKcRIk",
    "tech": "SATELLITE",
    "upgrade": "UNKNOWN",
    "gnaf_pid": "GANT_717938858"
   }
  },
  {
   "type": "Feature",
   "geometry": {
    "type": "Point",
    "coordinates": [
     132.4475829,
     -14.6867347
    ]
   },
   "properties": {
    "name": "4044 STUART HIGHWAY MANBULLOO 852",
    "locID": "ChIJ-d39PM1SpSwREfo0M54XXok",
    "tech": "SATELLITE",
    "upgrade": "UNKNOWN",
    "gnaf_pid": "GANT_718014173"
   }
  },
  {
   "type": "Feature",
   "geometry": {
    "type": "Point",
    "coordinates": [
     132.52496348,
     -14.72439572
    ]
   },
   "properties": {
    "name": "4320 STUART HIGHWAY MANBULLOO 852",
    "locID": "ChIJC0va0wJUpSwRgUVdvSybw9A",
    "tech": "SATELLITE",
    "upgrade": "UNKNOWN",
    "gnaf_pid": "GANT_718014174"
   }
  }
 ]
}