{
 "type": "FeatureCollection",
 "generated": "2024-07-05T02:19:42.779092",
 "suburb": "AINTREE",
 "features": [
  {
   "type": "Feature",
   "geometry": {
    "type": "Point",
    "coordinates": [
     144.67655762,
     -37.71627091
    ]
   },
   "properties": {
    "name": "8 CHESTNUT STREET AINTREE 3336",
    "locID": "LOC000178213152",
    "tech": "FTTP",
    "upgrade": "NULL_NA",
    "gnaf_pid": "GAVIC719409372"
   }
  },
  {
   "type": "Feature",
   "geometry": {
    "type": "Point",
    "coordinates": [
     144.67921258,
     -37.71886086
    ]
   },
   "properties": {
    "name": "51 CASCADE DRIVE AINTREE 3336",
    "locID": "LOC000178950529",
    "tech": "FTTP",
    "upgrade": "NULL_NA",
    "gnaf_pid": "GAVIC719409373"
   }
  },
  {
   "type": "Feature",
   "geometry": {
    "type": "Point",
    "coordinates": [
     144.66224186,
     -37.71871565
    ]
   },
   "properties": {
    "name": "7 OATES PLACE AINTREE 3336",
    "locID": "LOC000173763883",
    "tech": "FTTP",
    "upgrade": "NULL_NA",
    "gnaf_pid": "GAVIC719409374"
   }
  },
  {
   "type": "Feature",
   "geometry": {
    "type": "Point",
    "coordinates": [
     144.66599328,
     -37.72594055
    ]
   },
   "properties": {
    "name": "110 FRONTIER AVENUE AINTREE 3336",
    "locID": "LOC000156543905",
    "tech": "FTTP",
    "upgrade": "NULL_NA",
    "gnaf_pid": "GAVIC719409375"
   }
  },
  {
   "type": "Feature",
   "geometry": {
    "type": "Point",
    "coordinates": [
     144.65841587,
     -37.72376111
    ]
   },
   "properties": {
    "name": "29 PIONEER DRIVE AINTREE 3336",
    "locID": "LOC000149980484",
    "tech": "FTTP",
    "upgrade": "NULL_NA",
    "gnaf_pid": "GAVIC719409376"
   }
  },
  {
   "type": "Feature",
   "geometry": {
    "type": "Point",
    "coordinates": [
     144.66456343,
     -37.71827662
    ]
   },
   "properties": {
    "name": "34 DALWOOD CIRCUIT AINTREE 3336",
    "locID": "LOC000164304489",
    "tech": "FTTP",
    "upgrade": "NULL_NA",
    "gnaf_pid": "GAVIC719409377"
   }
  },
  {
   "type": "Feature",
   "geometry": {
    "type": "Point",
    "coordinates": [
     144.6628369,
     -37.72033222
    ]
   },
   "properties": {
    "name": "32 FRONTIER AVENUE AINTREE 3336",
    "locID": "LOC000164301148",
    "tech": "FTTP",
    "upgrade": "NULL_NA",
    "gnaf_pid": "GAVIC719409379"
   }
  },
  {
   "type": "Feature",
   "geometry": {
    "type": "Point",
    "coordinates": [
     144.66936633,
     -37.71808555
    ]
   },
   "properties": {
    "name": "8 HENDERSON CIRCUIT AINTREE 3336",
    "locID": "LOC000166019447",
    "tech": "FTTP",
    "upgrade": "NULL_NA",
    "gnaf_pid": "GAVIC719409392"
   }
  },
  {
   "type": "Feature",
   "geometry": {
    "type": "Point",
    "coordinates": [
     144.66744967,
     -37.7296853
    ]
   },
   "properties": {
    "name": "17 BEAUMONT STREET AINTREE 3336",
    "locID": "LOC000158364818",
    "tech": "FTTP",
    "upgrade": "NULL_NA",
    "gnaf_pid": "GAVIC719409393"
   }
  },
  {
   "type": "Feature",
   "geometry": {
    "type": "Point",
    "coordinates": [
     144.66451031,
     -37.72752609
    ]
   },
   "properties": {
    "name": "6 SUFFOLK PLACE AINTREE 3336",
    "locID": "LOC000156544864",
    "tech": "FTTP",
    "upgrade": "NULL_NA",
    "gnaf_pid": "GAVIC719409394"
   }
  },
  {
   "type": "Feature",
   "geometry": {
    "type": "Point",
    "coordinates": [
     144.6670104,
     -37.7192469
    ]
   },
   "properties": {
    "name": "58 SIGNAL CIRCUIT AINTREE 3336",
    "locID": "LOC000166018663",
    "tech": "FTTP",
    "upgrade": "NULL_NA",
    "gnaf_pid": "GAVIC719409395"
   }
  },
  {
   "type": "Feature",
   "geometry": {
    "type": "Point",
    "coordinates": [
     144.66458299,
     -37.71815825
    ]
   },
   "properties": {
    "name": "32 DALWOOD CIRCUIT AINTREE 3336",
    "locID": "LOC000164304491",
    "tech": "FTTP",
    "upgrade": "NULL_NA",
    "gnaf_pid": "GAVIC719409396"
   }
  },
  {
   "type": "Feature",
   "geometry": {
    "type": "Point",
    "coordinates": [
     144.67008381,
     -37.72008787
    ]
   },
   "properties": {
    "name": "10 ESCOTT ROAD AINTREE 3336",
    "locID": "LOC000175650753",
    "tech": "FTTP",
    "upgrade": "NULL_NA",
    "gnaf_pid": "GAVIC719409397"
   }
  },
  {
   "type": "Feature",
   "geometry": {
    "type": "Point",
    "coordinates": [
     144.65954006,
     -37.71792271
    ]
   },
   "properties": {
    "name": "3 TAILINGS ROAD AINTREE 3336",
    "locID": "LOC000165466763",
    "tech": "FTTP",
    "upgrade": "NULL_NA",
    "gnaf_pid": "GAVIC719409398"
   }
  },
  {
   "type": "Feature",
   "geometry": {
    "type": "Point",
    "coordinates": [
     144.67070339,
     -37.71971669
    ]
   },
   "properties": {
    "name": "3 ANZAC ROAD AINTREE 3336",
    "locID": "LOC000175230885",
    "tech": "FTTP",
    "upgrade": "NULL_NA",
    "gnaf_pid": "GAVIC719409399"
   }
  },
  {
   "type": "Feature",
   "geometry": {
    "type": "Point",
    "coordinates": [
     144.67024121,
     -37.72010443
    ]
   },
   "properties": {
    "name": "8 ESCOTT ROAD AINTREE 3336",
    "locID": "LOC000175650769",
    "tech": "FTTP",
    "upgrade": "NULL_NA",
    "gnaf_pid": "GAVIC719409400"
   }
  },
  {
   "type": "Feature",
   "geometry": {
    "type": "Point",
    "coordinates": [
     144.66861111,
     -37.7196036
    ]
   },
   "properties": {
    "name": "31 COMMONWEALTH DRIVE AINTREE 3336",
    "locID": "LOC000175650378",
    "tech": "FTTP",
    "upgrade": "NULL_NA",
    "gnaf_pid": "GAVIC719409407"
   }
  },
  {
   "type": "Feature",
   "geometry": {
    "type": "Point",
    "coordinates": [
     144.65910024,
     -37.72169546
    ]
   },
   "properties": {
    "name": "18 FLOCK STREET AINTREE 3336",
    "locID": "LOC000150362113",
    "tech": "FTTP",
    "upgrade": "NULL_NA",
    "gnaf_pid": "GAVIC719409408"
   }
  },
  {
   "type": "Feature",
   "geometry": {
    "type": "Point",
    "coordinates": [
     144.66542138,
     -37.71886202
    ]
   },
   "properties": {
    "name": "10 WALKER STREET AINTREE 3336",
    "locID": "LOC000164304637",
    "tech": "FTTP",
    "upgrade": "NULL_NA",
    "gnaf_pid": "GAVIC719409409"
   }
  },
  {
   "type": "Feature",
   "geometry": {
    "type": "Point",
    "coordinates": [
     144.65952493,
     -37.71933729
    ]
   },
   "properties": {
    "name": "9 WOOL STREET AINTREE 3336",
    "locID": "LOC000140904498",
    "tech": "FTTP",
    "upgrade": "NULL_NA",
    "gnaf_pid": "GAVIC719409410"
   }
  },
  {
   "type": "Feature",
   "geometry": {
    "type": "Point",
    "coordinates": [
     144.66993498,
     -37.72007219
    ]
   },
   "properties": {
    "name": "12 ESCOTT ROAD AINTREE 3336",
    "locID": "LOC000175650500",
    "tech": "FTTP",
    "upgrade": "NULL_NA",
    "gnaf_pid": "GAVIC719409411"
   }
  },
  {
   "type": "Feature",
   "geometry": {
    "type": "Point",
    "coordinates": [
     144.66065375,
     -37.72401168
    ]
   },
   "properties": {
    "name": "10 HIBISCUS STREET AINTREE 3336",
    "locID": "LOC000149982247",
    "tech": "FTTP",
    "upgrade": "NULL_NA",
    "gnaf_pid": "GAVIC719409412"
   }
  },
  {
   "type": "Feature",
   "geometry": {
    "type": "Point",
    "coordinates": [
     144.67753471,
     -37.71928154
    ]
   },
   "properties": {
    "name": "6 WALLABY ROAD AINTREE 3336",
    "locID": "LOC000178950016",
    "tech": "FTTP",
    "upgrade": "NULL_NA",
    "gnaf_pid": "GAVIC719409416"
   }
  },
  {
   "type": "Feature",
   "geometry": {
    "type": "Point",
    "coordinates": [
     144.67904935,
     -37.71944067
    ]
   },
   "properties": {
    "name": "26 WALLABY ROAD AINTREE 3336",
    "locID": "LOC000178950248",
    "tech": "FTTP",
    "upgrade": "NULL_NA",
    "gnaf_pid": "GAVIC719409417"
   }
  },
  {
   "type": "Feature",
   "geometry": {
    "type": "Point",
    "coordinates": [
     144.67857152,
     -37.71837244
    ]
   },
   "properties": {
    "name": "23 GOOSEBERRY ROAD AINTREE 3336",
    "locID": "LOC000178949276",
    "tech": "FTTP",
    "upgrade": "NULL_NA",
    "gnaf_pid": "GAVIC719409418"
   }
  },
  {
   "type": "Feature",
   "geometry": {
    "type": "Point",
    "coordinates": [
     144.66229814,
     -37.71834446
    ]
   },
   "properties": {
    "name": "21 TUCKEROO ROAD AINTREE 3336",
    "locID": "LOC000173763471",
    "tech": "FTTP",
    "upgrade": "NULL_NA",
    "gnaf_pid": "GAVIC719409419"
   }
  },
  {
   "type": "Feature",
   "geometry": {
    "type": "Point",
    "coordinates": [
     144.65782425,
     -37.71814792
    ]
   },
   "properties": {
    "name": "11 QUARRY ROAD AINTREE 3336",
    "locID": "LOC000165466342",
    "tech": "FTTP",
    "upgrade": "NULL_NA",
    "gnaf_pid": "GAVIC719409420"
   }
  },
  {
   "type": "Feature",
   "geometry": {
    "type": "Point",
    "coordinates": [
     144.66128757,
     -37.71919402
    ]
   },
   "properties": {
    "name": "9 RADDLE ROAD AINTREE 3336",
    "locID": "LOC000150527232",
    "tech": "FTTP",
    "upgrade": "NULL_NA",
    "gnaf_pid": "GAVIC719409421"
   }
  },
  {
   "type": "Feature",
   "geometry": {
    "type": "Point",
    "coordinates": [
     144.66843859,
     -37.72746261
    ]
   },
   "properties": {
    "name": "8 CALLISTEMON VISTA AINTREE 3336",
    "locID": "LOC000157301949",
    "tech": "FTTP",
    "upgrade": "NULL_NA",
    "gnaf_pid": "GAVIC719409422"
   }
  },
  {
   "type": "Feature",
   "geometry": {
    "type": "Point",
    "coordinates": [
     144.67225945,
     -37.71951145
    ]
   },
   "properties": {
    "name": "6 STOCKADE WAY AINTREE 3336",
    "locID": "LOC000178904312",
    "tech": "FTTP",
    "upgrade": "NULL_NA",
    "gnaf_pid": "GAVIC719409424"
   }
  },
  {
   "type": "Feature",
   "geometry": {
    "type": "Point",
    "coordinates": [
     144.656542,
     -37.71950757
    ]
   },
   "properties": {
    "name": "18 WOODLEA BOULEVARD AINTREE 3336",
    "locID": "LOC000140569802",
    "tech": "FTTP",
    "upgrade": "NULL_NA",
    "gnaf_pid": "GAVIC719409425"
   }
  },
  {
   "type": "Feature",
   "geometry": {
    "type": "Point",
    "coordinates": [
     144.65784247,
     -37.71803854
    ]
   },
   "properties": {
    "name": "13 QUARRY ROAD AINTREE 3336",
    "locID": "LOC000165466335",
    "tech": "FTTP",
    "upgrade": "NULL_NA",
    "gnaf_pid": "GAVIC719409426"
   }
  },
  {
   "type": "Feature",
   "geometry": {
    "type": "Point",
    "coordinates": [
     144.67009517,
     -37.72076036
    ]
   },
   "properties": {
    "name": "7 SHAW STREET AINTREE 3336",
    "locID": "LOC000175651085",
    "tech": "FTTP",
    "upgrade": "NULL_NA",
    "gnaf_pid": "GAVIC719409428"
   }
  },
  {
   "type": "Feature",
   "geometry": {
    "type": "Point",
    "coordinates": [
     144.6661547,
     -37.72861117
    ]
   },
   "properties": {
    "name": "9 HACKNEY STREET AINTREE 3336",
    "locID": "LOC000156406627",
    "tech": "FTTP",
    "upgrade": "NULL_NA",
    "gnaf_pid": "GAVIC719409429"
   }
  },
  {
   "type": "Feature",
   "geometry": {
    "type": "Point",
    "coordinates": [
     144.66017774,
     -37.72018382
    ]
   },
   "properties": {
    "name": "1 QUARTERS STREET AINTREE 3336",
    "locID": "LOC000176802370",
    "tech": "FTTP",
    "upgrade": "NULL_NA",
    "gnaf_pid": "GAVIC719409430"
   }
  },
  {
   "type": "Feature",
   "geometry": {
    "type": "Point",
    "coordinates": [
     144.67820206,
     -37.71716311
    ]
   },
   "properties": {
    "name": "54 ANISEED AVENUE AINTREE 3336",
    "locID": "LOC000178623217",
    "tech": "FTTP",
    "upgrade": "NULL_NA",
    "gnaf_pid": "GAVIC719409432"
   }
  },
  {
   "type": "Feature",
   "geometry": {
    "type": "Point",
    "coordinates": [
     144.65490793,
     -37.72097449
    ]
   },
   "properties": {
    "name": "29 RIDERS CIRCUIT AINTREE 3336",
    "locID": "LOC000156630737",
    "tech": "FTTP",
    "upgrade": "NULL_NA",
    "gnaf_pid": "GAVIC719409433"
   }
  },
  {
   "type": "Feature",
   "geometry": {
    "type": "Point",
    "coordinates": [
     144.67155986,
     -37.71859604
    ]
   },
   "properties": {
    "name": "99 FIELDS STREET AINTREE 3336",
    "locID": "LOC000175230902",
    "tech": "FTTP",
    "upgrade": "NULL_NA",
    "gnaf_pid": "GAVIC719409434"
   }
  },
  {
   "type": "Feature",
   "geometry": {
    "type": "Point",
    "coordinates": [
     144.66589109,
     -37.72641802
    ]
   },
   "properties": {
    "name": "17 WAGNER WAY AINTREE 3336",
    "locID": "LOC000156543951",
    "tech": "FTTP",
    "upgrade": "NULL_NA",
    "gnaf_pid": "GAVIC719409444"
   }
  },
  {
   "type": "Feature",
   "geometry": {
    "type": "Point",
    "coordinates": [
     144.67791609,
     -37.71641107
    ]
   },
   "properties": {
    "name": "26 CHESTNUT STREET AINTREE 3336",
    "locID": "LOC000178213240",
    "tech": "FTTP",
    "upgrade": "NULL_NA",
    "gnaf_pid": "GAVIC719409445"
   }
  },
  {
   "type": "Feature",
   "geometry": {
    "type": "Point",
    "coordinates": [
     144.66074426,
     -37.7234686
    ]
   },
   "properties": {
    "name": "2 HIBISCUS STREET AINTREE 3336",
    "locID": "LOC000149982206",
    "tech": "FTTP",
    "upgrade": "NULL_NA",
    "gnaf_pid": "GAVIC719409446"
   }
  },
  {
   "type": "Feature",
   "geometry": {
    "type": "Point",
    "coordinates": [
     144.66449494,
     -37.72088621
    ]
   },
   "properties": {
    "name": "19 MORRISEY TERRACE AINTREE 3336",
    "locID": "LOC000164300986",
    "tech": "FTTP",
    "upgrade": "NULL_NA",
    "gnaf_pid": "GAVIC719409447"
   }
  },
  {
   "type": "Feature",
   "geometry": {
    "type": "Point",
    "coordinates": [
     144.66923199,
     -37.73008226
    ]
   },
   "properties": {
    "name": "11 GOLDSTONE GROVE AINTREE 3336",
    "locID": "LOC000164294237",
    "tech": "FTTP",
    "upgrade": "NULL_NA",
    "gnaf_pid": "GAVIC719409448"
   }
  },
  {
   "type": "Feature",
   "geometry": {
    "type": "Point",
    "coordinates": [
     144.66438777,
     -37.72665646
    ]
   },
   "properties": {
    "name": "99 PIONEER DRIVE AINTREE 3336",
    "locID": "LOC000156544466",
    "tech": "FTTP",
    "upgrade": "NULL_NA",
    "gnaf_pid": "GAVIC719409449"
   }
  },
  {
   "type": "Feature",
   "geometry": {
    "type": "Point",
    "coordinates": [
     144.65646204,
     -37.72299032
    ]
   },
   "properties": {
    "name": "2 PERSIMMON WAY AINTREE 3336",
    "locID": "LOC000150362372",
    "tech": "FTTP",
    "upgrade": "NULL_NA",
    "gnaf_pid": "GAVIC719409450"
   }
  },
  {
   "type": "Feature",
   "geometry": {
    "type": "Point",
    "coordinates": [
     144.66386799,
     -37.72121573
    ]
   },
   "properties": {
    "name": "5 FIELDS STREET AINTREE 3336",
    "locID": "LOC000164301391",
    "tech": "FTTP",
    "upgrade": "NULL_NA",
    "gnaf_pid": "GAVIC719409451"
   }
  },
  {
   "type": "Feature",
   "geometry": {
    "type": "Point",
    "coordinates": [
     144.66740472,
     -37.72736536
    ]
   },
   "properties": {
    "name": "17 CALLISTEMON VISTA AINTREE 3336",
    "locID": "LOC000157302047",
    "tech": "FTTP",
    "upgrade": "NULL_NA",
    "gnaf_pid": "GAVIC719409452"
   }
  },
  {
   "type": "Feature",
   "geometry": {
    "type": "Point",
    "coordinates": [
     144.67175147,
     -37.71789119
    ]
   },
   "properties": {
    "name": "107 FIELDS STREET AINTREE 3336",
    "locID": "LOC000175564256",
    "tech": "FTTP",
    "upgrade": "NULL_NA",
    "gnaf_pid": "GAVIC719409462"
   }
  },
  {
   "type": "Feature",
   "geometry": {
    "type": "Point",
    "coordinates": [
     144.66656084,
     -37.72651142
    ]
   },
   "properties": {
    "name": "6 NUGGET PLACE AINTREE 3336",
    "locID": "LOC000156405001",
    "tech": "FTTP",
    "upgrade": "NULL_NA",
    "gnaf_pid": "GAVIC719409463"
   }
  },
  {
   "type": "Feature",
   "geometry": {
    "type": "Point",
    "coordinates": [
     144.6614864,
     -37.72047429
    ]
   },
   "properties": {
    "name": "12 FLEECE ROAD AINTREE 3336",
    "locID": "LOC000146628823",
    "tech": "FTTP",
    "upgrade": "NULL_NA",
    "gnaf_pid": "GAVIC719409465"
   }
  },
  {
   "type": "Feature",
   "geometry": {
    "type": "Point",
    "coordinates": [
     144.65746005,
     -37.70179205
    ]
   },
   "properties": {
    "name": "783-815 LEAKES ROAD AINTREE 3336",
    "locID": "LOC000105800707",
    "tech": "WIRELESS",
    "upgrade": "NULL_NA",
    "gnaf_pid": "GAVIC719409466",
    "tech_change_status": "Not Planned",
    "program_type": "Fixed Wireless and Satellite Upgrade Program",
    "target_eligibility_quarter": "Dec 2024"
   }
  },
  {
   "type": "Feature",
   "geometry": {
    "type": "Point",
    "coordinates": [
     144.66214343,
     -37.71927548
    ]
   },
   "properties": {
    "name": "13 TUCKEROO ROAD AINTREE 3336",
    "locID": "LOC000150527369",
    "tech": "FTTP",
    "upgrade": "NULL_NA",
    "gnaf_pid": "GAVIC719409467"
   }
  },
  {
   "type": "Feature",
   "geometry": {
    "type": "Point",
    "coordinates": [
     144.657796,
     -37.72296685
    ]
   },
   "properties": {
    "name": "9 LACEBARK LANE AINTREE 3336",
    "locID": "LOC000150362291",
    "tech": "FTTP",
    "upgrade": "NULL_NA",
    "gnaf_pid": "GAVIC719409468"
   }
  },
  {
   "type": "Feature",
   "geometry": {
    "type": "Point",
    "coordinates": [
     144.65930805,
     -37.71761971
    ]
   },
   "properties": {
    "name": "32 BULLION DRIVE AINTREE 3336",
    "locID": "LOC000165466792",
    "tech": "FTTP",
    "upgrade": "NULL_NA",
    "gnaf_pid": "GAVIC719409483"
   }
  },
  {
   "type": "Feature",
   "geometry": {
    "type": "Point",
    "coordinates": [
     144.67420137,
     -37.71865163
    ]
   },
   "properties": {
    "name": "23 HISTORICAL DRIVE AINTREE 3336",
    "locID": "LOC000177137574",
    "tech": "FTTP",
    "upgrade": "NULL_NA",
    "gnaf_pid": "GAVIC719409484"
   }
  },
  {
   "type": "Feature",
   "geometry": {
    "type": "Point",
    "coordinates": [
     144.67800496,
     -37.71976715
    ]
   },
   "properties": {
    "name": "17 CASCADE DRIVE AINTREE 3336",
    "locID": "LOC000178950909",
    "tech": "FTTP",
    "upgrade": "NULL_NA",
    "gnaf_pid": "GAVIC719409485"
   }
  },
  {
   "type": "Feature",
   "geometry": {
    "type": "Point",
    "coordinates": [
     144.65975008,
     -37.72494113
    ]
   },
   "properties": {
    "name": "50 PIONEER DRIVE AINTREE 3336",
    "locID": "LOC000149982397",
    "tech": "FTTP",
    "upgrade": "NULL_NA",
    "gnaf_pid": "GAVIC719409486"
   }
  },
  {
   "type": "Feature",
   "geometry": {
    "type": "Point",
    "coordinates": [
     144.67741757,
     -37.7197054
    ]
   },
   "properties": {
    "name": "9 CASCADE DRIVE AINTREE 3336",
    "locID": "LOC000178951001",
    "tech": "FTTP",
    "upgrade": "NULL_NA",
    "gnaf_pid": "GAVIC719409487"
   }
  },
  {
   "type": "Feature",
   "geometry": {
    "type": "Point",
    "coordinates": [
     144.66898056,
     -37.7283947
    ]
   },
   "properties": {
    "name": "18 GILDERTON ESPLANADE AINTREE 3336",
    "locID": "LOC000158364632",
    "tech": "FTTP",
    "upgrade": "NULL_NA",
    "gnaf_pid": "GAVIC719409488"
   }
  },
  {
   "type": "Feature",
   "geometry": {
    "type": "Point",
    "coordinates": [
     144.67629312,
     -37.7176806
    ]
   },
   "properties": {
    "name": "42 TEDCASTLE DRIVE AINTREE 3336",
    "locID": "LOC000178623361",
    "tech": "FTTP",
    "upgrade": "NULL_NA",
    "gnaf_pid": "GAVIC719409489"
   }
  },
  {
   "type": "Feature",
   "geometry": {
    "type": "Point",
    "coordinates": [
     144.67084809,
     -37.71895951
    ]
   },
   "properties": {
    "name": "5 MISSION DRIVE AINTREE 3336",
    "locID": "LOC000175230719",
    "tech": "FTTP",
    "upgrade": "NULL_NA",
    "gnaf_pid": "GAVIC719409503"
   }
  },
  {
   "type": "Feature",
   "geometry": {
    "type": "Point",
    "coordinates": [
     144.67559526,
     -37.71549595
    ]
   },
   "properties": {
    "name": "40 LAGOON DRIVE AINTREE 3336",
    "locID": "LOC000178213841",
    "tech": "FTTP",
    "upgrade": "NULL_NA",
    "gnaf_pid": "GAVIC719409504"
   }
  },
  {
   "type": "Feature",
   "geometry": {
    "type": "Point",
    "coordinates": [
     144.66056787,
     -37.72275845
    ]
   },
   "properties": {
    "name": "13 ARBOURTON AVENUE AINTREE 3336",
    "locID": "LOC000146629645",
    "tech": "FTTP",
    "upgrade": "NULL_NA",
    "gnaf_pid": "GAVIC719409505"
   }
  },
  {
   "type": "Feature",
   "geometry": {
    "type": "Point",
    "coordinates": [
     144.65928736,
     -37.71774479
    ]
   },
   "properties": {
    "name": "30 BULLION DRIVE AINTREE 3336",
    "locID": "LOC000165466785",
    "tech": "FTTP",
    "upgrade": "NULL_NA",
    "gnaf_pid": "GAVIC719409506"
   }
  },
  {
   "type": "Feature",
   "geometry": {
    "type": "Point",
    "coordinates": [
     144.66898158,
     -37.72983827
    ]
   },
   "properties": {
    "name": "14 GOLDSTONE GROVE AINTREE 3336",
    "locID": "LOC000164294146",
    "tech": "FTTP",
    "upgrade": "NULL_NA",
    "gnaf_pid": "GAVIC719409507"
   }
  },
  {
   "type": "Feature",
   "geometry": {
    "type": "Point",
    "coordinates": [
     144.66042093,
     -37.71754198
    ]
   },
   "properties": {
    "name": "46 BULLION DRIVE AINTREE 3336",
    "locID": "LOC000173763590",
    "tech": "FTTP",
    "upgrade": "NULL_NA",
    "gnaf_pid": "GAVIC719409508"
   }
  },
  {
   "type": "Feature",
   "geometry": {
    "type": "Point",
    "coordinates": [
     144.65936591,
     -37.7222959
    ]
   },
   "properties": {
    "name": "26 ARBOURTON AVENUE AINTREE 3336",
    "locID": "LOC000150362150",
    "tech": "FTTP",
    "upgrade": "NULL_NA",
    "gnaf_pid": "GAVIC719409509"
   }
  },
  {
   "type": "Feature",
   "geometry": {
    "type": "Point",
    "coordinates": [
     144.66509099,
     -37.71926357
    ]
   },
   "properties": {
    "name": "11 WIRELESS DRIVE AINTREE 3336",
    "locID": "LOC000164300623",
    "tech": "FTTP",
    "upgrade": "NULL_NA",
    "gnaf_pid": "GAVIC719409510"
   }
  },
  {
   "type": "Feature",
   "geometry": {
    "type": "Point",
    "coordinates": [
     144.65614014,
     -37.72016893
    ]
   },
   "properties": {
    "name": "9 RIDERS CIRCUIT AINTREE 3336",
    "locID": "LOC000156632868",
    "tech": "FTTP",
    "upgrade": "NULL_NA",
    "gnaf_pid": "GAVIC719409529"
   }
  },
  {
   "type": "Feature",
   "geometry": {
    "type": "Point",
    "coordinates": [
     144.66737189,
     -37.72824614
    ]
   },
   "properties": {
    "name": "142 PIONEER DRIVE AINTREE 3336",
    "locID": "LOC000156407304",
    "tech": "FTTP",
    "upgrade": "NULL_NA",
    "gnaf_pid": "GAVIC719409530"
   }
  },
  {
   "type": "Feature",
   "geometry": {
    "type": "Point",
    "coordinates": [
     144.659475,
     -37.72047262
    ]
   },
   "properties": {
    "name": "48 WOODLEA BOULEVARD AINTREE 3336",
    "locID": "LOC000140904272",
    "tech": "FTTP",
    "upgrade": "NULL_NA",
    "gnaf_pid": "GAVIC719409531"
   }
  },
  {
   "type": "Feature",
   "geometry": {
    "type": "Point",
    "coordinates": [
     144.65850015,
     -37.72220485
    ]
   },
   "properties": {
    "name": "32 ARBOURTON AVENUE AINTREE 3336",
    "locID": "LOC000150362068",
    "tech": "FTTP",
    "upgrade": "NULL_NA",
    "gnaf_pid": "GAVIC719409532"
   }
  },
  {
   "type": "Feature",
   "geometry": {
    "type": "Point",
    "coordinates": [
     144.66423092,
     -37.71917314
    ]
   },
   "properties": {
    "name": "3 WIRELESS DRIVE AINTREE 3336",
    "locID": "LOC000164300521",
    "tech": "FTTP",
    "upgrade": "NULL_NA",
    "gnaf_pid": "GAVIC719409533"
   }
  },
  {
   "type": "Feature",
   "geometry": {
    "type": "Point",
    "coordinates": [
     144.66169501,
     -37.72287617
    ]
   },
   "properties": {
    "name": "56 FRONTIER AVENUE AINTREE 3336",
    "locID": "LOC000146629700",
    "tech": "FTTP",
    "upgrade": "NULL_NA",
    "gnaf_pid": "GAVIC719409534"
   }
  },
  {
   "type": "Feature",
   "geometry": {
    "type": "Point",
    "coordinates": [
     144.6690915,
     -37.71753463
    ]
   },
   "properties": {
    "name": "15 HENDERSON CIRCUIT AINTREE 3336",
    "locID": "LOC000166019304",
    "tech": "FTTP",
    "upgrade": "NULL_NA",
    "gnaf_pid": "GAVIC719409535"
   }
  },
  {
   "type": "Feature",
   "geometry": {
    "type": "Point",
    "coordinates": [
     144.67089013,
     -37.71772803
    ]
   },
   "properties": {
    "name": "54 HENDERSON CIRCUIT AINTREE 3336",
    "locID": "LOC000175563251",
    "tech": "FTTP",
    "upgrade": "NULL_NA",
    "gnaf_pid": "GAVIC719409536"
   }
  },
  {
   "type": "Feature",
   "geometry": {
    "type": "Point",
    "coordinates": [
     144.66824865,
     -37.73002604
    ]
   },
   "properties": {
    "name": "19 JARVIS ROAD AINTREE 3336",
    "locID": "LOC000158365343",
    "tech": "FTTP",
    "upgrade": "NULL_NA",
    "gnaf_pid": "GAVIC719409550"
   }
  },
  {
   "type": "Feature",
   "geometry": {
    "type": "Point",
    "coordinates": [
     144.65644898,
     -37.72204984
    ]
   },
   "properties": {
    "name": "54 RIDERS CIRCUIT AINTREE 3336",
    "locID": "LOC000189190473",
    "tech": "FTTP",
    "upgrade": "NULL_NA",
    "gnaf_pid": "GAVIC719409551"
   }
  },
  {
   "type": "Feature",
   "geometry": {
    "type": "Point",
    "coordinates": [
     144.67129888,
     -37.71747107
    ]
   },
   "properties": {
    "name": "51 HENDERSON CIRCUIT AINTREE 3336",
    "locID": "LOC000175563710",
    "tech": "FTTP",
    "upgrade": "NULL_NA",
    "gnaf_pid": "GAVIC719409552"
   }
  },
  {
   "type": "Feature",
   "geometry": {
    "type": "Point",
    "coordinates": [
     144.66314724,
     -37.71819026
    ]
   },
   "properties": {
    "name": "8 FRONTIER AVENUE AINTREE 3336",
    "locID": "LOC000173763849",
    "tech": "FTTP",
    "upgrade": "NULL_NA",
    "gnaf_pid": "GAVIC719409553"
   }
  },
  {
   "type": "Feature",
   "geometry": {
    "type": "Point",
    "coordinates": [
     144.67458502,
     -37.7182557
    ]
   },
   "properties": {
    "name": "303 FRONTIER AVENUE AINTREE 3336",
    "locID": "LOC000177137503",
    "tech": "FTTP",
    "upgrade": "NULL_NA",
    "gnaf_pid": "GAVIC719409554"
   }
  },
  {
   "type": "Feature",
   "geometry": {
    "type": "Point",
    "coordinates": [
     144.66722257,
     -37.71797203
    ]
   },
   "properties": {
    "name": "36 SIGNAL CIRCUIT AINTREE 3336",
    "locID": "LOC000166018766",
    "tech": "FTTP",
    "upgrade": "NULL_NA",
    "gnaf_pid": "GAVIC719409555"
   }
  },
  {
   "type": "Feature",
   "geometry": {
    "type": "Point",
    "coordinates": [
     144.67580909,
     -37.71657526
    ]
   },
   "properties": {
    "name": "17 ANISEED AVENUE AINTREE 3336",
    "locID": "LOC000178213582",
    "tech": "FTTP",
    "upgrade": "NULL_NA",
    "gnaf_pid": "GAVIC719409556"
   }
  },
  {
   "type": "Feature",
   "geometry": {
    "type": "Point",
    "coordinates": [
     144.67324392,
     -37.71899221
    ]
   },
   "properties": {
    "name": "4 ALWYN CLOSE AINTREE 3336",
    "locID": "LOC000178904866",
    "tech": "FTTP",
    "upgrade": "NULL_NA",
    "gnaf_pid": "GAVIC719409557"
   }
  },
  {
   "type": "Feature",
   "geometry": {
    "type": "Point",
    "coordinates": [
     144.66117322,
     -37.72479513
    ]
   },
   "properties": {
    "name": "62 PIONEER DRIVE AINTREE 3336",
    "locID": "LOC000176942230",
    "tech": "FTTP",
    "upgrade": "NULL_NA",
    "gnaf_pid": "GAVIC719409558"
   }
  },
  {
   "type": "Feature",
   "geometry": {
    "type": "Point",
    "coordinates": [
     144.65637441,
     -37.71948322
    ]
   },
   "properties": {
    "name": "16 WOODLEA BOULEVARD AINTREE 3336",
    "locID": "LOC000140569792",
    "tech": "FTTP",
    "upgrade": "NULL_NA",
    "gnaf_pid": "GAVIC719409559"
   }
  },
  {
   "type": "Feature",
   "geometry": {
    "type": "Point",
    "coordinates": [
     144.66491795,
     -37.71958158
    ]
   },
   "properties": {
    "name": "10 WIRELESS DRIVE AINTREE 3336",
    "locID": "LOC000164300578",
    "tech": "FTTP",
    "upgrade": "NULL_NA",
    "gnaf_pid": "GAVIC719409560"
   }
  },
  {
   "type": "Feature",
   "geometry": {
    "type": "Point",
    "coordinates": [
     144.6631675,
     -37.72478975
    ]
   },
   "properties": {
    "name": "80 FRONTIER AVENUE AINTREE 3336",
    "locID": "LOC000154922855",
    "tech": "FTTP",
    "upgrade": "NULL_NA",
    "gnaf_pid": "GAVIC719409561"
   }
  },
  {
   "type": "Feature",
   "geometry": {
    "type": "Point",
    "coordinates": [
     144.67593673,
     -37.71914541
    ]
   },
   "properties": {
    "name": "290 FRONTIER AVENUE AINTREE 3336",
    "locID": "LOC000178951671",
    "tech": "FTTP",
    "upgrade": "NULL_NA",
    "gnaf_pid": "GAVIC719409562"
   }
  },
  {
   "type": "Feature",
   "geometry": {
    "type": "Point",
    "coordinates": [
     144.67664885,
     -37.71933114
    ]
   },
   "properties": {
    "name": "3 ROSEMARY AVENUE AINTREE 3336",
    "locID": "LOC000178951220",
    "tech": "FTTP",
    "upgrade": "NULL_NA",
    "gnaf_pid": "GAVIC719409563"
   }
  },
  {
   "type": "Feature",
   "geometry": {
    "type": "Point",
    "coordinates": [
     144.66959932,
     -37.71853753
    ]
   },
   "properties": {
    "name": "26 MISSION DRIVE AINTREE 3336",
    "locID": "LOC000175230514",
    "tech": "FTTP",
    "upgrade": "NULL_NA",
    "gnaf_pid": "GAVIC719409572"
   }
  },
  {
   "type": "Feature",
   "geometry": {
    "type": "Point",
    "coordinates": [
     144.67180153,
     -37.72135322
    ]
   },
   "properties": {
    "name": "3 TROOPER DRIVE AINTREE 3336",
    "locID": "LOC000178904747",
    "tech": "FTTP",
    "upgrade": "NULL_NA",
    "gnaf_pid": "GAVIC719409573"
   }
  },
  {
   "type": "Feature",
   "geometry": {
    "type": "Point",
    "coordinates": [
     144.6790602,
     -37.71860418
    ]
   },
   "properties": {
    "name": "55 CASCADE DRIVE AINTREE 3336",
    "locID": "LOC000178950474",
    "tech": "FTTP",
    "upgrade": "NULL_NA",
    "gnaf_pid": "GAVIC719409574"
   }
  },
  {
   "type": "Feature",
   "geometry": {
    "type": "Point",
    "coordinates": [
     144.67166486,
     -37.71958715
    ]
   },
   "properties": {
    "name": "92 FIELDS STREET AINTREE 3336",
    "locID": "LOC000175230973",
    "tech": "FTTP",
    "upgrade": "NULL_NA",
    "gnaf_pid": "GAVIC719409575"
   }
  },
  {
   "type": "Feature",
   "geometry": {
    "type": "Point",
    "coordinates": [
     144.66356902,
     -37.72067543
    ]
   },
   "properties": {
    "name": "18 CORYMBIA WAY AINTREE 3336",
    "locID": "LOC000164301260",
    "tech": "FTTP",
    "upgrade": "NULL_NA",
    "gnaf_pid": "GAVIC719409576"
   }
  },
  {
   "type": "Feature",
   "geometry": {
    "type": "Point",
    "coordinates": [
     144.65876988,
     -37.71830887
    ]
   },
   "properties": {
    "name": "21 BULLION DRIVE AINTREE 3336",
    "locID": "LOC000165466716",
    "tech": "FTTP",
    "upgrade": "NULL_NA",
    "gnaf_pid": "GAVIC719409577"
   }
  },
  {
   "type": "Feature",
   "geometry": {
    "type": "Point",
    "coordinates": [
     144.66012535,
     -37.72158511
    ]
   },
   "properties": {
    "name": "10 BROOMIE STREET AINTREE 3336",
    "locID": "LOC000140904168",
    "tech": "FTTP",
    "upgrade": "NULL_NA",
    "gnaf_pid": "GAVIC719409578"
   }
  },
  {
   "type": "Feature",
   "geometry": {
    "type": "Point",
    "coordinates": [
     144.66559678,
     -37.71931679
    ]
   },
   "properties": {
    "name": "17 WIRELESS DRIVE AINTREE 3336",
    "locID": "LOC000164300652",
    "tech": "FTTP",
    "upgrade": "NULL_NA",
    "gnaf_pid": "GAVIC719409589"
   }
  },
  {
   "type": "Feature",
   "geometry": {
    "type": "Point",
    "coordinates": [
     144.67235531,
     -37.71735227
    ]
   },
   "properties": {
    "name": "116 FIELDS STREET AINTREE 3336",
    "locID": "LOC000175564107",
    "tech": "FTTP",
    "upgrade": "NULL_NA",
    "gnaf_pid": "GAVIC719409590"
   }
  },
  {
   "type": "Feature",
   "geometry": {
    "type": "Point",
    "coordinates": [
     144.6654169,
     -37.71929792
    ]
   },
   "properties": {
    "name": "15 WIRELESS DRIVE AINTREE 3336",
    "locID": "LOC000164300647",
    "tech": "FTTP",
    "upgrade": "NULL_NA",
    "gnaf_pid": "GAVIC719409591"
   }
  },
  {
   "type": "Feature",
   "geometry": {
    "type": "Point",
    "coordinates": [
     144.66193855,
     -37.71760215
    ]
   },
   "properties": {
    "name": "60 BULLION DRIVE AINTREE 3336",
    "locID": "LOC000173763655",
    "tech": "FTTP",
    "upgrade": "NULL_NA",
    "gnaf_pid": "GAVIC719409592"
   }
  },
  {
   "type": "Feature",
   "geometry": {
    "type": "Point",
    "coordinates": [
     144.67790425,
     -37.71786616
    ]
   },
   "properties": {
    "name": "58 TEDCASTLE DRIVE AINTREE 3336",
    "locID": "LOC000178949230",
    "tech": "FTTP",
    "upgrade": "NULL_NA",
    "gnaf_pid": "GAVIC719409593"
   }
  },
  {
   "type": "Feature",
   "geometry": {
    "type": "Point",
    "coordinates": [
     144.66811004,
     -37.71786529
    ]
   },
   "properties": {
    "name": "10 COMMONWEALTH DRIVE AINTREE 3336",
    "locID": "LOC000166019021",
    "tech": "FTTP",
    "upgrade": "NULL_NA",
    "gnaf_pid": "GAVIC719409594"
   }
  },
  {
   "type": "Feature",
   "geometry": {
    "type": "Point",
    "coordinates": [
     144.66289535,
     -37.71998126
    ]
   },
   "properties": {
    "name": "28 FRONTIER AVENUE AINTREE 3336",
    "locID": "LOC000164301169",
    "tech": "FTTP",
    "upgrade": "NULL_NA",
    "gnaf_pid": "GAVIC719409595"
   }
  },
  {
   "type": "Feature",
   "geometry": {
    "type": "Point",
    "coordinates": [
     144.66890995,
     -37.72062506
    ]
   },
   "properties": {
    "name": "19 WALER STREET AINTREE 3336",
    "locID": "LOC000175650313",
    "tech": "FTTP",
    "upgrade": "NULL_NA",
    "gnaf_pid": "GAVIC719409596"
   }
  },
  {
   "type": "Feature",
   "geometry": {
    "type": "Point",
    "coordinates": [
     144.67807221,
     -37.71861095
    ]
   },
   "properties": {
    "name": "18 GOOSEBERRY ROAD AINTREE 3336",
    "locID": "LOC000178949593",
    "tech": "FTTP",
    "upgrade": "NULL_NA",
    "gnaf_pid": "GAVIC719409597"
   }
  },
  {
   "type": "Feature",
   "geometry": {
    "type": "Point",
    "coordinates": [
     144.66521879,
     -37.72646773
    ]
   },
   "properties": {
    "name": "14 WAGNER WAY AINTREE 3336",
    "locID": "LOC000156544237",
    "tech": "FTTP",
    "upgrade": "NULL_NA",
    "gnaf_pid": "GAVIC719409598"
   }
  },
  {
   "type": "Feature",
   "geometry": {
    "type": "Point",
    "coordinates": [
     144.67107617,
     -37.71977022
    ]
   },
   "properties": {
    "name": "87 FIELDS STREET AINTREE 3336",
    "locID": "LOC000175231051",
    "tech": "FTTP",
    "upgrade": "NULL_NA",
    "gnaf_pid": "GAVIC719409599"
   }
  },
  {
   "type": "Feature",
   "geometry": {
    "type": "Point",
    "coordinates": [
     144.6594963,
     -37.71948762
    ]
   },
   "properties": {
    "name": "7 WOOL STREET AINTREE 3336",
    "locID": "LOC000140904480",
    "tech": "FTTP",
    "upgrade": "NULL_NA",
    "gnaf_pid": "GAVIC719409620"
   }
  },
  {
   "type": "Feature",
   "geometry": {
    "type": "Point",
    "coordinates": [
     144.65720274,
     -37.71857343
    ]
   },
   "properties": {
    "name": "4 RUSH STREET AINTREE 3336",
    "locID": "LOC000140569511",
    "tech": "FTTP",
    "upgrade": "NULL_NA",
    "gnaf_pid": "GAVIC719409621"
   }
  },
  {
   "type": "Feature",
   "geometry": {
    "type": "Point",
    "coordinates": [
     144.66905123,
     -37.71777793
    ]
   },
   "properties": {
    "name": "11 HENDERSON CIRCUIT AINTREE 3336",
    "locID": "LOC000166019327",
    "tech": "FTTP",
    "upgrade": "NULL_NA",
    "gnaf_pid": "GAVIC719409622"
   }
  },
  {
   "type": "Feature",
   "geometry": {
    "type": "Point",
    "coordinates": [
     144.65738345,
     -37.71749714
    ]
   },
   "properties": {
    "name": "20 RUSH STREET AINTREE 3336",
    "locID": "LOC000165466240",
    "tech": "FTTP",
    "upgrade": "NULL_NA",
    "gnaf_pid": "GAVIC719409623"
   }
  },
  {
   "type": "Feature",
   "geometry": {
    "type": "Point",
    "coordinates": [
     144.6610956,
     -37.72321347
    ]
   },
   "properties": {
    "name": "6 TAMARIND PLACE AINTREE 3336",
    "locID": "LOC000149982070",
    "tech": "FTTP",
    "upgrade": "NULL_NA",
    "gnaf_pid": "GAVIC719409624"
   }
  },
  {
   "type": "Feature",
   "geometry": {
    "type": "Point",
    "coordinates": [
     144.65825597,
     -37.71802889
    ]
   },
   "properties": {
    "name": "14 QUARRY ROAD AINTREE 3336",
    "locID": "LOC000165466582",
    "tech": "FTTP",
    "upgrade": "NULL_NA",
    "gnaf_pid": "GAVIC719409625"
   }
  },
  {
   "type": "Feature",
   "geometry": {
    "type": "Point",
    "coordinates": [
     144.67871758,
     -37.71911469
    ]
   },
   "properties": {
    "name": "25 WALLABY ROAD AINTREE 3336",
    "locID": "LOC000178949712",
    "tech": "FTTP",
    "upgrade": "NULL_NA",
    "gnaf_pid": "GAVIC719409626"
   }
  },
  {
   "type": "Feature",
   "geometry": {
    "type": "Point",
    "coordinates": [
     144.67701008,
     -37.71602759
    ]
   },
   "properties": {
    "name": "13 CHESTNUT STREET AINTREE 3336",
    "locID": "LOC000178214158",
    "tech": "FTTP",
    "upgrade": "NULL_NA",
    "gnaf_pid": "GAVIC719409627"
   }
  },
  {
   "type": "Feature",
   "geometry": {
    "type": "Point",
    "coordinates": [
     144.66638952,
     -37.72610145
    ]
   },
   "properties": {
    "name": "114 FRONTIER AVENUE AINTREE 3336",
    "locID": "LOC000156543933",
    "tech": "FTTP",
    "upgrade": "NULL_NA",
    "gnaf_pid": "GAVIC719409640"
   }
  },
  {
   "type": "Feature",
   "geometry": {
    "type": "Point",
    "coordinates": [
     144.66164688,
     -37.7192347
    ]
   },
   "properties": {
    "name": "12 RADDLE ROAD AINTREE 3336",
    "locID": "LOC000150527324",
    "tech": "FTTP",
    "upgrade": "NULL_NA",
    "gnaf_pid": "GAVIC719409641"
   }
  },
  {
   "type": "Feature",
   "geometry": {
    "type": "Point",
    "coordinates": [
     144.65787514,
     -37.71784199
    ]
   },
   "properties": {
    "name": "17 QUARRY ROAD AINTREE 3336",
    "locID": "LOC000165466319",
    "tech": "FTTP",
    "upgrade": "NULL_NA",
    "gnaf_pid": "GAVIC719409642"
   }
  },
  {
   "type": "Feature",
   "geometry": {
    "type": "Point",
    "coordinates": [
     144.6773777,
     -37.71824705
    ]
   },
   "properties": {
    "name": "9 GOOSEBERRY ROAD AINTREE 3336",
    "locID": "LOC000178949346",
    "tech": "FTTP",
    "upgrade": "NULL_NA",
    "gnaf_pid": "GAVIC719409643"
   }
  },
  {
   "type": "Feature",
   "geometry": {
    "type": "Point",
    "coordinates": [
     144.66287007,
     -37.72013308
    ]
   },
   "properties": {
    "name": "30 FRONTIER AVENUE AINTREE 3336",
    "locID": "LOC000164301153",
    "tech": "FTTP",
    "upgrade": "NULL_NA",
    "gnaf_pid": "GAVIC719409644"
   }
  },
  {
   "type": "Feature",
   "geometry": {
    "type": "Point",
    "coordinates": [
     144.66639637,
     -37.71798754
    ]
   },
   "properties": {
    "name": "9 FOWLER PLACE AINTREE 3336",
    "locID": "LOC000164304933",
    "tech": "FTTP",
    "upgrade": "NULL_NA",
    "gnaf_pid": "GAVIC719409645"
   }
  },
  {
   "type": "Feature",
   "geometry": {
    "type": "Point",
    "coordinates": [
     144.65837558,
     -37.72002312
    ]
   },
   "properties": {
    "name": "36 WOODLEA BOULEVARD AINTREE 3336",
    "locID": "LOC000140569697",
    "tech": "FTTP",
    "upgrade": "NULL_NA",
    "gnaf_pid": "GAVIC719409646"
   }
  },
  {
   "type": "Feature",
   "geometry": {
    "type": "Point",
    "coordinates": [
     144.65829771,
     -37.71777874
    ]
   },
   "properties": {
    "name": "18 QUARRY ROAD AINTREE 3336",
    "locID": "LOC000165466609",
    "tech": "FTTP",
    "upgrade": "NULL_NA",
    "gnaf_pid": "GAVIC719409647"
   }
  },
  {
   "type": "Feature",
   "geometry": {
    "type": "Point",
    "coordinates": [
     144.66405868,
     -37.72599512
    ]
   },
   "properties": {
    "name": "2 WAGNER WAY AINTREE 3336",
    "locID": "LOC000154923714",
    "tech": "FTTP",
    "upgrade": "NULL_NA",
    "gnaf_pid": "GAVIC719409648"
   }
  },
  {
   "type": "Feature",
   "geometry": {
    "type": "Point",
    "coordinates": [
     144.65785852,
     -37.72259177
    ]
   },
   "properties": {
    "name": "3 LACEBARK LANE AINTREE 3336",
    "locID": "LOC000150362262",
    "tech": "FTTP",
    "upgrade": "NULL_NA",
    "gnaf_pid": "GAVIC719409658"
   }
  },
  {
   "type": "Feature",
   "geometry": {
    "type": "Point",
    "coordinates": [
     144.67469835,
     -37.71870395
    ]
   },
   "properties": {
    "name": "29 HISTORICAL DRIVE AINTREE 3336",
    "locID": "LOC000177137542",
    "tech": "FTTP",
    "upgrade": "NULL_NA",
    "gnaf_pid": "GAVIC719409659"
   }
  },
  {
   "type": "Feature",
   "geometry": {
    "type": "Point",
    "coordinates": [
     144.66022529,
     -37.72108205
    ]
   },
   "properties": {
    "name": "4 BROOMIE STREET AINTREE 3336",
    "locID": "LOC000140904031",
    "tech": "FTTP",
    "upgrade": "NULL_NA",
    "gnaf_pid": "GAVIC719409660"
   }
  },
  {
   "type": "Feature",
   "geometry": {
    "type": "Point",
    "coordinates": [
     144.66529185,
     -37.72836886
    ]
   },
   "properties": {
    "name": "13 EVERGILD STREET AINTREE 3336",
    "locID": "LOC000156405685",
    "tech": "FTTP",
    "upgrade": "NULL_NA",
    "gnaf_pid": "GAVIC719409661"
   }
  },
  {
   "type": "Feature",
   "geometry": {
    "type": "Point",
    "coordinates": [
     144.65581371,
     -37.72102964
    ]
   },
   "properties": {
    "name": "10 CEDAR STREET AINTREE 3336",
    "locID": "LOC000156632173",
    "tech": "FTTP",
    "upgrade": "NULL_NA",
    "gnaf_pid": "GAVIC719409662"
   }
  },
  {
   "type": "Feature",
   "geometry": {
    "type": "Point",
    "coordinates": [
     144.67702857,
     -37.71715178
    ]
   },
   "properties": {
    "name": "4 BRAMBLE WAY AINTREE 3336",
    "locID": "LOC000178623319",
    "tech": "FTTP",
    "upgrade": "NULL_NA",
    "gnaf_pid": "GAVIC719409663"
   }
  },
  {
   "type": "Feature",
   "geometry": {
    "type": "Point",
    "coordinates": [
     144.6593507,
     -37.7235933
    ]
   },
   "properties": {
    "name": "11 CASCARILLA STREET AINTREE 3336",
    "locID": "LOC000149981844",
    "tech": "FTTP",
    "upgrade": "NULL_NA",
    "gnaf_pid": "GAVIC719409665"
   }
  },
  {
   "type": "Feature",
   "geometry": {
    "type": "Point",
    "coordinates": [
     144.66975188,
     -37.71884428
    ]
   },
   "properties": {
    "name": "19 MISSION DRIVE AINTREE 3336",
    "locID": "LOC000175230648",
    "tech": "FTTP",
    "upgrade": "NULL_NA",
    "gnaf_pid": "GAVIC719409666"
   }
  },
  {
   "type": "Feature",
   "geometry": {
    "type": "Point",
    "coordinates": [
     144.67284154,
     -37.71850896
    ]
   },
   "properties": {
    "name": "7 HISTORICAL DRIVE AINTREE 3336",
    "locID": "LOC000177137640",
    "tech": "FTTP",
    "upgrade": "NULL_NA",
    "gnaf_pid": "GAVIC719409667"
   }
  },
  {
   "type": "Feature",
   "geometry": {
    "type": "Point",
    "coordinates": [
     144.66777056,
     -37.71721486
    ]
   },
   "properties": {
    "name": "4 MCNAUGHTON LANE AINTREE 3336",
    "locID": "LOC000166018922",
    "tech": "FTTP",
    "upgrade": "NULL_NA",
    "gnaf_pid": "GAVIC719411532"
   }
  },
  {
   "type": "Feature",
   "geometry": {
    "type": "Point",
    "coordinates": [
     144.67384616,
     -37.72121641
    ]
   },
   "properties": {
    "name": "5 AERIAL WAY AINTREE 3336",
    "locID": "LOC000178904845",
    "tech": "FTTP",
    "upgrade": "NULL_NA",
    "gnaf_pid": "GAVIC719411533"
   }
  },
  {
   "type": "Feature",
   "geometry": {
    "type": "Point",
    "coordinates": [
     144.66190848,
     -37.72109262
    ]
   },
   "properties": {
    "name": "63 WOODLEA BOULEVARD AINTREE 3336",
    "locID": "LOC000146628932",
    "tech": "FTTP",
    "upgrade": "NULL_NA",
    "gnaf_pid": "GAVIC719411534"
   }
  },
  {
   "type": "Feature",
   "geometry": {
    "type": "Point",
    "coordinates": [
     144.67346806,
     -37.71764319
    ]
   },
   "properties": {
    "name": "8 LORETTA WAY AINTREE 3336",
    "locID": "LOC000177894499",
    "tech": "FTTP",
    "upgrade": "NULL_NA",
    "gnaf_pid": "GAVIC719411535"
   }
  },
  {
   "type": "Feature",
   "geometry": {
    "type": "Point",
    "coordinates": [
     144.66532347,
     -37.72618632
    ]
   },
   "properties": {
    "name": "11 WAGNER WAY AINTREE 3336",
    "locID": "LOC000156544011",
    "tech": "FTTP",
    "upgrade": "NULL_NA",
    "gnaf_pid": "GAVIC719411536"
   }
  },
  {
   "type": "Feature",
   "geometry": {
    "type": "Point",
    "coordinates": [
     144.6747982,
     -37.71745149
    ]
   },
   "properties": {
    "name": "26 TEDCASTLE DRIVE AINTREE 3336",
    "locID": "LOC000177895014",
    "tech": "FTTP",
    "upgrade": "NULL_NA",
    "gnaf_pid": "GAVIC719411537"
   }
  },
  {
   "type": "Feature",
   "geometry": {
    "type": "Point",
    "coordinates": [
     144.66558506,
     -37.71763871
    ]
   },
   "properties": {
    "name": "15 SIGNAL CIRCUIT AINTREE 3336",
    "locID": "LOC000164305092",
    "tech": "FTTP",
    "upgrade": "NULL_NA",
    "gnaf_pid": "GAVIC719411538"
   }
  },
  {
   "type": "Feature",
   "geometry": {
    "type": "Point",
    "coordinates": [
     144.66411987,
     -37.72094001
    ]
   },
   "properties": {
    "name": "22 MORRISEY TERRACE AINTREE 3336",
    "locID": "LOC000164301097",
    "tech": "FTTP",
    "upgrade": "NULL_NA",
    "gnaf_pid": "GAVIC719411539"
   }
  },
  {
   "type": "Feature",
   "geometry": {
    "type": "Point",
    "coordinates": [
     144.67598835,
     -37.71549774
    ]
   },
   "properties": {
    "name": "3 ANISEED AVENUE AINTREE 3336",
    "locID": "LOC000178214191",
    "tech": "FTTP",
    "upgrade": "NULL_NA",
    "gnaf_pid": "GAVIC719411552"
   }
  },
  {
   "type": "Feature",
   "geometry": {
    "type": "Point",
    "coordinates": [
     144.6655271,
     -37.717987
    ]
   },
   "properties": {
    "name": "9 SIGNAL CIRCUIT AINTREE 3336",
    "locID": "LOC000164305160",
    "tech": "FTTP",
    "upgrade": "NULL_NA",
    "gnaf_pid": "GAVIC719411553"
   }
  },
  {
   "type": "Feature",
   "geometry": {
    "type": "Point",
    "coordinates": [
     144.67634914,
     -37.71695345
    ]
   },
   "properties": {
    "name": "34 ANISEED AVENUE AINTREE 3336",
    "locID": "LOC000178623123",
    "tech": "FTTP",
    "upgrade": "NULL_NA",
    "gnaf_pid": "GAVIC719411554"
   }
  },
  {
   "type": "Feature",
   "geometry": {
    "type": "Point",
    "coordinates": [
     144.6758784,
     -37.71801495
    ]
   },
   "properties": {
    "name": "5 PURSLANE WAY AINTREE 3336",
    "locID": "LOC000177137733",
    "tech": "FTTP",
    "upgrade": "NULL_NA",
    "gnaf_pid": "GAVIC719411555"
   }
  },
  {
   "type": "Feature",
   "geometry": {
    "type": "Point",
    "coordinates": [
     144.66901709,
     -37.72102131
    ]
   },
   "properties": {
    "name": "16 SHAW STREET AINTREE 3336",
    "locID": "LOC000175650996",
    "tech": "FTTP",
    "upgrade": "NULL_NA",
    "gnaf_pid": "GAVIC719411556"
   }
  },
  {
   "type": "Feature",
   "geometry": {
    "type": "Point",
    "coordinates": [
     144.65890717,
     -37.7174179
    ]
   },
   "properties": {
    "name": "1 BOOROOLA LANE AINTREE 3336",
    "locID": "LOC000165466650",
    "tech": "FTTP",
    "upgrade": "NULL_NA",
    "gnaf_pid": "GAVIC719411557"
   }
  },
  {
   "type": "Feature",
   "geometry": {
    "type": "Point",
    "coordinates": [
     144.67697222,
     -37.71749044
    ]
   },
   "properties": {
    "name": "10 BRAMBLE WAY AINTREE 3336",
    "locID": "LOC000178623342",
    "tech": "FTTP",
    "upgrade": "NULL_NA",
    "gnaf_pid": "GAVIC719411558"
   }
  },
  {
   "type": "Feature",
   "geometry": {
    "type": "Point",
    "coordinates": [
     144.67801489,
     -37.71904106
    ]
   },
   "properties": {
    "name": "15 WALLABY ROAD AINTREE 3336",
    "locID": "LOC000178949810",
    "tech": "FTTP",
    "upgrade": "NULL_NA",
    "gnaf_pid": "GAVIC719411559"
   }
  },
  {
   "type": "Feature",
   "geometry": {
    "type": "Point",
    "coordinates": [
     144.6694581,
     -37.71748873
    ]
   },
   "properties": {
    "name": "14 HENDERSON CIRCUIT AINTREE 3336",
    "locID": "LOC000166019468",
    "tech": "FTTP",
    "upgrade": "NULL_NA",
    "gnaf_pid": "GAVIC719411560"
   }
  },
  {
   "type": "Feature",
   "geometry": {
    "type": "Point",
    "coordinates": [
     144.66900621,
     -37.71804795
    ]
   },
   "properties": {
    "name": "7 HENDERSON CIRCUIT AINTREE 3336",
    "locID": "LOC000166019362",
    "tech": "FTTP",
    "upgrade": "NULL_NA",
    "gnaf_pid": "GAVIC719411566"
   }
  },
  {
   "type": "Feature",
   "geometry": {
    "type": "Point",
    "coordinates": [
     144.66009564,
     -37.72176367
    ]
   },
   "properties": {
    "name": "12 BROOMIE STREET AINTREE 3336",
    "locID": "LOC000146629530",
    "tech": "FTTP",
    "upgrade": "NULL_NA",
    "gnaf_pid": "GAVIC719411567"
   }
  },
  {
   "type": "Feature",
   "geometry": {
    "type": "Point",
    "coordinates": [
     144.66800596,
     -37.72977025
    ]
   },
   "properties": {
    "name": "16 JARVIS ROAD AINTREE 3336",
    "locID": "LOC000158365315",
    "tech": "FTTP",
    "upgrade": "NULL_NA",
    "gnaf_pid": "GAVIC719411568"
   }
  },
  {
   "type": "Feature",
   "geometry": {
    "type": "Point",
    "coordinates": [
     144.65920557,
     -37.72106767
    ]
   },
   "properties": {
    "name": "10 FLOCK STREET AINTREE 3336",
    "locID": "LOC000140904065",
    "tech": "FTTP",
    "upgrade": "NULL_NA",
    "gnaf_pid": "GAVIC719411569"
   }
  },
  {
   "type": "Feature",
   "geometry": {
    "type": "Point",
    "coordinates": [
     144.66042569,
     -37.72198019
    ]
   },
   "properties": {
    "name": "11 BROOMIE STREET AINTREE 3336",
    "locID": "LOC000146629319",
    "tech": "FTTP",
    "upgrade": "NULL_NA",
    "gnaf_pid": "GAVIC719411574"
   }
  },
  {
   "type": "Feature",
   "geometry": {
    "type": "Point",
    "coordinates": [
     144.66325146,
     -37.72562712
    ]
   },
   "properties": {
    "name": "11 HARGRAVES STREET AINTREE 3336",
    "locID": "LOC000154923557",
    "tech": "FTTP",
    "upgrade": "NULL_NA",
    "gnaf_pid": "GAVIC719411575"
   }
  },
  {
   "type": "Feature",
   "geometry": {
    "type": "Point",
    "coordinates": [
     144.66717333,
     -37.72948143
    ]
   },
   "properties": {
    "name": "18 BEAUMONT STREET AINTREE 3336",
    "locID": "LOC000158364792",
    "tech": "FTTP",
    "upgrade": "NULL_NA",
    "gnaf_pid": "GAVIC719411576"
   }
  },
  {
   "type": "Feature",
   "geometry": {
    "type": "Point",
    "coordinates": [
     144.66187529,
     -37.71786104
    ]
   },
   "properties": {
    "name": "26 RADDLE ROAD AINTREE 3336",
    "locID": "LOC000173763428",
    "tech": "FTTP",
    "upgrade": "NULL_NA",
    "gnaf_pid": "GAVIC719411577"
   }
  },
  {
   "type": "Feature",
   "geometry": {
    "type": "Point",
    "coordinates": [
     144.65664512,
     -37.72152709
    ]
   },
   "properties": {
    "name": "4 LANTANA ROAD AINTREE 3336",
    "locID": "LOC000153224554",
    "tech": "FTTP",
    "upgrade": "NULL_NA",
    "gnaf_pid": "GAVIC719411578"
   }
  },
  {
   "type": "Feature",
   "geometry": {
    "type": "Point",
    "coordinates": [
     144.66427107,
     -37.72003131
    ]
   },
   "properties": {
    "name": "8 MORRISEY TERRACE AINTREE 3336",
    "locID": "LOC000164301021",
    "tech": "FTTP",
    "upgrade": "NULL_NA",
    "gnaf_pid": "GAVIC719411581"
   }
  },
  {
   "type": "Feature",
   "geometry": {
    "type": "Point",
    "coordinates": [
     144.66768295,
     -37.72869175
    ]
   },
   "properties": {
    "name": "4 BEAUMONT STREET AINTREE 3336",
    "locID": "LOC000158364684",
    "tech": "FTTP",
    "upgrade": "NULL_NA",
    "gnaf_pid": "GAVIC719411582"
   }
  },
  {
   "type": "Feature",
   "geometry": {
    "type": "Point",
    "coordinates": [
     144.67704759,
     -37.71703704
    ]
   },
   "properties": {
    "name": "2 BRAMBLE WAY AINTREE 3336",
    "locID": "LOC000178623303",
    "tech": "FTTP",
    "upgrade": "NULL_NA",
    "gnaf_pid": "GAVIC719411583"
   }
  },
  {
   "type": "Feature",
   "geometry": {
    "type": "Point",
    "coordinates": [
     144.66111767,
     -37.72114419
    ]
   },
   "properties": {
    "name": "66 WOODLEA BOULEVARD AINTREE 3336",
    "locID": "LOC000146629008",
    "tech": "FTTP",
    "upgrade": "NULL_NA",
    "gnaf_pid": "GAVIC719411584"
   }
  },
  {
   "type": "Feature",
   "geometry": {
    "type": "Point",
    "coordinates": [
     144.67004696,
     -37.71729442
    ]
   },
   "properties": {
    "name": "9 GODFREY STREET AINTREE 3336",
    "locID": "LOC000166019729",
    "tech": "FTTP",
    "upgrade": "NULL_NA",
    "gnaf_pid": "GAVIC719411585"
   }
  },
  {
   "type": "Feature",
   "geometry": {
    "type": "Point",
    "coordinates": [
     144.66103298,
     -37.72190544
    ]
   },
   "properties": {
    "name": "12 SHEARER WAY AINTREE 3336",
    "locID": "LOC000146629238",
    "tech": "FTTP",
    "upgrade": "NULL_NA",
    "gnaf_pid": "GAVIC719411586"
   }
  },
  {
   "type": "Feature",
   "geometry": {
    "type": "Point",
    "coordinates": [
     144.67238468,
     -37.71918833
    ]
   },
   "properties": {
    "name": "5 STOCKADE WAY AINTREE 3336",
    "locID": "LOC000178904222",
    "tech": "FTTP",
    "upgrade": "NULL_NA",
    "gnaf_pid": "GAVIC719411587"
   }
  },
  {
   "type": "Feature",
   "geometry": {
    "type": "Point",
    "coordinates": [
     144.65644907,
     -37.72355987
    ]
   },
   "properties": {
    "name": "5 PERSIMMON WAY AINTREE 3336",
    "locID": "LOC000150362408",
    "tech": "FTTP",
    "upgrade": "NULL_NA",
    "gnaf_pid": "GAVIC719411598"
   }
  },
  {
   "type": "Feature",
   "geometry": {
    "type": "Point",
    "coordinates": [
     144.65868719,
     -37.72091607
    ]
   },
   "properties": {
    "name": "7 GROMARK STREET AINTREE 3336",
    "locID": "LOC000140904123",
    "tech": "FTTP",
    "upgrade": "NULL_NA",
    "gnaf_pid": "GAVIC719411599"
   }
  },
  {
   "type": "Feature",
   "geometry": {
    "type": "Point",
    "coordinates": [
     144.66250208,
     -37.71931955
    ]
   },
   "properties": {
    "name": "18 TUCKEROO ROAD AINTREE 3336",
    "locID": "LOC000150527492",
    "tech": "FTTP",
    "upgrade": "NULL_NA",
    "gnaf_pid": "GAVIC719411600"
   }
  },
  {
   "type": "Feature",
   "geometry": {
    "type": "Point",
    "coordinates": [
     144.665081,
     -37.7185355
    ]
   },
   "properties": {
    "name": "3 WALKER STREET AINTREE 3336",
    "locID": "LOC000164304745",
    "tech": "FTTP",
    "upgrade": "NULL_NA",
    "gnaf_pid": "GAVIC719411601"
   }
  },
  {
   "type": "Feature",
   "geometry": {
    "type": "Point",
    "coordinates": [
     144.66375922,
     -37.72677477
    ]
   },
   "properties": {
    "name": "94 PIONEER DRIVE AINTREE 3336",
    "locID": "LOC000154923686",
    "tech": "FTTP",
    "upgrade": "NULL_NA",
    "gnaf_pid": "GAVIC719411602"
   }
  },
  {
   "type": "Feature",
   "geometry": {
    "type": "Point",
    "coordinates": [
     144.6701392,
     -37.72065361
    ]
   },
   "properties": {
    "name": "5 SHAW STREET AINTREE 3336",
    "locID": "LOC000175651092",
    "tech": "FTTP",
    "upgrade": "NULL_NA",
    "gnaf_pid": "GAVIC719411603"
   }
  },
  {
   "type": "Feature",
   "geometry": {
    "type": "Point",
    "coordinates": [
     144.66805876,
     -37.71817345
    ]
   },
   "properties": {
    "name": "16 COMMONWEALTH DRIVE AINTREE 3336",
    "locID": "LOC000166019050",
    "tech": "FTTP",
    "upgrade": "NULL_NA",
    "gnaf_pid": "GAVIC719411604"
   }
  },
  {
   "type": "Feature",
   "geometry": {
    "type": "Point",
    "coordinates": [
     144.65984953,
     -37.71970589
    ]
   },
   "properties": {
    "name": "6 WOOL STREET AINTREE 3336",
    "locID": "LOC000140904524",
    "tech": "FTTP",
    "upgrade": "NULL_NA",
    "gnaf_pid": "GAVIC719411605"
   }
  },
  {
   "type": "Feature",
   "geometry": {
    "type": "Point",
    "coordinates": [
     144.66162909,
     -37.7232829
    ]
   },
   "properties": {
    "name": "62 FRONTIER AVENUE AINTREE 3336",
    "locID": "LOC000149982091",
    "tech": "FTTP",
    "upgrade": "NULL_NA",
    "gnaf_pid": "GAVIC719411617"
   }
  },
  {
   "type": "Feature",
   "geometry": {
    "type": "Point",
    "coordinates": [
     144.66540454,
     -37.7209227
    ]
   },
   "properties": {
    "name": "19 FERNELEY VIEW AINTREE 3336",
    "locID": "LOC000164300702",
    "tech": "FTTP",
    "upgrade": "NULL_NA",
    "gnaf_pid": "GAVIC719411618"
   }
  },
  {
   "type": "Feature",
   "geometry": {
    "type": "Point",
    "coordinates": [
     144.65697462,
     -37.71775418
    ]
   },
   "properties": {
    "name": "13 RUSH STREET AINTREE 3336",
    "locID": "LOC000165466152",
    "tech": "FTTP",
    "upgrade": "NULL_NA",
    "gnaf_pid": "GAVIC719411619"
   }
  },
  {
   "type": "Feature",
   "geometry": {
    "type": "Point",
    "coordinates": [
     144.65852097,
     -37.71856549
    ]
   },
   "properties": {
    "name": "4 CROSS LANE AINTREE 3336",
    "locID": "LOC000140569576",
    "tech": "FTTP",
    "upgrade": "NULL_NA",
    "gnaf_pid": "GAVIC719411620"
   }
  },
  {
   "type": "Feature",
   "geometry": {
    "type": "Point",
    "coordinates": [
     144.65970146,
     -37.72402607
    ]
   },
   "properties": {
    "name": "12 BOTTLEBRUSH ROAD AINTREE 3336",
    "locID": "LOC000149981925",
    "tech": "FTTP",
    "upgrade": "NULL_NA",
    "gnaf_pid": "GAVIC719411621"
   }
  },
  {
   "type": "Feature",
   "geometry": {
    "type": "Point",
    "coordinates": [
     144.66666757,
     -37.71855677
    ]
   },
   "properties": {
    "name": "4 FOWLER PLACE AINTREE 3336",
    "locID": "LOC000164304811",
    "tech": "FTTP",
    "upgrade": "NULL_NA",
    "gnaf_pid": "GAVIC719411622"
   }
  },
  {
   "type": "Feature",
   "geometry": {
    "type": "Point",
    "coordinates": [
     144.66094803,
     -37.72563229
    ]
   },
   "properties": {
    "name": "10 DEVINE LANE AINTREE 3336",
    "locID": "LOC000152567727",
    "tech": "FTTP",
    "upgrade": "NULL_NA",
    "gnaf_pid": "GAVIC719411623"
   }
  },
  {
   "type": "Feature",
   "geometry": {
    "type": "Point",
    "coordinates": [
     144.66069446,
     -37.7198263
    ]
   },
   "properties": {
    "name": "1 FLEECE ROAD AINTREE 3336",
    "locID": "LOC000140904414",
    "tech": "FTTP",
    "upgrade": "NULL_NA",
    "gnaf_pid": "GAVIC719411624"
   }
  },
  {
   "type": "Feature",
   "geometry": {
    "type": "Point",
    "coordinates": [
     144.65513923,
     -37.71948119
    ]
   },
   "properties": {
    "name": "6 MATILDA LANE AINTREE 3336",
    "locID": "LOC000156629472",
    "tech": "FTTP",
    "upgrade": "NULL_NA",
    "gnaf_pid": "GAVIC719411625"
   }
  },
  {
   "type": "Feature",
   "geometry": {
    "type": "Point",
    "coordinates": [
     144.67882844,
     -37.71819719
    ]
   },
   "properties": {
    "name": "59 CASCADE DRIVE AINTREE 3336",
    "locID": "LOC000178950419",
    "tech": "FTTP",
    "upgrade": "NULL_NA",
    "gnaf_pid": "GAVIC719411632"
   }
  },
  {
   "type": "Feature",
   "geometry": {
    "type": "Point",
    "coordinates": [
     144.67278507,
     -37.71879386
    ]
   },
   "properties": {
    "name": "8 HISTORICAL DRIVE AINTREE 3336",
    "locID": "LOC000177137693",
    "tech": "FTTP",
    "upgrade": "NULL_NA",
    "gnaf_pid": "GAVIC719411633"
   }
  },
  {
   "type": "Feature",
   "geometry": {
    "type": "Point",
    "coordinates": [
     144.66939776,
     -37.72716227
    ]
   },
   "properties": {
    "name": "2 GILDERTON ESPLANADE AINTREE 3336",
    "locID": "LOC000157301657",
    "tech": "FTTP",
    "upgrade": "NULL_NA",
    "gnaf_pid": "GAVIC719411634"
   }
  },
  {
   "type": "Feature",
   "geometry": {
    "type": "Point",
    "coordinates": [
     144.67804655,
     -37.71594115
    ]
   },
   "properties": {
    "name": "89 CASCADE DRIVE AINTREE 3336",
    "locID": "LOC000178213264",
    "tech": "FTTP",
    "upgrade": "NULL_NA",
    "gnaf_pid": "GAVIC719411635"
   }
  },
  {
   "type": "Feature",
   "geometry": {
    "type": "Point",
    "coordinates": [
     144.6701987,
     -37.71889132
    ]
   },
   "properties": {
    "name": "13 MISSION DRIVE AINTREE 3336",
    "locID": "LOC000175230676",
    "tech": "FTTP",
    "upgrade": "NULL_NA",
    "gnaf_pid": "GAVIC719411636"
   }
  },
  {
   "type": "Feature",
   "geometry": {
    "type": "Point",
    "coordinates": [
     144.66888308,
     -37.71875316
    ]
   },
   "properties": {
    "name": "29 MISSION DRIVE AINTREE 3336",
    "locID": "LOC000166019241",
    "tech": "FTTP",
    "upgrade": "NULL_NA",
    "gnaf_pid": "GAVIC719411637"
   }
  },
  {
   "type": "Feature",
   "geometry": {
    "type": "Point",
    "coordinates": [
     144.67983055,
     -37.71975649
    ]
   },
   "properties": {
    "name": "39 CASCADE DRIVE AINTREE 3336",
    "locID": "LOC000178950658",
    "tech": "FTTP",
    "upgrade": "NULL_NA",
    "gnaf_pid": "GAVIC719411638"
   }
  },
  {
   "type": "Feature",
   "geometry": {
    "type": "Point",
    "coordinates": [
     144.66378856,
     -37.72641179
    ]
   },
   "properties": {
    "name": "91 PIONEER DRIVE AINTREE 3336",
    "locID": "LOC000154923705",
    "tech": "FTTP",
    "upgrade": "NULL_NA",
    "gnaf_pid": "GAVIC719411639"
   }
  },
  {
   "type": "Feature",
   "geometry": {
    "type": "Point",
    "coordinates": [
     144.67047003,
     -37.73080294
    ]
   },
   "properties": {
    "name": "42 GILDERTON ESPLANADE AINTREE 3336",
    "locID": "LOC000164294631",
    "tech": "FTTP",
    "upgrade": "NULL_NA",
    "gnaf_pid": "GAVIC719411657"
   }
  },
  {
   "type": "Feature",
   "geometry": {
    "type": "Point",
    "coordinates": [
     144.67671627,
     -37.71963178
    ]
   },
   "properties": {
    "name": "5 CASCADE DRIVE AINTREE 3336",
    "locID": "LOC000178951040",
    "tech": "FTTP",
    "upgrade": "NULL_NA",
    "gnaf_pid": "GAVIC719411658"
   }
  },
  {
   "type": "Feature",
   "geometry": {
    "type": "Point",
    "coordinates": [
     144.6681096,
     -37.72680225
    ]
   },
   "properties": {
    "name": "130 FRONTIER AVENUE AINTREE 3336",
    "locID": "LOC000157301571",
    "tech": "FTTP",
    "upgrade": "NULL_NA",
    "gnaf_pid": "GAVIC719411659"
   }
  },
  {
   "type": "Feature",
   "geometry": {
    "type": "Point",
    "coordinates": [
     144.6651996,
     -37.72736143
    ]
   },
   "properties": {
    "name": "108 PIONEER DRIVE AINTREE 3336",
    "locID": "LOC000156545240",
    "tech": "FTTP",
    "upgrade": "NULL_NA",
    "gnaf_pid": "GAVIC719411660"
   }
  },
  {
   "type": "Feature",
   "geometry": {
    "type": "Point",
    "coordinates": [
     144.6566611,
     -37.72212337
    ]
   },
   "properties": {
    "name": "6 PIONEER DRIVE AINTREE 3336",
    "locID": "LOC000150362338",
    "tech": "FTTP",
    "upgrade": "NULL_NA",
    "gnaf_pid": "GAVIC719411661"
   }
  },
  {
   "type": "Feature",
   "geometry": {
    "type": "Point",
    "coordinates": [
     144.6618909,
     -37.72146031
    ]
   },
   "properties": {
    "name": "74 WOODLEA BOULEVARD AINTREE 3336",
    "locID": "LOC000146629049",
    "tech": "FTTP",
    "upgrade": "NULL_NA",
    "gnaf_pid": "GAVIC719411675"
   }
  },
  {
   "type": "Feature",
   "geometry": {
    "type": "Point",
    "coordinates": [
     144.66677471,
     -37.72851936
    ]
   },
   "properties": {
    "name": "6 BAYLEY CHASE AINTREE 3336",
    "locID": "LOC000156406834",
    "tech": "FTTP",
    "upgrade": "NULL_NA",
    "gnaf_pid": "GAVIC719411676"
   }
  },
  {
   "type": "Feature",
   "geometry": {
    "type": "Point",
    "coordinates": [
     144.65733836,
     -37.72094091
    ]
   },
   "properties": {
    "name": "14 MUSTER DRIVE AINTREE 3336",
    "locID": "LOC000140903779",
    "tech": "FTTP",
    "upgrade": "NULL_NA",
    "gnaf_pid": "GAVIC719411677"
   }
  },
  {
   "type": "Feature",
   "geometry": {
    "type": "Point",
    "coordinates": [
     144.65495109,
     -37.72071549
    ]
   },
   "properties": {
    "name": "25 RIDERS CIRCUIT AINTREE 3336",
    "locID": "LOC000156630860",
    "tech": "FTTP",
    "upgrade": "NULL_NA",
    "gnaf_pid": "GAVIC719411678"
   }
  },
  {
   "type": "Feature",
   "geometry": {
    "type": "Point",
    "coordinates": [
     144.65940716,
     -37.72433239
    ]
   },
   "properties": {
    "name": "41 PIONEER DRIVE AINTREE 3336",
    "locID": "LOC000149981941",
    "tech": "FTTP",
    "upgrade": "NULL_NA",
    "gnaf_pid": "GAVIC719411679"
   }
  },
  {
   "type": "Feature",
   "geometry": {
    "type": "Point",
    "coordinates": [
     144.65898418,
     -37.72408867
    ]
   },
   "properties": {
    "name": "35 PIONEER DRIVE AINTREE 3336",
    "locID": "LOC000149981973",
    "tech": "FTTP",
    "upgrade": "NULL_NA",
    "gnaf_pid": "GAVIC719411680"
   }
  },
  {
   "type": "Feature",
   "geometry": {
    "type": "Point",
    "coordinates": [
     144.65884478,
     -37.72257734
    ]
   },
   "properties": {
    "name": "31 ARBOURTON AVENUE AINTREE 3336",
    "locID": "LOC000150362215",
    "tech": "FTTP",
    "upgrade": "NULL_NA",
    "gnaf_pid": "GAVIC719411681"
   }
  },
  {
   "type": "Feature",
   "geometry": {
    "type": "Point",
    "coordinates": [
     144.66172966,
     -37.7238816
    ]
   },
   "properties": {
    "name": "66 FRONTIER AVENUE AINTREE 3336",
    "locID": "LOC000149982366",
    "tech": "FTTP",
    "upgrade": "NULL_NA",
    "gnaf_pid": "GAVIC719411682"
   }
  },
  {
   "type": "Feature",
   "geometry": {
    "type": "Point",
    "coordinates": [
     144.66565822,
     -37.72780126
    ]
   },
   "properties": {
    "name": "3 EVERGILD STREET AINTREE 3336",
    "locID": "LOC000156405766",
    "tech": "FTTP",
    "upgrade": "NULL_NA",
    "gnaf_pid": "GAVIC719411693"
   }
  },
  {
   "type": "Feature",
   "geometry": {
    "type": "Point",
    "coordinates": [
     144.65944192,
     -37.71965635
    ]
   },
   "properties": {
    "name": "5 WOOL STREET AINTREE 3336",
    "locID": "LOC000140904479",
    "tech": "FTTP",
    "upgrade": "NULL_NA",
    "gnaf_pid": "GAVIC719411694"
   }
  },
  {
   "type": "Feature",
   "geometry": {
    "type": "Point",
    "coordinates": [
     144.65677677,
     -37.72074153
    ]
   },
   "properties": {
    "name": "16 LANTANA ROAD AINTREE 3336",
    "locID": "LOC000156634275",
    "tech": "FTTP",
    "upgrade": "NULL_NA",
    "gnaf_pid": "GAVIC719411695"
   }
  },
  {
   "type": "Feature",
   "geometry": {
    "type": "Point",
    "coordinates": [
     144.66476577,
     -37.72681026
    ]
   },
   "properties": {
    "name": "105 PIONEER DRIVE AINTREE 3336",
    "locID": "LOC000156544409",
    "tech": "FTTP",
    "upgrade": "NULL_NA",
    "gnaf_pid": "GAVIC719411696"
   }
  },
  {
   "type": "Feature",
   "geometry": {
    "type": "Point",
    "coordinates": [
     144.66159635,
     -37.71953835
    ]
   },
   "properties": {
    "name": "8 RADDLE ROAD AINTREE 3336",
    "locID": "LOC000150527307",
    "tech": "FTTP",
    "upgrade": "NULL_NA",
    "gnaf_pid": "GAVIC719411697"
   }
  },
  {
   "type": "Feature",
   "geometry": {
    "type": "Point",
    "coordinates": [
     144.66442744,
     -37.71759703
    ]
   },
   "properties": {
    "name": "24 DALWOOD CIRCUIT AINTREE 3336",
    "locID": "LOC000173763808",
    "tech": "FTTP",
    "upgrade": "NULL_NA",
    "gnaf_pid": "GAVIC719411698"
   }
  },
  {
   "type": "Feature",
   "geometry": {
    "type": "Point",
    "coordinates": [
     144.65933529,
     -37.72470265
    ]
   },
   "properties": {
    "name": "46 PIONEER DRIVE AINTREE 3336",
    "locID": "LOC000149982418",
    "tech": "FTTP",
    "upgrade": "NULL_NA",
    "gnaf_pid": "GAVIC719411699"
   }
  },
  {
   "type": "Feature",
   "geometry": {
    "type": "Point",
    "coordinates": [
     144.66244598,
     -37.72131227
    ]
   },
   "properties": {
    "name": "42 FRONTIER AVENUE AINTREE 3336",
    "locID": "LOC000146628913",
    "tech": "FTTP",
    "upgrade": "NULL_NA",
    "gnaf_pid": "GAVIC719411700"
   }
  },
  {
   "type": "Feature",
   "geometry": {
    "type": "Point",
    "coordinates": [
     144.66213974,
     -37.72178492
    ]
   },
   "properties": {
    "name": "46 FRONTIER AVENUE AINTREE 3336",
    "locID": "LOC000146629065",
    "tech": "FTTP",
    "upgrade": "NULL_NA",
    "gnaf_pid": "GAVIC719411701"
   }
  },
  {
   "type": "Feature",
   "geometry": {
    "type": "Point",
    "coordinates": [
     144.67523995,
     -37.7167708
    ]
   },
   "properties": {
    "name": "20 ANISEED AVENUE AINTREE 3336",
    "locID": "LOC000178213650",
    "tech": "FTTP",
    "upgrade": "NULL_NA",
    "gnaf_pid": "GAVIC719411702"
   }
  },
  {
   "type": "Feature",
   "geometry": {
    "type": "Point",
    "coordinates": [
     144.67427257,
     -37.71822309
    ]
   },
   "properties": {
    "name": "307 FRONTIER AVENUE AINTREE 3336",
    "locID": "LOC000177137485",
    "tech": "FTTP",
    "upgrade": "NULL_NA",
    "gnaf_pid": "GAVIC719411703"
   }
  },
  {
   "type": "Feature",
   "geometry": {
    "type": "Point",
    "coordinates": [
     144.66570965,
     -37.72703005
    ]
   },
   "properties": {
    "name": "117 PIONEER DRIVE AINTREE 3336",
    "locID": "LOC000156405086",
    "tech": "FTTP",
    "upgrade": "NULL_NA",
    "gnaf_pid": "GAVIC719411704"
   }
  },
  {
   "type": "Feature",
   "geometry": {
    "type": "Point",
    "coordinates": [
     144.6744131,
     -37.71823788
    ]
   },
   "properties": {
    "name": "305 FRONTIER AVENUE AINTREE 3336",
    "locID": "LOC000177137492",
    "tech": "FTTP",
    "upgrade": "NULL_NA",
    "gnaf_pid": "GAVIC719411705"
   }
  },
  {
   "type": "Feature",
   "geometry": {
    "type": "Point",
    "coordinates": [
     144.67309436,
     -37.71770839
    ]
   },
   "properties": {
    "name": "322 FRONTIER AVENUE AINTREE 3336",
    "locID": "LOC000177136454",
    "tech": "FTTP",
    "upgrade": "NULL_NA",
    "gnaf_pid": "GAVIC719411706"
   }
  },
  {
   "type": "Feature",
   "geometry": {
    "type": "Point",
    "coordinates": [
     144.67581148,
     -37.71730619
    ]
   },
   "properties": {
    "name": "29 TEDCASTLE DRIVE AINTREE 3336",
    "locID": "LOC000177895112",
    "tech": "FTTP",
    "upgrade": "NULL_NA",
    "gnaf_pid": "GAVIC719411711"
   }
  },
  {
   "type": "Feature",
   "geometry": {
    "type": "Point",
    "coordinates": [
     144.65746752,
     -37.72045143
    ]
   },
   "properties": {
    "name": "8 MUSTER DRIVE AINTREE 3336",
    "locID": "LOC000140903808",
    "tech": "FTTP",
    "upgrade": "NULL_NA",
    "gnaf_pid": "GAVIC719411712"
   }
  },
  {
   "type": "Feature",
   "geometry": {
    "type": "Point",
    "coordinates": [
     144.65984754,
     -37.72362952
    ]
   },
   "properties": {
    "name": "6 BOTTLEBRUSH ROAD AINTREE 3336",
    "locID": "LOC000149981892",
    "tech": "FTTP",
    "upgrade": "NULL_NA",
    "gnaf_pid": "GAVIC719411713"
   }
  },
  {
   "type": "Feature",
   "geometry": {
    "type": "Point",
    "coordinates": [
     144.66865987,
     -37.72938876
    ]
   },
   "properties": {
    "name": "7 JARVIS ROAD AINTREE 3336",
    "locID": "LOC000158365452",
    "tech": "FTTP",
    "upgrade": "NULL_NA",
    "gnaf_pid": "GAVIC719411714"
   }
  },
  {
   "type": "Feature",
   "geometry": {
    "type": "Point",
    "coordinates": [
     144.65968825,
     -37.71835936
    ]
   },
   "properties": {
    "name": "25 WOOL STREET AINTREE 3336",
    "locID": "LOC000165466894",
    "tech": "FTTP",
    "upgrade": "NULL_NA",
    "gnaf_pid": "GAVIC719411715"
   }
  },
  {
   "type": "Feature",
   "geometry": {
    "type": "Point",
    "coordinates": [
     144.66679472,
     -37.71779317
    ]
   },
   "properties": {
    "name": "16 FOWLER PLACE AINTREE 3336",
    "locID": "LOC000164304876",
    "tech": "FTTP",
    "upgrade": "NULL_NA",
    "gnaf_pid": "GAVIC719411716"
   }
  },
  {
   "type": "Feature",
   "geometry": {
    "type": "Point",
    "coordinates": [
     144.67413493,
     -37.71709086
    ]
   },
   "properties": {
    "name": "13 TEDCASTLE DRIVE AINTREE 3336",
    "locID": "LOC000177895196",
    "tech": "FTTP",
    "upgrade": "NULL_NA",
    "gnaf_pid": "GAVIC719411717"
   }
  },
  {
   "type": "Feature",
   "geometry": {
    "type": "Point",
    "coordinates": [
     144.66224404,
     -37.71760664
    ]
   },
   "properties": {
    "name": "64 BULLION DRIVE AINTREE 3336",
    "locID": "LOC000173763672",
    "tech": "FTTP",
    "upgrade": "NULL_NA",
    "gnaf_pid": "GAVIC719411718"
   }
  },
  {
   "type": "Feature",
   "geometry": {
    "type": "Point",
    "coordinates": [
     144.67796374,
     -37.71758157
    ]
   },
   "properties": {
    "name": "53 TEDCASTLE DRIVE AINTREE 3336",
    "locID": "LOC000178622953",
    "tech": "FTTP",
    "upgrade": "NULL_NA",
    "gnaf_pid": "GAVIC719411719"
   }
  },
  {
   "type": "Feature",
   "geometry": {
    "type": "Point",
    "coordinates": [
     144.66452522,
     -37.71850664
    ]
   },
   "properties": {
    "name": "38 DALWOOD CIRCUIT AINTREE 3336",
    "locID": "LOC000164304462",
    "tech": "FTTP",
    "upgrade": "NULL_NA",
    "gnaf_pid": "GAVIC719411720"
   }
  },
  {
   "type": "Feature",
   "geometry": {
    "type": "Point",
    "coordinates": [
     144.65819601,
     -37.72310642
    ]
   },
   "properties": {
    "name": "12 SASSAFRAS WAY AINTREE 3336",
    "locID": "LOC000149980373",
    "tech": "FTTP",
    "upgrade": "NULL_NA",
    "gnaf_pid": "GAVIC719411721"
   }
  },
  {
   "type": "Feature",
   "geometry": {
    "type": "Point",
    "coordinates": [
     144.67066334,
     -37.71792221
    ]
   },
   "properties": {
    "name": "13 WYNNE ROAD AINTREE 3336",
    "locID": "LOC000175564050",
    "tech": "FTTP",
    "upgrade": "NULL_NA",
    "gnaf_pid": "GAVIC719411722"
   }
  },
  {
   "type": "Feature",
   "geometry": {
    "type": "Point",
    "coordinates": [
     144.66915955,
     -37.73019451
    ]
   },
   "properties": {
    "name": "13 GOLDSTONE GROVE AINTREE 3336",
    "locID": "LOC000164294228",
    "tech": "FTTP",
    "upgrade": "NULL_NA",
    "gnaf_pid": "GAVIC719411723"
   }
  },
  {
   "type": "Feature",
   "geometry": {
    "type": "Point",
    "coordinates": [
     144.67732815,
     -37.71751479
    ]
   },
   "properties": {
    "name": "45 TEDCASTLE DRIVE AINTREE 3336",
    "locID": "LOC000178622911",
    "tech": "FTTP",
    "upgrade": "NULL_NA",
    "gnaf_pid": "GAVIC719411740"
   }
  },
  {
   "type": "Feature",
   "geometry": {
    "type": "Point",
    "coordinates": [
     144.66791008,
     -37.7171946
    ]
   },
   "properties": {
    "name": "6 MCNAUGHTON LANE AINTREE 3336",
    "locID": "LOC000166018933",
    "tech": "FTTP",
    "upgrade": "NULL_NA",
    "gnaf_pid": "GAVIC719411741"
   }
  },
  {
   "type": "Feature",
   "geometry": {
    "type": "Point",
    "coordinates": [
     144.66033179,
     -37.72487091
    ]
   },
   "properties": {
    "name": "49 PIONEER DRIVE AINTREE 3336",
    "locID": "LOC000152564564",
    "tech": "FTTP",
    "upgrade": "NULL_NA",
    "gnaf_pid": "GAVIC719411742"
   }
  },
  {
   "type": "Feature",
   "geometry": {
    "type": "Point",
    "coordinates": [
     144.67004115,
     -37.72973471
    ]
   },
   "properties": {
    "name": "28 GILDERTON ESPLANADE AINTREE 3336",
    "locID": "LOC000164294318",
    "tech": "FTTP",
    "upgrade": "NULL_NA",
    "gnaf_pid": "GAVIC719411743"
   }
  },
  {
   "type": "Feature",
   "geometry": {
    "type": "Point",
    "coordinates": [
     144.66144367,
     -37.72163795
    ]
   },
   "properties": {
    "name": "3 SHEARER WAY AINTREE 3336",
    "locID": "LOC000146629181",
    "tech": "FTTP",
    "upgrade": "NULL_NA",
    "gnaf_pid": "GAVIC719411744"
   }
  },
  {
   "type": "Feature",
   "geometry": {
    "type": "Point",
    "coordinates": [
     144.6599491,
     -37.71751025
    ]
   },
   "properties": {
    "name": "40 BULLION DRIVE AINTREE 3336",
    "locID": "LOC000165466839",
    "tech": "FTTP",
    "upgrade": "NULL_NA",
    "gnaf_pid": "GAVIC719411745"
   }
  },
  {
   "type": "Feature",
   "geometry": {
    "type": "Point",
    "coordinates": [
     144.67253355,
     -37.71654229
    ]
   },
   "properties": {
    "name": "126 FIELDS STREET AINTREE 3336",
    "locID": "LOC000177895532",
    "tech": "FTTP",
    "upgrade": "NULL_NA",
    "gnaf_pid": "GAVIC719411746"
   }
  },
  {
   "type": "Feature",
   "geometry": {
    "type": "Point",
    "coordinates": [
     144.66955234,
     -37.72114344
    ]
   },
   "properties": {
    "name": "17 SHAW STREET AINTREE 3336",
    "locID": "LOC000175651037",
    "tech": "FTTP",
    "upgrade": "NULL_NA",
    "gnaf_pid": "GAVIC719411747"
   }
  },
  {
   "type": "Feature",
   "geometry": {
    "type": "Point",
    "coordinates": [
     144.66317038,
     -37.71785952
    ]
   },
   "properties": {
    "name": "4 FRONTIER AVENUE AINTREE 3336",
    "locID": "LOC000173763820",
    "tech": "FTTP",
    "upgrade": "NULL_NA",
    "gnaf_pid": "GAVIC719411748"
   }
  },
  {
   "type": "Feature",
   "geometry": {
    "type": "Point",
    "coordinates": [
     144.6713366,
     -37.72038242
    ]
   },
   "properties": {
    "name": "82 FIELDS STREET AINTREE 3336",
    "locID": "LOC000175651187",
    "tech": "FTTP",
    "upgrade": "NULL_NA",
    "gnaf_pid": "GAVIC719411749"
   }
  },
  {
   "type": "Feature",
   "geometry": {
    "type": "Point",
    "coordinates": [
     144.66862528,
     -37.7275387
    ]
   },
   "properties": {
    "name": "6 CALLISTEMON VISTA AINTREE 3336",
    "locID": "LOC000157301920",
    "tech": "FTTP",
    "upgrade": "NULL_NA",
    "gnaf_pid": "GAVIC719411750"
   }
  },
  {
   "type": "Feature",
   "geometry": {
    "type": "Point",
    "coordinates": [
     144.66231943,
     -37.71821715
    ]
   },
   "properties": {
    "name": "23 TUCKEROO ROAD AINTREE 3336",
    "locID": "LOC000173763463",
    "tech": "FTTP",
    "upgrade": "NULL_NA",
    "gnaf_pid": "GAVIC719411761"
   }
  },
  {
   "type": "Feature",
   "geometry": {
    "type": "Point",
    "coordinates": [
     144.66760616,
     -37.72712335
    ]
   },
   "properties": {
    "name": "18 CALLISTEMON VISTA AINTREE 3336",
    "locID": "LOC000157302023",
    "tech": "FTTP",
    "upgrade": "NULL_NA",
    "gnaf_pid": "GAVIC719411762"
   }
  },
  {
   "type": "Feature",
   "geometry": {
    "type": "Point",
    "coordinates": [
     144.67029413,
     -37.71861035
    ]
   },
   "properties": {
    "name": "16 MISSION DRIVE AINTREE 3336",
    "locID": "LOC000175230567",
    "tech": "FTTP",
    "upgrade": "NULL_NA",
    "gnaf_pid": "GAVIC719411763"
   }
  },
  {
   "type": "Feature",
   "geometry": {
    "type": "Point",
    "coordinates": [
     144.67701256,
     -37.71849952
    ]
   },
   "properties": {
    "name": "4 GOOSEBERRY ROAD AINTREE 3336",
    "locID": "LOC000178949435",
    "tech": "FTTP",
    "upgrade": "NULL_NA",
    "gnaf_pid": "GAVIC719411764"
   }
  },
  {
   "type": "Feature",
   "geometry": {
    "type": "Point",
    "coordinates": [
     144.66967074,
     -37.7211002
    ]
   },
   "properties": {
    "name": "15 SHAW STREET AINTREE 3336",
    "locID": "LOC000175651044",
    "tech": "FTTP",
    "upgrade": "NULL_NA",
    "gnaf_pid": "GAVIC719411765"
   }
  },
  {
   "type": "Feature",
   "geometry": {
    "type": "Point",
    "coordinates": [
     144.66832109,
     -37.72991382
    ]
   },
   "properties": {
    "name": "17 JARVIS ROAD AINTREE 3336",
    "locID": "LOC000158365362",
    "tech": "FTTP",
    "upgrade": "NULL_NA",
    "gnaf_pid": "GAVIC719411766"
   }
  },
  {
   "type": "Feature",
   "geometry": {
    "type": "Point",
    "coordinates": [
     144.6751164,
     -37.71867107
    ]
   },
   "properties": {
    "name": "297 FRONTIER AVENUE AINTREE 3336",
    "locID": "LOC000177137535",
    "tech": "FTTP",
    "upgrade": "NULL_NA",
    "gnaf_pid": "GAVIC719411783"
   }
  },
  {
   "type": "Feature",
   "geometry": {
    "type": "Point",
    "coordinates": [
     144.67143638,
     -37.72014161
    ]
   },
   "properties": {
    "name": "86 FIELDS STREET AINTREE 3336",
    "locID": "LOC000175231005",
    "tech": "FTTP",
    "upgrade": "NULL_NA",
    "gnaf_pid": "GAVIC719411784"
   }
  },
  {
   "type": "Feature",
   "geometry": {
    "type": "Point",
    "coordinates": [
     144.67890884,
     -37.71942589
    ]
   },
   "properties": {
    "name": "24 WALLABY ROAD AINTREE 3336",
    "locID": "LOC000178950224",
    "tech": "FTTP",
    "upgrade": "NULL_NA",
    "gnaf_pid": "GAVIC719411785"
   }
  },
  {
   "type": "Feature",
   "geometry": {
    "type": "Point",
    "coordinates": [
     144.66566013,
     -37.72580517
    ]
   },
   "properties": {
    "name": "106 FRONTIER AVENUE AINTREE 3336",
    "locID": "LOC000156543869",
    "tech": "FTTP",
    "upgrade": "NULL_NA",
    "gnaf_pid": "GAVIC719411786"
   }
  },
  {
   "type": "Feature",
   "geometry": {
    "type": "Point",
    "coordinates": [
     144.65821453,
     -37.72299475
    ]
   },
   "properties": {
    "name": "10 SASSAFRAS WAY AINTREE 3336",
    "locID": "LOC000149980387",
    "tech": "FTTP",
    "upgrade": "NULL_NA",
    "gnaf_pid": "GAVIC719411787"
   }
  },
  {
   "type": "Feature",
   "geometry": {
    "type": "Point",
    "coordinates": [
     144.66130928,
     -37.72323599
    ]
   },
   "properties": {
    "name": "4 TAMARIND PLACE AINTREE 3336",
    "locID": "LOC000149982089",
    "tech": "FTTP",
    "upgrade": "NULL_NA",
    "gnaf_pid": "GAVIC719411788"
   }
  },
  {
   "type": "Feature",
   "geometry": {
    "type": "Point",
    "coordinates": [
     144.66899486,
     -37.7280005
    ]
   },
   "properties": {
    "name": "12 GILDERTON ESPLANADE AINTREE 3336",
    "locID": "LOC000157302340",
    "tech": "FTTP",
    "upgrade": "NULL_NA",
    "gnaf_pid": "GAVIC719411789"
   }
  },
  {
   "type": "Feature",
   "geometry": {
    "type": "Point",
    "coordinates": [
     144.66416477,
     -37.71950211
    ]
   },
   "properties": {
    "name": "4 WIRELESS DRIVE AINTREE 3336",
    "locID": "LOC000164300545",
    "tech": "FTTP",
    "upgrade": "NULL_NA",
    "gnaf_pid": "GAVIC719411801"
   }
  },
  {
   "type": "Feature",
   "geometry": {
    "type": "Point",
    "coordinates": [
     144.66087019,
     -37.71895254
    ]
   },
   "properties": {
    "name": "18 QUARTERS STREET AINTREE 3336",
    "locID": "LOC000150527158",
    "tech": "FTTP",
    "upgrade": "NULL_NA",
    "gnaf_pid": "GAVIC719411802"
   }
  },
  {
   "type": "Feature",
   "geometry": {
    "type": "Point",
    "coordinates": [
     144.6595757,
     -37.72106166
    ]
   },
   "properties": {
    "name": "5 FLOCK STREET AINTREE 3336",
    "locID": "LOC000140904054",
    "tech": "FTTP",
    "upgrade": "NULL_NA",
    "gnaf_pid": "GAVIC719411803"
   }
  },
  {
   "type": "Feature",
   "geometry": {
    "type": "Point",
    "coordinates": [
     144.66761351,
     -37.71723682
    ]
   },
   "properties": {
    "name": "2 MCNAUGHTON LANE AINTREE 3336",
    "locID": "LOC000166018914",
    "tech": "FTTP",
    "upgrade": "NULL_NA",
    "gnaf_pid": "GAVIC719411804"
   }
  },
  {
   "type": "Feature",
   "geometry": {
    "type": "Point",
    "coordinates": [
     144.67671578,
     -37.71875067
    ]
   },
   "properties": {
    "name": "12 ROSEMARY AVENUE AINTREE 3336",
    "locID": "LOC000178951458",
    "tech": "FTTP",
    "upgrade": "NULL_NA",
    "gnaf_pid": "GAVIC719411805"
   }
  },
  {
   "type": "Feature",
   "geometry": {
    "type": "Point",
    "coordinates": [
     144.65695669,
     -37.72186916
    ]
   },
   "properties": {
    "name": "4 PIONEER DRIVE AINTREE 3336",
    "locID": "LOC000150356072",
    "tech": "FTTP",
    "upgrade": "NULL_NA",
    "gnaf_pid": "GAVIC719413649"
   }
  },
  {
   "type": "Feature",
   "geometry": {
    "type": "Point",
    "coordinates": [
     144.66232668,
     -37.72582062
    ]
   },
   "properties": {
    "name": "77 PIONEER DRIVE AINTREE 3336",
    "locID": "LOC000152567654",
    "tech": "FTTP",
    "upgrade": "NULL_NA",
    "gnaf_pid": "GAVIC719413650"
   }
  },
  {
   "type": "Feature",
   "geometry": {
    "type": "Point",
    "coordinates": [
     144.66754345,
     -37.71824426
    ]
   },
   "properties": {
    "name": "43 SIGNAL CIRCUIT AINTREE 3336",
    "locID": "LOC000166018848",
    "tech": "FTTP",
    "upgrade": "NULL_NA",
    "gnaf_pid": "GAVIC719413651"
   }
  },
  {
   "type": "Feature",
   "geometry": {
    "type": "Point",
    "coordinates": [
     144.66776748,
     -37.7271891
    ]
   },
   "properties": {
    "name": "16 CALLISTEMON VISTA AINTREE 3336",
    "locID": "LOC000157302006",
    "tech": "FTTP",
    "upgrade": "NULL_NA",
    "gnaf_pid": "GAVIC719413664"
   }
  },
  {
   "type": "Feature",
   "geometry": {
    "type": "Point",
    "coordinates": [
     144.66976384,
     -37.71782766
    ]
   },
   "properties": {
    "name": "5 WYNNE ROAD AINTREE 3336",
    "locID": "LOC000166019605",
    "tech": "FTTP",
    "upgrade": "NULL_NA",
    "gnaf_pid": "GAVIC719413665"
   }
  },
  {
   "type": "Feature",
   "geometry": {
    "type": "Point",
    "coordinates": [
     144.6699609,
     -37.71813928
    ]
   },
   "properties": {
    "name": "8 WYNNE ROAD AINTREE 3336",
    "locID": "LOC000166019679",
    "tech": "FTTP",
    "upgrade": "NULL_NA",
    "gnaf_pid": "GAVIC719413666"
   }
  },
  {
   "type": "Feature",
   "geometry": {
    "type": "Point",
    "coordinates": [
     144.67479886,
     -37.71714657
    ]
   },
   "properties": {
    "name": "2 ELDERBERRY WAY AINTREE 3336",
    "locID": "LOC000177895453",
    "tech": "FTTP",
    "upgrade": "NULL_NA",
    "gnaf_pid": "GAVIC719413667"
   }
  },
  {
   "type": "Feature",
   "geometry": {
    "type": "Point",
    "coordinates": [
     144.66473837,
     -37.72594853
    ]
   },
   "properties": {
    "name": "5 WAGNER WAY AINTREE 3336",
    "locID": "LOC000156544076",
    "tech": "FTTP",
    "upgrade": "NULL_NA",
    "gnaf_pid": "GAVIC719413668"
   }
  },
  {
   "type": "Feature",
   "geometry": {
    "type": "Point",
    "coordinates": [
     144.66906949,
     -37.71731329
    ]
   },
   "properties": {
    "name": "19 HENDERSON CIRCUIT AINTREE 3336",
    "locID": "LOC000166019287",
    "tech": "FTTP",
    "upgrade": "NULL_NA",
    "gnaf_pid": "GAVIC719413669"
   }
  },
  {
   "type": "Feature",
   "geometry": {
    "type": "Point",
    "coordinates": [
     144.66447974,
     -37.71877901
    ]
   },
   "properties": {
    "name": "42 DALWOOD CIRCUIT AINTREE 3336",
    "locID": "LOC000164304443",
    "tech": "FTTP",
    "upgrade": "NULL_NA",
    "gnaf_pid": "GAVIC719413670"
   }
  },
  {
   "type": "Feature",
   "geometry": {
    "type": "Point",
    "coordinates": [
     144.67690282,
     -37.71522869
    ]
   },
   "properties": {
    "name": "4 BUNJIL LANE AINTREE 3336",
    "locID": "LOC000178214162",
    "tech": "FTTP",
    "upgrade": "NULL_NA",
    "gnaf_pid": "GAVIC719413671"
   }
  },
  {
   "type": "Feature",
   "geometry": {
    "type": "Point",
    "coordinates": [
     144.66913662,
     -37.72896588
    ]
   },
   "properties": {
    "name": "4 JUBILEE LANE AINTREE 3336",
    "locID": "LOC000158365717",
    "tech": "FTTP",
    "upgrade": "NULL_NA",
    "gnaf_pid": "GAVIC719413672"
   }
  },
  {
   "type": "Feature",
   "geometry": {
    "type": "Point",
    "coordinates": [
     144.66252377,
     -37.72119221
    ]
   },
   "properties": {
    "name": "40 FRONTIER AVENUE AINTREE 3336",
    "locID": "LOC000146628909",
    "tech": "FTTP",
    "upgrade": "NULL_NA",
    "gnaf_pid": "GAVIC719413679"
   }
  },
  {
   "type": "Feature",
   "geometry": {
    "type": "Point",
    "coordinates": [
     144.66555307,
     -37.72002955
    ]
   },
   "properties": {
    "name": "5 FERNELEY VIEW AINTREE 3336",
    "locID": "LOC000164300787",
    "tech": "FTTP",
    "upgrade": "NULL_NA",
    "gnaf_pid": "GAVIC719413681"
   }
  },
  {
   "type": "Feature",
   "geometry": {
    "type": "Point",
    "coordinates": [
     144.66301731,
     -37.71924893
    ]
   },
   "properties": {
    "name": "18 FRONTIER AVENUE AINTREE 3336",
    "locID": "LOC000164301218",
    "tech": "FTTP",
    "upgrade": "NULL_NA",
    "gnaf_pid": "GAVIC719413682"
   }
  },
  {
   "type": "Feature",
   "geometry": {
    "type": "Point",
    "coordinates": [
     144.67636103,
     -37.71666085
    ]
   },
   "properties": {
    "name": "21 ANISEED AVENUE AINTREE 3336",
    "locID": "LOC000178622995",
    "tech": "FTTP",
    "upgrade": "NULL_NA",
    "gnaf_pid": "GAVIC719413683"
   }
  },
  {
   "type": "Feature",
   "geometry": {
    "type": "Point",
    "coordinates": [
     144.6692554,
     -37.72745006
    ]
   },
   "properties": {
    "name": "6 GILDERTON ESPLANADE AINTREE 3336",
    "locID": "LOC000157301674",
    "tech": "FTTP",
    "upgrade": "NULL_NA",
    "gnaf_pid": "GAVIC719413684"
   }
  },
  {
   "type": "Feature",
   "geometry": {
    "type": "Point",
    "coordinates": [
     144.67446114,
     -37.7174159
    ]
   },
   "properties": {
    "name": "22 TEDCASTLE DRIVE AINTREE 3336",
    "locID": "LOC000177894992",
    "tech": "FTTP",
    "upgrade": "NULL_NA",
    "gnaf_pid": "GAVIC719413685"
   }
  },
  {
   "type": "Feature",
   "geometry": {
    "type": "Point",
    "coordinates": [
     144.6767577,
     -37.71818206
    ]
   },
   "properties": {
    "name": "1 GOOSEBERRY ROAD AINTREE 3336",
    "locID": "LOC000178949398",
    "tech": "FTTP",
    "upgrade": "NULL_NA",
    "gnaf_pid": "GAVIC719413689"
   }
  },
  {
   "type": "Feature",
   "geometry": {
    "type": "Point",
    "coordinates": [
     144.6599907,
     -37.71901323
    ]
   },
   "properties": {
    "name": "16 WOOL STREET AINTREE 3336",
    "locID": "LOC000150526047",
    "tech": "FTTP",
    "upgrade": "NULL_NA",
    "gnaf_pid": "GAVIC719413690"
   }
  },
  {
   "type": "Feature",
   "geometry": {
    "type": "Point",
    "coordinates": [
     144.66001039,
     -37.7188949
    ]
   },
   "properties": {
    "name": "18 WOOL STREET AINTREE 3336",
    "locID": "LOC000150526034",
    "tech": "FTTP",
    "upgrade": "NULL_NA",
    "gnaf_pid": "GAVIC719413691"
   }
  },
  {
   "type": "Feature",
   "geometry": {
    "type": "Point",
    "coordinates": [
     144.67486695,
     -37.71673598
    ]
   },
   "properties": {
    "name": "8 ELDERBERRY WAY AINTREE 3336",
    "locID": "LOC000177895482",
    "tech": "FTTP",
    "upgrade": "NULL_NA",
    "gnaf_pid": "GAVIC719413692"
   }
  },
  {
   "type": "Feature",
   "geometry": {
    "type": "Point",
    "coordinates": [
     144.67193029,
     -37.71690101
    ]
   },
   "properties": {
    "name": "123 FIELDS STREET AINTREE 3336",
    "locID": "LOC000175564176",
    "tech": "FTTP",
    "upgrade": "NULL_NA",
    "gnaf_pid": "GAVIC719413693"
   }
  },
  {
   "type": "Feature",
   "geometry": {
    "type": "Point",
    "coordinates": [
     144.66547445,
     -37.72050292
    ]
   },
   "properties": {
    "name": "13 FERNELEY VIEW AINTREE 3336",
    "locID": "LOC000164300741",
    "tech": "FTTP",
    "upgrade": "NULL_NA",
    "gnaf_pid": "GAVIC719413694"
   }
  },
  {
   "type": "Feature",
   "geometry": {
    "type": "Point",
    "coordinates": [
     144.6748439,
     -37.71687441
    ]
   },
   "properties": {
    "name": "6 ELDERBERRY WAY AINTREE 3336",
    "locID": "LOC000177895476",
    "tech": "FTTP",
    "upgrade": "NULL_NA",
    "gnaf_pid": "GAVIC719413695"
   }
  },
  {
   "type": "Feature",
   "geometry": {
    "type": "Point",
    "coordinates": [
     144.6729538,
     -37.7176936
    ]
   },
   "properties": {
    "name": "324 FRONTIER AVENUE AINTREE 3336",
    "locID": "LOC000177136449",
    "tech": "FTTP",
    "upgrade": "NULL_NA",
    "gnaf_pid": "GAVIC719413696"
   }
  },
  {
   "type": "Feature",
   "geometry": {
    "type": "Point",
    "coordinates": [
     144.66121918,
     -37.72036504
    ]
   },
   "properties": {
    "name": "8 FLEECE ROAD AINTREE 3336",
    "locID": "LOC000140904342",
    "tech": "FTTP",
    "upgrade": "NULL_NA",
    "gnaf_pid": "GAVIC719413697"
   }
  },
  {
   "type": "Feature",
   "geometry": {
    "type": "Point",
    "coordinates": [
     144.66437951,
     -37.72545993
    ]
   },
   "properties": {
    "name": "3 GILD STREET AINTREE 3336",
    "locID": "LOC000154923751",
    "tech": "FTTP",
    "upgrade": "NULL_NA",
    "gnaf_pid": "GAVIC719413698"
   }
  },
  {
   "type": "Feature",
   "geometry": {
    "type": "Point",
    "coordinates": [
     144.66911129,
     -37.71991535
    ]
   },
   "properties": {
    "name": "6 WALER STREET AINTREE 3336",
    "locID": "LOC000175650418",
    "tech": "FTTP",
    "upgrade": "NULL_NA",
    "gnaf_pid": "GAVIC719413702"
   }
  },
  {
   "type": "Feature",
   "geometry": {
    "type": "Point",
    "coordinates": [
     144.65688043,
     -37.71715152
    ]
   },
   "properties": {
    "name": "24 GOLD STREET AINTREE 3336",
    "locID": "LOC000165466106",
    "tech": "FTTP",
    "upgrade": "NULL_NA",
    "gnaf_pid": "GAVIC719413703"
   }
  },
  {
   "type": "Feature",
   "geometry": {
    "type": "Point",
    "coordinates": [
     144.66394592,
     -37.72167326
    ]
   },
   "properties": {
    "name": "4A FIELDS STREET AINTREE 3336",
    "locID": "LOC000190871528",
    "tech": "FTTP",
    "upgrade": "NULL_NA",
    "gnaf_pid": "GAVIC719413715"
   }
  },
  {
   "type": "Feature",
   "geometry": {
    "type": "Point",
    "coordinates": [
     144.66420827,
     -37.72572421
    ]
   },
   "properties": {
    "name": "7 GILD STREET AINTREE 3336",
    "locID": "LOC000154923733",
    "tech": "FTTP",
    "upgrade": "NULL_NA",
    "gnaf_pid": "GAVIC719413716"
   }
  },
  {
   "type": "Feature",
   "geometry": {
    "type": "Point",
    "coordinates": [
     144.66311302,
     -37.72140832
    ]
   },
   "properties": {
    "name": "2 FIELDS STREET AINTREE 3336",
    "locID": "LOC000182837190",
    "tech": "FTTP",
    "upgrade": "NULL_NA",
    "gnaf_pid": "GAVIC719413717"
   }
  },
  {
   "type": "Feature",
   "geometry": {
    "type": "Point",
    "coordinates": [
     144.67396368,
     -37.7173636
    ]
   },
   "properties": {
    "name": "16 TEDCASTLE DRIVE AINTREE 3336",
    "locID": "LOC000177894963",
    "tech": "FTTP",
    "upgrade": "NULL_NA",
    "gnaf_pid": "GAVIC719413718"
   }
  },
  {
   "type": "Feature",
   "geometry": {
    "type": "Point",
    "coordinates": [
     144.67222085,
     -37.71801757
    ]
   },
   "properties": {
    "name": "110 FIELDS STREET AINTREE 3336",
    "locID": "LOC000175564130",
    "tech": "FTTP",
    "upgrade": "NULL_NA",
    "gnaf_pid": "GAVIC719413719"
   }
  },
  {
   "type": "Feature",
   "geometry": {
    "type": "Point",
    "coordinates": [
     144.66054077,
     -37.71873237
    ]
   },
   "properties": {
    "name": "21 QUARTERS STREET AINTREE 3336",
    "locID": "LOC000150527127",
    "tech": "FTTP",
    "upgrade": "NULL_NA",
    "gnaf_pid": "GAVIC719413720"
   }
  },
  {
   "type": "Feature",
   "geometry": {
    "type": "Point",
    "coordinates": [
     144.66812131,
     -37.72765741
    ]
   },
   "properties": {
    "name": "9 CALLISTEMON VISTA AINTREE 3336",
    "locID": "LOC000157302301",
    "tech": "FTTP",
    "upgrade": "NULL_NA",
    "gnaf_pid": "GAVIC719413721"
   }
  },
  {
   "type": "Feature",
   "geometry": {
    "type": "Point",
    "coordinates": [
     144.67183185,
     -37.71749755
    ]
   },
   "properties": {
    "name": "113 FIELDS STREET AINTREE 3336",
    "locID": "LOC000175564225",
    "tech": "FTTP",
    "upgrade": "NULL_NA",
    "gnaf_pid": "GAVIC719413722"
   }
  },
  {
   "type": "Feature",
   "geometry": {
    "type": "Point",
    "coordinates": [
     144.65639796,
     -37.71791837
    ]
   },
   "properties": {
    "name": "10 GOLD STREET AINTREE 3336",
    "locID": "LOC000165466031",
    "tech": "FTTP",
    "upgrade": "NULL_NA",
    "gnaf_pid": "GAVIC719413730"
   }
  },
  {
   "type": "Feature",
   "geometry": {
    "type": "Point",
    "coordinates": [
     144.66108877,
     -37.72157053
    ]
   },
   "properties": {
    "name": "6 SHEARER WAY AINTREE 3336",
    "locID": "LOC000146629201",
    "tech": "FTTP",
    "upgrade": "NULL_NA",
    "gnaf_pid": "GAVIC719413731"
   }
  },
  {
   "type": "Feature",
   "geometry": {
    "type": "Point",
    "coordinates": [
     144.66393369,
     -37.72551806
    ]
   },
   "properties": {
    "name": "6 GILD STREET AINTREE 3336",
    "locID": "LOC000154923395",
    "tech": "FTTP",
    "upgrade": "NULL_NA",
    "gnaf_pid": "GAVIC719413732"
   }
  },
  {
   "type": "Feature",
   "geometry": {
    "type": "Point",
    "coordinates": [
     144.65722611,
     -37.71844137
    ]
   },
   "properties": {
    "name": "6 RUSH STREET AINTREE 3336",
    "locID": "LOC000140569480",
    "tech": "FTTP",
    "upgrade": "NULL_NA",
    "gnaf_pid": "GAVIC719413733"
   }
  },
  {
   "type": "Feature",
   "geometry": {
    "type": "Point",
    "coordinates": [
     144.66111534,
     -37.72350615
    ]
   },
   "properties": {
    "name": "7 TAMARIND PLACE AINTREE 3336",
    "locID": "LOC000149982321",
    "tech": "FTTP",
    "upgrade": "NULL_NA",
    "gnaf_pid": "GAVIC719413734"
   }
  },
  {
   "type": "Feature",
   "geometry": {
    "type": "Point",
    "coordinates": [
     144.66979614,
     -37.73094619
    ]
   },
   "properties": {
    "name": "5 CRITERION PLACE AINTREE 3336",
    "locID": "LOC000164294581",
    "tech": "FTTP",
    "upgrade": "NULL_NA",
    "gnaf_pid": "GAVIC719413735"
   }
  },
  {
   "type": "Feature",
   "geometry": {
    "type": "Point",
    "coordinates": [
     144.66156965,
     -37.7258866
    ]
   },
   "properties": {
    "name": "18 DEVINE LANE AINTREE 3336",
    "locID": "LOC000152567762",
    "tech": "FTTP",
    "upgrade": "NULL_NA",
    "gnaf_pid": "GAVIC719413736"
   }
  },
  {
   "type": "Feature",
   "geometry": {
    "type": "Point",
    "coordinates": [
     144.66186658,
     -37.72485851
    ]
   },
   "properties": {
    "name": "65 PIONEER DRIVE AINTREE 3336",
    "locID": "LOC000152564643",
    "tech": "FTTP",
    "upgrade": "NULL_NA",
    "gnaf_pid": "GAVIC719413746"
   }
  },
  {
   "type": "Feature",
   "geometry": {
    "type": "Point",
    "coordinates": [
     144.67540157,
     -37.71753814
    ]
   },
   "properties": {
    "name": "34 TEDCASTLE DRIVE AINTREE 3336",
    "locID": "LOC000177895051",
    "tech": "FTTP",
    "upgrade": "NULL_NA",
    "gnaf_pid": "GAVIC719413747"
   }
  },
  {
   "type": "Feature",
   "geometry": {
    "type": "Point",
    "coordinates": [
     144.66900176,
     -37.71704983
    ]
   },
   "properties": {
    "name": "1 ELDER LANE AINTREE 3336",
    "locID": "LOC000166018980",
    "tech": "FTTP",
    "upgrade": "NULL_NA",
    "gnaf_pid": "GAVIC719413748"
   }
  },
  {
   "type": "Feature",
   "geometry": {
    "type": "Point",
    "coordinates": [
     144.67657431,
     -37.71743106
    ]
   },
   "properties": {
    "name": "39 TEDCASTLE DRIVE AINTREE 3336",
    "locID": "LOC000178622486",
    "tech": "FTTP",
    "upgrade": "NULL_NA",
    "gnaf_pid": "GAVIC719413749"
   }
  },
  {
   "type": "Feature",
   "geometry": {
    "type": "Point",
    "coordinates": [
     144.6784086,
     -37.71659414
    ]
   },
   "properties": {
    "name": "81 CASCADE DRIVE AINTREE 3336",
    "locID": "LOC000178213303",
    "tech": "FTTP",
    "upgrade": "NULL_NA",
    "gnaf_pid": "GAVIC719413750"
   }
  },
  {
   "type": "Feature",
   "geometry": {
    "type": "Point",
    "coordinates": [
     144.67994297,
     -37.71952945
    ]
   },
   "properties": {
    "name": "43 CASCADE DRIVE AINTREE 3336",
    "locID": "LOC000178950604",
    "tech": "FTTP",
    "upgrade": "NULL_NA",
    "gnaf_pid": "GAVIC719413751"
   }
  },
  {
   "type": "Feature",
   "geometry": {
    "type": "Point",
    "coordinates": [
     144.66932176,
     -37.72731591
    ]
   },