{
 "type": "FeatureCollection",
 "generated": "2023-10-23T07:03:09.733533",
 "suburb": "ANNUELLO",
 "features": [
  {
   "type": "Feature",
   "geometry": {
    "type": "Point",
    "coordinates": [
     142.90133489,
     -34.91013519
    ]
   },
   "properties": {
    "name": "122 BOX LAGOON ROAD ANNUELLO 3549",
    "locID": "LOC000095354800",
    "tech": "SATELLITE",
    "upgrade": "NULL_NA",
    "gnaf_pid": "GAVIC410762438"
   }
  },
  {
   "type": "Feature",
   "geometry": {
    "type": "Point",
    "coordinates": [
     142.7801304,
     -34.84909729
    ]
   },
   "properties": {
    "name": "311 MCLEAN ROAD ANNUELLO 3549",
    "locID": "LOC000100770005",
    "tech": "SATELLITE",
    "upgrade": "NULL_NA",
    "gnaf_pid": "GAVIC410762440"
   }
  },
  {
   "type": "Feature",
   "geometry": {
    "type": "Point",
    "coordinates": [
     142.84535493,
     -34.83626885
    ]
   },
   "properties": {
    "name": "227 KOORKAB ROAD ANNUELLO 3549",
    "locID": "ChIJOUcSsyCw3GoRT8M3r6xBXmU",
    "tech": "WIRELESS",
    "upgrade": "UNKNOWN",
    "gnaf_pid": "GAVIC410762442"
   }
  },
  {
   "type": "Feature",
   "geometry": {
    "type": "Point",
    "coordinates": [
     142.79475255,
     -34.8284246
    ]
   },
   "properties": {
    "name": "470 ANNUELLO-WEMEN ROAD ANNUELLO 3549",
    "locID": "LOC000142930348",
    "tech": "WIRELESS",
    "upgrade": "NULL_NA",
    "gnaf_pid": "GAVIC421993173"
   }
  },
  {
   "type": "Feature",
   "geometry": {
    "type": "Point",
    "coordinates": [
     142.80936818,
     -34.86917953
    ]
   },
   "properties": {
    "name": "2393 WINNAMBOOL ROAD ANNUELLO 3549",
    "locID": "LOC000075140877",
    "tech": "SATELLITE",
    "upgrade": "NULL_NA",
    "gnaf_pid": "GAVIC421993179"
   }
  },
  {
   "type": "Feature",
   "geometry": {
    "type": "Point",
    "coordinates": [
     142.84162199,
     -34.84246541
    ]
   },
   "properties": {
    "name": "156 KOORKAB ROAD ANNUELLO 3549",
    "locID": "LOC000025353124",
    "tech": "WIRELESS",
    "upgrade": "NULL_NA",
    "gnaf_pid": "GAVIC422027075"
   }
  },
  {
   "type": "Feature",
   "geometry": {
    "type": "Point",
    "coordinates": [
     142.81406326,
     -34.92385265
    ]
   },
   "properties": {
    "name": "582 BOX LAGOON ROAD ANNUELLO 3549",
    "locID": "LOC000022102785",
    "tech": "WIRELESS",
    "upgrade": "NULL_NA",
    "gnaf_pid": "GAVIC422130248"
   }
  },
  {
   "type": "Feature",
   "geometry": {
    "type": "Point",
    "coordinates": [
     142.90388915,
     -34.79948102
    ]
   },
   "properties": {
    "name": "1242 LAKE CARPUL ROAD ANNUELLO 3549",
    "locID": "ChIJsxLkoEa63GoRvTfR21fs0qI",
    "tech": "SATELLITE",
    "upgrade": "UNKNOWN",
    "gnaf_pid": "GAVIC422162641"
   }
  },
  {
   "type": "Feature",
   "geometry": {
    "type": "Point",
    "coordinates": [
     142.78936085,
     -34.84908801
    ]
   },
   "properties": {
    "name": "237 MCLEAN ROAD ANNUELLO 3549",
    "locID": "LOC000015267709",
    "tech": "WIRELESS",
    "upgrade": "NULL_NA",
    "gnaf_pid": "GAVIC422170094"
   }
  },
  {
   "type": "Feature",
   "geometry": {
    "type": "Point",
    "coordinates": [
     142.90227609,
     -34.91716621
    ]
   },
   "properties": {
    "name": "482 MORRIS ROAD ANNUELLO 3549",
    "locID": "LOC000066093620",
    "tech": "WIRELESS",
    "upgrade": "NULL_NA",
    "gnaf_pid": "GAVIC422173205"
   }
  },
  {
   "type": "Feature",
   "geometry": {
    "type": "Point",
    "coordinates": [
     142.86767766,
     -34.90850684
    ]
   },
   "properties": {
    "name": "26 SMITH ROAD ANNUELLO 3549",
    "locID": "LOC000011119007",
    "tech": "WIRELESS",
    "upgrade": "NULL_NA",
    "gnaf_pid": "GAVIC422190520"
   }
  },
  {
   "type": "Feature",
   "geometry": {
    "type": "Point",
    "coordinates": [
     142.9779491,
     -34.92382851
    ]
   },
   "properties": {
    "name": "184 THOMPSON ROAD ANNUELLO 3549",
    "locID": "LOC000035197916",
    "tech": "SATELLITE",
    "upgrade": "NULL_NA",
    "gnaf_pid": "GAVIC422196545"
   }
  },
  {
   "type": "Feature",
   "geometry": {
    "type": "Point",
    "coordinates": [
     142.91526255,
     -34.89570275
    ]
   },
   "properties": {
    "name": "554 TI TREE TANK ROAD ANNUELLO 3549",
    "locID": "LOC000124823312",
    "tech": "WIRELESS",
    "upgrade": "NULL_NA",
    "gnaf_pid": "GAVIC422196783"
   }
  },
  {
   "type": "Feature",
   "geometry": {
    "type": "Point",
    "coordinates": [
     142.91534078,
     -34.89435813
    ]
   },
   "properties": {
    "name": "557 TI TREE TANK ROAD ANNUELLO 3549",
    "locID": "LOC000124823320",
    "tech": "WIRELESS",
    "upgrade": "NULL_NA",
    "gnaf_pid": "GAVIC422196784"
   }
  },
  {
   "type": "Feature",
   "geometry": {
    "type": "Point",
    "coordinates": [
     142.82917503,
     -34.8547258
    ]
   },
   "properties": {
    "name": "2638 WINNAMBOOL ROAD ANNUELLO 3549",
    "locID": "ChIJ_072E1Ou3GoRQI6pKEkZyHo",
    "tech": "WIRELESS",
    "upgrade": "UNKNOWN",
    "gnaf_pid": "GAVIC422204504"
   }
  },
  {
   "type": "Feature",
   "geometry": {
    "type": "Point",
    "coordinates": [
     142.84807371,
     -34.8908197
    ]
   },
   "properties": {
    "name": "3453 ROBINVALE-SEA LAKE ROAD ANNUELLO 3549",
    "locID": "LOC000113123633",
    "tech": "WIRELESS",
    "upgrade": "NULL_NA",
    "gnaf_pid": "GAVIC423413230"
   }
  },
  {
   "type": "Feature",
   "geometry": {
    "type": "Point",
    "coordinates": [
     142.83630825,
     -34.85481665
    ]
   },
   "properties": {
    "name": "3017 ROBINVALE-SEA LAKE ROAD ANNUELLO 3549",
    "locID": "ChIJsclW462v3GoRjMl7PL1PY5k",
    "tech": "WIRELESS",
    "upgrade": "UNKNOWN",
    "gnaf_pid": "GAVIC423413231"
   }
  },
  {
   "type": "Feature",
   "geometry": {
    "type": "Point",
    "coordinates": [
     142.8418033,
     -34.92421249
    ]
   },
   "properties": {
    "name": "250 BOX LAGOON ROAD ANNUELLO 3549",
    "locID": "ChIJJcjh3ueo3GoRyRey_sDZVrQ",
    "tech": "WIRELESS",
    "upgrade": "UNKNOWN",
    "gnaf_pid": "GAVIC423716888"
   }
  },
  {
   "type": "Feature",
   "geometry": {
    "type": "Point",
    "coordinates": [
     142.77531043,
     -34.8308949
    ]
   },
   "properties": {
    "name": "214 TAGGERT LANE ANNUELLO 3549",
    "locID": "LOC000097055766",
    "tech": "SATELLITE",
    "upgrade": "NULL_NA",
    "gnaf_pid": "GAVIC423992804"
   }
  },
  {
   "type": "Feature",
   "geometry": {
    "type": "Point",
    "coordinates": [
     142.86797712,
     -34.91680478
    ]
   },
   "properties": {
    "name": "3833 ROBINVALE-SEA LAKE ROAD ANNUELLO 3549",
    "locID": "LOC000124823163",
    "tech": "SATELLITE",
    "upgrade": "NULL_NA",
    "gnaf_pid": "GAVIC424503216"
   }
  },
  {
   "type": "Feature",
   "geometry": {
    "type": "Point",
    "coordinates": [
     142.8616027,
     -34.9049242
    ]
   },
   "properties": {
    "name": "3698A ROBINVALE-SEA LAKE ROAD ANNUELLO 3549",
    "locID": "LOC100080602549",
    "tech": "WIRELESS",
    "upgrade": "NULL_NA",
    "gnaf_pid": "GAVIC424726196"
   }
  },
  {
   "type": "Feature",
   "geometry": {
    "type": "Point",
    "coordinates": [
     142.86288607,
     -34.904976
    ]
   },
   "properties": {
    "name": "3698B ROBINVALE-SEA LAKE ROAD ANNUELLO 3549",
    "locID": "LOC000114949507",
    "tech": "SATELLITE",
    "upgrade": "NULL_NA",
    "gnaf_pid": "GAVIC424726197"
   }
  },
  {
   "type": "Feature",
   "geometry": {
    "type": "Point",
    "coordinates": [
     142.83345098,
     -34.85458495
    ]
   },
   "properties": {
    "name": "2994 ROBINVALE-SEA LAKE ROAD ANNUELLO 3549",
    "locID": "LOC000124819178",
    "tech": "WIRELESS",
    "upgrade": "NULL_NA",
    "gnaf_pid": "GAVIC424762914"
   }
  },
  {
   "type": "Feature",
   "geometry": {
    "type": "Point",
    "coordinates": [
     142.86797712,
     -34.91680478
    ]
   },
   "properties": {
    "name": "3833B ROBINVALE-SEA LAKE ROAD ANNUELLO 3549",
    "locID": "ChIJAYlXEqyo3GoRN6CtvsNwJD8",
    "tech": "WIRELESS",
    "upgrade": "UNKNOWN",
    "gnaf_pid": "GAVIC424895779"
   }
  },
  {
   "type": "Feature",
   "geometry": {
    "type": "Point",
    "coordinates": [
     142.84608395,
     -34.88853601
    ]
   },
   "properties": {
    "name": "6 EXCHANGE ROAD ANNUELLO 3549",
    "locID": "LOC000149123121",
    "tech": "WIRELESS",
    "upgrade": "NULL_NA",
    "gnaf_pid": "GAVIC424966203"
   }
  },
  {
   "type": "Feature",
   "geometry": {
    "type": "Point",
    "coordinates": [
     142.73899874,
     -34.81273325
    ]
   },
   "properties": {
    "name": "1025 ANNUELLO-WEMEN ROAD ANNUELLO 3549",
    "locID": "ChIJLynNOAyt3GoReCFtHDoMuXw",
    "tech": "SATELLITE",
    "upgrade": "UNKNOWN",
    "gnaf_pid": "GAVIC425271133"
   }
  },
  {
   "type": "Feature",
   "geometry": {
    "type": "Point",
    "coordinates": [
     142.7084662,
     -34.80486336
    ]
   },
   "properties": {
    "name": "1341 ANNUELLO-WEMEN ROAD ANNUELLO 3549",
    "locID": "LOC000148028450",
    "tech": "SATELLITE",
    "upgrade": "NULL_NA",
    "gnaf_pid": "GAVIC425271134"
   }
  },
  {
   "type": "Feature",
   "geometry": {
    "type": "Point",
    "coordinates": [
     142.8357317,
     -34.85580722
    ]
   },
   "properties": {
    "name": "3018 ROBINVALE-SEA LAKE ROAD ANNUELLO 3549",
    "locID": "ChIJlxNjz62v3GoRIdK-QtyQNcU",
    "tech": "WIRELESS",
    "upgrade": "UNKNOWN",
    "gnaf_pid": "GAVIC425527164"
   }
  },
  {
   "type": "Feature",
   "geometry": {
    "type": "Point",
    "coordinates": [
     142.84194018,
     -34.86874757
    ]
   },
   "properties": {
    "name": "3196 ROBINVALE-SEA LAKE ROAD ANNUELLO 3549",
    "locID": "LOC000148033598",
    "tech": "WIRELESS",
    "upgrade": "NULL_NA",
    "gnaf_pid": "GAVIC425527165"
   }
  }
 ]
}