{
 "type": "FeatureCollection",
 "generated": "2024-07-05T03:21:19.581564",
 "suburb": "APPIN",
 "features": [
  {
   "type": "Feature",
   "geometry": {
    "type": "Point",
    "coordinates": [
     143.86040971,
     -35.86050258
    ]
   },
   "properties": {
    "name": "45 HIGGIE ROAD APPIN 3579",
    "locID": "LOC000107809143",
    "tech": "WIRELESS",
    "upgrade": "NULL_NA",
    "gnaf_pid": "GAVIC410757090",
    "tech_change_status": "Not Planned",
    "program_type": "Fixed Wireless and Satellite Upgrade Program",
    "target_eligibility_quarter": "NA"
   }
  },
  {
   "type": "Feature",
   "geometry": {
    "type": "Point",
    "coordinates": [
     143.89033701,
     -35.87992409
    ]
   },
   "properties": {
    "name": "169 WREN ROAD APPIN 3579",
    "locID": "LOC000014849576",
    "tech": "WIRELESS",
    "upgrade": "NULL_NA",
    "gnaf_pid": "GAVIC410757091",
    "tech_change_status": "Not Planned",
    "program_type": "Fixed Wireless and Satellite Upgrade Program",
    "target_eligibility_quarter": "NA"
   }
  },
  {
   "type": "Feature",
   "geometry": {
    "type": "Point",
    "coordinates": [
     143.86307867,
     -35.88193581
    ]
   },
   "properties": {
    "name": "26 HEWITT ROAD APPIN 3579",
    "locID": "LOC000050044326",
    "tech": "WIRELESS",
    "upgrade": "NULL_NA",
    "gnaf_pid": "GAVIC410757092",
    "tech_change_status": "Not Planned",
    "program_type": "Fixed Wireless and Satellite Upgrade Program",
    "target_eligibility_quarter": "NA"
   }
  },
  {
   "type": "Feature",
   "geometry": {
    "type": "Point",
    "coordinates": [
     143.85475347,
     -35.88338362
    ]
   },
   "properties": {
    "name": "1177 MURPHYS LAKE ROAD APPIN 3579",
    "locID": "LOC000103322267",
    "tech": "WIRELESS",
    "upgrade": "NULL_NA",
    "gnaf_pid": "GAVIC410757093",
    "tech_change_status": "Not Planned",
    "program_type": "Fixed Wireless and Satellite Upgrade Program",
    "target_eligibility_quarter": "NA"
   }
  },
  {
   "type": "Feature",
   "geometry": {
    "type": "Point",
    "coordinates": [
     143.84564086,
     -35.90465137
    ]
   },
   "properties": {
    "name": "1466 MURPHYS LAKE ROAD APPIN 3579",
    "locID": "LOC000098043452",
    "tech": "WIRELESS",
    "upgrade": "NULL_NA",
    "gnaf_pid": "GAVIC410757096",
    "tech_change_status": "Not Planned",
    "program_type": "Fixed Wireless and Satellite Upgrade Program",
    "target_eligibility_quarter": "NA"
   }
  },
  {
   "type": "Feature",
   "geometry": {
    "type": "Point",
    "coordinates": [
     143.86504735,
     -35.86591094
    ]
   },
   "properties": {
    "name": "941 MURPHYS LAKE ROAD APPIN 3579",
    "locID": "LOC000143071604",
    "tech": "WIRELESS",
    "upgrade": "NULL_NA",
    "gnaf_pid": "GAVIC410757098",
    "tech_change_status": "Not Planned",
    "program_type": "Fixed Wireless and Satellite Upgrade Program",
    "target_eligibility_quarter": "NA"
   }
  },
  {
   "type": "Feature",
   "geometry": {
    "type": "Point",
    "coordinates": [
     143.87266922,
     -35.88265277
    ]
   },
   "properties": {
    "name": "115 HEWITT ROAD APPIN 3579",
    "locID": "LOC000052479014",
    "tech": "WIRELESS",
    "upgrade": "NULL_NA",
    "gnaf_pid": "GAVIC422031410",
    "tech_change_status": "Not Planned",
    "program_type": "Fixed Wireless and Satellite Upgrade Program",
    "target_eligibility_quarter": "NA"
   }
  },
  {
   "type": "Feature",
   "geometry": {
    "type": "Point",
    "coordinates": [
     143.84699934,
     -35.89045765
    ]
   },
   "properties": {
    "name": "1308 MURPHYS LAKE ROAD APPIN 3579",
    "locID": "LOC000033095979",
    "tech": "WIRELESS",
    "upgrade": "NULL_NA",
    "gnaf_pid": "GAVIC422174322",
    "tech_change_status": "Not Planned",
    "program_type": "Fixed Wireless and Satellite Upgrade Program",
    "target_eligibility_quarter": "NA"
   }
  },
  {
   "type": "Feature",
   "geometry": {
    "type": "Point",
    "coordinates": [
     143.84979544,
     -35.89172065
    ]
   },
   "properties": {
    "name": "1317 MURPHYS LAKE ROAD APPIN 3579",
    "locID": "LOC000091877149",
    "tech": "WIRELESS",
    "upgrade": "NULL_NA",
    "gnaf_pid": "GAVIC422174323",
    "tech_change_status": "Not Planned",
    "program_type": "Fixed Wireless and Satellite Upgrade Program",
    "target_eligibility_quarter": "NA"
   }
  },
  {
   "type": "Feature",
   "geometry": {
    "type": "Point",
    "coordinates": [
     143.8994723,
     -35.89271771
    ]
   },
   "properties": {
    "name": "346 STEDMAN LANE APPIN 3579",
    "locID": "LOC000124901734",
    "tech": "WIRELESS",
    "upgrade": "NULL_NA",
    "gnaf_pid": "GAVIC422192983",
    "tech_change_status": "Not Planned",
    "program_type": "Fixed Wireless and Satellite Upgrade Program",
    "target_eligibility_quarter": "NA"
   }
  },
  {
   "type": "Feature",
   "geometry": {
    "type": "Point",
    "coordinates": [
     143.86243423,
     -35.88080685
    ]
   },
   "properties": {
    "name": "1107 MURPHYS LAKE ROAD APPIN 3579",
    "locID": "LOC000079540638",
    "tech": "WIRELESS",
    "upgrade": "NULL_NA",
    "gnaf_pid": "GAVIC423364162",
    "tech_change_status": "Not Planned",
    "program_type": "Fixed Wireless and Satellite Upgrade Program",
    "target_eligibility_quarter": "NA"
   }
  },
  {
   "type": "Feature",
   "geometry": {
    "type": "Point",
    "coordinates": [
     143.86987233,
     -35.9041329
    ]
   },
   "properties": {
    "name": "219 SUTHERLAND ROAD APPIN 3579",
    "locID": "LOC000033795011",
    "tech": "WIRELESS",
    "upgrade": "NULL_NA",
    "gnaf_pid": "GAVIC423413243",
    "tech_change_status": "Not Planned",
    "program_type": "Fixed Wireless and Satellite Upgrade Program",
    "target_eligibility_quarter": "NA"
   }
  }
 ]
}