{
 "type": "FeatureCollection",
 "generated": "2024-07-05T05:03:32.302326",
 "suburb": "BALLARAT CENTRAL",
 "features": [
  {
   "type": "Feature",
   "geometry": {
    "type": "Point",
    "coordinates": [
     143.86113343,
     -37.56483303
    ]
   },
   "properties": {
    "name": "4 EASTWOOD STREET BALLARAT CENTRAL 3350",
    "locID": "LOC000104654772",
    "tech": "FTTP",
    "upgrade": "NULL_NA",
    "gnaf_pid": "GAVIC410792643"
   }
  },
  {
   "type": "Feature",
   "geometry": {
    "type": "Point",
    "coordinates": [
     143.86330136,
     -37.56433868
    ]
   },
   "properties": {
    "name": "22 PEEL STREET SOUTH BALLARAT CENTRAL 3350",
    "locID": "LOC000103843532",
    "tech": "FTTP",
    "upgrade": "NULL_NA",
    "gnaf_pid": "GAVIC410792646"
   }
  },
  {
   "type": "Feature",
   "geometry": {
    "type": "Point",
    "coordinates": [
     143.8539337,
     -37.55736015
    ]
   },
   "properties": {
    "name": "UNIT 1, 7 WEBSTER STREET BALLARAT CENTRAL 3350",
    "locID": "LOC000029297947",
    "tech": "FTTP",
    "upgrade": "NULL_NA",
    "gnaf_pid": "GAVIC410792676"
   }
  },
  {
   "type": "Feature",
   "geometry": {
    "type": "Point",
    "coordinates": [
     143.85258365,
     -37.56694155
    ]
   },
   "properties": {
    "name": "UNIT 3, 221 DAWSON STREET SOUTH BALLARAT CENTRAL 3350",
    "locID": "LOC000029212327",
    "tech": "FTTP",
    "upgrade": "NULL_NA",
    "gnaf_pid": "GAVIC410792677"
   }
  },
  {
   "type": "Feature",
   "geometry": {
    "type": "Point",
    "coordinates": [
     143.85033333,
     -37.55784994
    ]
   },
   "properties": {
    "name": "UNIT 1, 11 LITTLE RAGLAN STREET BALLARAT CENTRAL 3350",
    "locID": "LOC000104200769",
    "tech": "FTTP",
    "upgrade": "NULL_NA",
    "gnaf_pid": "GAVIC410792678"
   }
  },
  {
   "type": "Feature",
   "geometry": {
    "type": "Point",
    "coordinates": [
     143.84340349,
     -37.55912935
    ]
   },
   "properties": {
    "name": "12A TALBOT STREET NORTH BALLARAT CENTRAL 3350",
    "locID": "LOC000067772888",
    "tech": "FTTP",
    "upgrade": "NULL_NA",
    "gnaf_pid": "GAVIC410792680"
   }
  },
  {
   "type": "Feature",
   "geometry": {
    "type": "Point",
    "coordinates": [
     143.83875115,
     -37.56265928
    ]
   },
   "properties": {
    "name": "107 PLEASANT STREET SOUTH BALLARAT CENTRAL 3350",
    "locID": "LOC000060922299",
    "tech": "FTTP",
    "upgrade": "NULL_NA",
    "gnaf_pid": "GAVIC410792690"
   }
  },
  {
   "type": "Feature",
   "geometry": {
    "type": "Point",
    "coordinates": [
     143.84549279,
     -37.57006609
    ]
   },
   "properties": {
    "name": "412 DRUMMOND STREET SOUTH BALLARAT CENTRAL 3350",
    "locID": "LOC000034707060",
    "tech": "FTTP",
    "upgrade": "NULL_NA",
    "gnaf_pid": "GAVIC410792701"
   }
  },
  {
   "type": "Feature",
   "geometry": {
    "type": "Point",
    "coordinates": [
     143.84746402,
     -37.56741826
    ]
   },
   "properties": {
    "name": "UNIT 1, 302 ERRARD STREET SOUTH BALLARAT CENTRAL 3350",
    "locID": "LOC000032664210",
    "tech": "FTTP",
    "upgrade": "NULL_NA",
    "gnaf_pid": "GAVIC410792731"
   }
  },
  {
   "type": "Feature",
   "geometry": {
    "type": "Point",
    "coordinates": [
     143.8601436,
     -37.56259735
    ]
   },
   "properties": {
    "name": "UNIT 2, 11 STURT STREET BALLARAT CENTRAL 3350",
    "locID": "LOC000192163445",
    "tech": "FTTP",
    "upgrade": "NULL_NA",
    "gnaf_pid": "GAVIC410792732"
   }
  },
  {
   "type": "Feature",
   "geometry": {
    "type": "Point",
    "coordinates": [
     143.85738707,
     -37.56227834
    ]
   },
   "properties": {
    "name": "UNIT 5, 201 STURT STREET BALLARAT CENTRAL 3350",
    "locID": "LOC000042147644",
    "tech": "FTTP",
    "upgrade": "NULL_NA",
    "gnaf_pid": "GAVIC410792739"
   }
  },
  {
   "type": "Feature",
   "geometry": {
    "type": "Point",
    "coordinates": [
     143.84450876,
     -37.56159144
    ]
   },
   "properties": {
    "name": "11A ASCOT STREET SOUTH BALLARAT CENTRAL 3350",
    "locID": "LOC000015244137",
    "tech": "FTTP",
    "upgrade": "NULL_NA",
    "gnaf_pid": "GAVIC410792742"
   }
  },
  {
   "type": "Feature",
   "geometry": {
    "type": "Point",
    "coordinates": [
     143.84963604,
     -37.56668115
    ]
   },
   "properties": {
    "name": "219A RAGLAN STREET SOUTH BALLARAT CENTRAL 3350",
    "locID": "LOC000003548119",
    "tech": "FTTP",
    "upgrade": "NULL_NA",
    "gnaf_pid": "GAVIC410792767"
   }
  },
  {
   "type": "Feature",
   "geometry": {
    "type": "Point",
    "coordinates": [
     143.84811081,
     -37.56678059
    ]
   },
   "properties": {
    "name": "225 ERRARD STREET SOUTH BALLARAT CENTRAL 3350",
    "locID": "LOC000057518087",
    "tech": "FTTP",
    "upgrade": "NULL_NA",
    "gnaf_pid": "GAVIC410792772"
   }
  },
  {
   "type": "Feature",
   "geometry": {
    "type": "Point",
    "coordinates": [
     143.85005263,
     -37.56865093
    ]
   },
   "properties": {
    "name": "UNIT 1, 318 LYONS STREET SOUTH BALLARAT CENTRAL 3350",
    "locID": "LOC000045985120",
    "tech": "FTTP",
    "upgrade": "NULL_NA",
    "gnaf_pid": "GAVIC410792795"
   }
  },
  {
   "type": "Feature",
   "geometry": {
    "type": "Point",
    "coordinates": [
     143.83956456,
     -37.56230852
    ]
   },
   "properties": {
    "name": "1311B DANA STREET BALLARAT CENTRAL 3350",
    "locID": "LOC000046469185",
    "tech": "FTTP",
    "upgrade": "NULL_NA",
    "gnaf_pid": "GAVIC410792797"
   }
  },
  {
   "type": "Feature",
   "geometry": {
    "type": "Point",
    "coordinates": [
     143.84272646,
     -37.56627384
    ]
   },
   "properties": {
    "name": "703 COSMOPOLITAN PLACE BALLARAT CENTRAL 3350",
    "locID": "LOC000012738317",
    "tech": "FTTP",
    "upgrade": "NULL_NA",
    "gnaf_pid": "GAVIC410792798"
   }
  },
  {
   "type": "Feature",
   "geometry": {
    "type": "Point",
    "coordinates": [
     143.84830543,
     -37.5584004
    ]
   },
   "properties": {
    "name": "806 MAIR STREET BALLARAT CENTRAL 3350",
    "locID": "LOC000093239470",
    "tech": "FTTP",
    "upgrade": "NULL_NA",
    "gnaf_pid": "GAVIC410792901"
   }
  },
  {
   "type": "Feature",
   "geometry": {
    "type": "Point",
    "coordinates": [
     143.8445797,
     -37.56246975
    ]
   },
   "properties": {
    "name": "1010 DANA STREET BALLARAT CENTRAL 3350",
    "locID": "LOC000062172392",
    "tech": "FTTP",
    "upgrade": "NULL_NA",
    "gnaf_pid": "GAVIC410794267"
   }
  },
  {
   "type": "Feature",
   "geometry": {
    "type": "Point",
    "coordinates": [
     143.85005263,
     -37.56865093
    ]
   },
   "properties": {
    "name": "UNIT 13, 318 LYONS STREET SOUTH BALLARAT CENTRAL 3350",
    "locID": "LOC000045985120",
    "tech": "FTTP",
    "upgrade": "NULL_NA",
    "gnaf_pid": "GAVIC410794271"
   }
  },
  {
   "type": "Feature",
   "geometry": {
    "type": "Point",
    "coordinates": [
     143.84962717,
     -37.55161976
    ]
   },
   "properties": {
    "name": "UNIT 4, 412 DRUMMOND STREET NORTH BALLARAT CENTRAL 3350",
    "locID": "LOC000034762816",
    "tech": "FTTP",
    "upgrade": "NULL_NA",
    "gnaf_pid": "GAVIC410794275"
   }
  },
  {
   "type": "Feature",
   "geometry": {
    "type": "Point",
    "coordinates": [
     143.84962717,
     -37.55161976
    ]
   },
   "properties": {
    "name": "UNIT 2, 412 DRUMMOND STREET NORTH BALLARAT CENTRAL 3350",
    "locID": "LOC000034762816",
    "tech": "FTTP",
    "upgrade": "NULL_NA",
    "gnaf_pid": "GAVIC410794276"
   }
  },
  {
   "type": "Feature",
   "geometry": {
    "type": "Point",
    "coordinates": [
     143.85018143,
     -37.55102283
    ]
   },
   "properties": {
    "name": "317A CRESWICK ROAD BALLARAT CENTRAL 3350",
    "locID": "LOC000008699136",
    "tech": "FTTP",
    "upgrade": "NULL_NA",
    "gnaf_pid": "GAVIC410794288"
   }
  },
  {
   "type": "Feature",
   "geometry": {
    "type": "Point",
    "coordinates": [
     143.84812119,
     -37.566724
    ]
   },
   "properties": {
    "name": "225B ERRARD STREET SOUTH BALLARAT CENTRAL 3350",
    "locID": "LOC000057430676",
    "tech": "FTTP",
    "upgrade": "NULL_NA",
    "gnaf_pid": "GAVIC410794292"
   }
  },
  {
   "type": "Feature",
   "geometry": {
    "type": "Point",
    "coordinates": [
     143.85344944,
     -37.56230243
    ]
   },
   "properties": {
    "name": "3 DAWSON STREET SOUTH BALLARAT CENTRAL 3350",
    "locID": "LOC000053918022",
    "tech": "FTTP",
    "upgrade": "NULL_NA",
    "gnaf_pid": "GAVIC410794293"
   }
  },
  {
   "type": "Feature",
   "geometry": {
    "type": "Point",
    "coordinates": [
     143.85256486,
     -37.56704094
    ]
   },
   "properties": {
    "name": "UNIT 1, 221 DAWSON STREET SOUTH BALLARAT CENTRAL 3350",
    "locID": "LOC000029212327",
    "tech": "FTTP",
    "upgrade": "NULL_NA",
    "gnaf_pid": "GAVIC410794296"
   }
  },
  {
   "type": "Feature",
   "geometry": {
    "type": "Point",
    "coordinates": [
     143.85738707,
     -37.56227834
    ]
   },
   "properties": {
    "name": "UNIT 2, 201 STURT STREET BALLARAT CENTRAL 3350",
    "locID": "LOC000042600793",
    "tech": "FTTP",
    "upgrade": "NULL_NA",
    "gnaf_pid": "GAVIC410794298"
   }
  },
  {
   "type": "Feature",
   "geometry": {
    "type": "Point",
    "coordinates": [
     143.84450049,
     -37.5616362
    ]
   },
   "properties": {
    "name": "11B ASCOT STREET SOUTH BALLARAT CENTRAL 3350",
    "locID": "LOC000015224452",
    "tech": "FTTP",
    "upgrade": "NULL_NA",
    "gnaf_pid": "GAVIC410794299"
   }
  },
  {
   "type": "Feature",
   "geometry": {
    "type": "Point",
    "coordinates": [
     143.85019435,
     -37.5578035
    ]
   },
   "properties": {
    "name": "UNIT 2, 11 LITTLE RAGLAN STREET BALLARAT CENTRAL 3350",
    "locID": "LOC000104259216",
    "tech": "FTTP",
    "upgrade": "NULL_NA",
    "gnaf_pid": "GAVIC410794302"
   }
  },
  {
   "type": "Feature",
   "geometry": {
    "type": "Point",
    "coordinates": [
     143.84744996,
     -37.56749502
    ]
   },
   "properties": {
    "name": "UNIT 2, 302 ERRARD STREET SOUTH BALLARAT CENTRAL 3350",
    "locID": "LOC000032664210",
    "tech": "FTTP",
    "upgrade": "NULL_NA",
    "gnaf_pid": "GAVIC410794303"
   }
  },
  {
   "type": "Feature",
   "geometry": {
    "type": "Point",
    "coordinates": [
     143.8588075,
     -37.56298398
    ]
   },
   "properties": {
    "name": "UNIT 3, 2 ALBERT STREET BALLARAT CENTRAL 3350",
    "locID": "LOC000010602473",
    "tech": "FTTP",
    "upgrade": "NULL_NA",
    "gnaf_pid": "GAVIC410794310"
   }
  },
  {
   "type": "Feature",
   "geometry": {
    "type": "Point",
    "coordinates": [
     143.85861526,
     -37.56715668
    ]
   },
   "properties": {
    "name": "41 GRANT STREET BALLARAT CENTRAL 3350",
    "locID": "LOC000068228609",
    "tech": "FTTP",
    "upgrade": "NULL_NA",
    "gnaf_pid": "GAVIC410794311"
   }
  },
  {
   "type": "Feature",
   "geometry": {
    "type": "Point",
    "coordinates": [
     143.85423505,
     -37.55840459
    ]
   },
   "properties": {
    "name": "10A YUILLE STREET BALLARAT CENTRAL 3350",
    "locID": "LOC000050850557",
    "tech": "FTTP",
    "upgrade": "NULL_NA",
    "gnaf_pid": "GAVIC410794314"
   }
  },
  {
   "type": "Feature",
   "geometry": {
    "type": "Point",
    "coordinates": [
     143.8588075,
     -37.56298398
    ]
   },
   "properties": {
    "name": "UNIT 2, 2 ALBERT STREET BALLARAT CENTRAL 3350",
    "locID": "LOC000010602473",
    "tech": "FTTP",
    "upgrade": "NULL_NA",
    "gnaf_pid": "GAVIC410794317"
   }
  },
  {
   "type": "Feature",
   "geometry": {
    "type": "Point",
    "coordinates": [
     143.84388928,
     -37.57085113
    ]
   },
   "properties": {
    "name": "602A SEBASTOPOL STREET BALLARAT CENTRAL 3350",
    "locID": "LOC000095162549",
    "tech": "FTTP",
    "upgrade": "NULL_NA",
    "gnaf_pid": "GAVIC410794497"
   }
  },
  {
   "type": "Feature",
   "geometry": {
    "type": "Point",
    "coordinates": [
     143.85316318,
     -37.55684979
    ]
   },
   "properties": {
    "name": "UNIT 5, 18 WEBSTER STREET BALLARAT CENTRAL 3350",
    "locID": "LOC000073582359",
    "tech": "FTTP",
    "upgrade": "NULL_NA",
    "gnaf_pid": "GAVIC410794643"
   }
  },
  {
   "type": "Feature",
   "geometry": {
    "type": "Point",
    "coordinates": [
     143.85316318,
     -37.55684979
    ]
   },
   "properties": {
    "name": "UNIT 8, 18 WEBSTER STREET BALLARAT CENTRAL 3350",
    "locID": "LOC000073989610",
    "tech": "FTTP",
    "upgrade": "NULL_NA",
    "gnaf_pid": "GAVIC410794646"
   }
  },
  {
   "type": "Feature",
   "geometry": {
    "type": "Point",
    "coordinates": [
     143.8433806,
     -37.56486515
    ]
   },
   "properties": {
    "name": "202 ASCOT STREET SOUTH BALLARAT CENTRAL 3350",
    "locID": "LOC000078111321",
    "tech": "FTTP",
    "upgrade": "NULL_NA",
    "gnaf_pid": "GAVIC410794671"
   }
  },
  {
   "type": "Feature",
   "geometry": {
    "type": "Point",
    "coordinates": [
     143.8588075,
     -37.56298398
    ]
   },
   "properties": {
    "name": "UNIT 4, 2 ALBERT STREET BALLARAT CENTRAL 3350",
    "locID": "LOC000010363832",
    "tech": "FTTP",
    "upgrade": "NULL_NA",
    "gnaf_pid": "GAVIC410795236"
   }
  },
  {
   "type": "Feature",
   "geometry": {
    "type": "Point",
    "coordinates": [
     143.85194205,
     -37.56335073
    ]
   },
   "properties": {
    "name": "UNIT 3, 506 DANA STREET BALLARAT CENTRAL 3350",
    "locID": "LOC000038646088",
    "tech": "FTTP",
    "upgrade": "NULL_NA",
    "gnaf_pid": "GAVIC410795239"
   }
  },
  {
   "type": "Feature",
   "geometry": {
    "type": "Point",
    "coordinates": [
     143.8514145,
     -37.5566493
    ]
   },
   "properties": {
    "name": "1A JOHNSON STREET BALLARAT CENTRAL 3350",
    "locID": "LOC000032980204",
    "tech": "FTTP",
    "upgrade": "NULL_NA",
    "gnaf_pid": "GAVIC410795245"
   }
  },
  {
   "type": "Feature",
   "geometry": {
    "type": "Point",
    "coordinates": [
     143.8588075,
     -37.56298398
    ]
   },
   "properties": {
    "name": "UNIT 6, 2 ALBERT STREET BALLARAT CENTRAL 3350",
    "locID": "LOC000010173633",
    "tech": "FTTP",
    "upgrade": "NULL_NA",
    "gnaf_pid": "GAVIC410795252"
   }
  },
  {
   "type": "Feature",
   "geometry": {
    "type": "Point",
    "coordinates": [
     143.8577255,
     -37.56356303
    ]
   },
   "properties": {
    "name": "49 LYDIARD STREET SOUTH BALLARAT CENTRAL 3350",
    "locID": "LOC000015937501",
    "tech": "FTTP",
    "upgrade": "NULL_NA",
    "gnaf_pid": "GAVIC410795264"
   }
  },
  {
   "type": "Feature",
   "geometry": {
    "type": "Point",
    "coordinates": [
     143.85874425,
     -37.56470395
    ]
   },
   "properties": {
    "name": "121 ALBERT STREET BALLARAT CENTRAL 3350",
    "locID": "LOC000016591574",
    "tech": "FTTP",
    "upgrade": "NULL_NA",
    "gnaf_pid": "GAVIC410795267"
   }
  },
  {
   "type": "Feature",
   "geometry": {
    "type": "Point",
    "coordinates": [
     143.85310772,
     -37.55726422
    ]
   },
   "properties": {
    "name": "15A WEBSTER STREET BALLARAT CENTRAL 3350",
    "locID": "LOC000094049539",
    "tech": "FTTP",
    "upgrade": "NULL_NA",
    "gnaf_pid": "GAVIC410795281"
   }
  },
  {
   "type": "Feature",
   "geometry": {
    "type": "Point",
    "coordinates": [
     143.85194205,
     -37.56335073
    ]
   },
   "properties": {
    "name": "UNIT 4, 506 DANA STREET BALLARAT CENTRAL 3350",
    "locID": "LOC000038884719",
    "tech": "FTTP",
    "upgrade": "NULL_NA",
    "gnaf_pid": "GAVIC410795285"
   }
  },
  {
   "type": "Feature",
   "geometry": {
    "type": "Point",
    "coordinates": [
     143.85429068,
     -37.563005
    ]
   },
   "properties": {
    "name": "24A DOVETON STREET SOUTH BALLARAT CENTRAL 3350",
    "locID": "LOC000073851587",
    "tech": "FTTP",
    "upgrade": "NULL_NA",
    "gnaf_pid": "GAVIC410796177"
   }
  },
  {
   "type": "Feature",
   "geometry": {
    "type": "Point",
    "coordinates": [
     143.8399976,
     -37.56337264
    ]
   },
   "properties": {
    "name": "3A KENT STREET BALLARAT CENTRAL 3350",
    "locID": "LOC000091507377",
    "tech": "FTTP",
    "upgrade": "NULL_NA",
    "gnaf_pid": "GAVIC410797149"
   }
  },
  {
   "type": "Feature",
   "geometry": {
    "type": "Point",
    "coordinates": [
     143.83860369,
     -37.56648296
    ]
   },
   "properties": {
    "name": "917A URQUHART STREET BALLARAT CENTRAL 3350",
    "locID": "LOC000005290372",
    "tech": "FTTP",
    "upgrade": "NULL_NA",
    "gnaf_pid": "GAVIC410797155"
   }
  },
  {
   "type": "Feature",
   "geometry": {
    "type": "Point",
    "coordinates": [
     143.84051239,
     -37.56611267
    ]
   },
   "properties": {
    "name": "UNIT 2, 215 RIPON STREET SOUTH BALLARAT CENTRAL 3350",
    "locID": "LOC000080637434",
    "tech": "FTTP",
    "upgrade": "NULL_NA",
    "gnaf_pid": "GAVIC410797159"
   }
  },
  {
   "type": "Feature",
   "geometry": {
    "type": "Point",
    "coordinates": [
     143.84335876,
     -37.5649838
    ]
   },
   "properties": {
    "name": "204 ASCOT STREET SOUTH BALLARAT CENTRAL 3350",
    "locID": "LOC000083271634",
    "tech": "FTTP",
    "upgrade": "NULL_NA",
    "gnaf_pid": "GAVIC410797161"
   }
  },
  {
   "type": "Feature",
   "geometry": {
    "type": "Point",
    "coordinates": [
     143.84622655,
     -37.56889284
    ]
   },
   "properties": {
    "name": "327 DRUMMOND STREET SOUTH BALLARAT CENTRAL 3350",
    "locID": "LOC000075568181",
    "tech": "FTTP",
    "upgrade": "NULL_NA",
    "gnaf_pid": "GAVIC410797175"
   }
  },
  {
   "type": "Feature",
   "geometry": {
    "type": "Point",
    "coordinates": [
     143.8488106,
     -37.5629599
    ]
   },
   "properties": {
    "name": "UNIT 1, 708 DANA STREET BALLARAT CENTRAL 3350",
    "locID": "LOC000056143621",
    "tech": "FTTP",
    "upgrade": "NULL_NA",
    "gnaf_pid": "GAVIC410798100"
   }
  },
  {
   "type": "Feature",
   "geometry": {
    "type": "Point",
    "coordinates": [
     143.85404847,
     -37.56574667
    ]
   },
   "properties": {
    "name": "18 DOVETON STREET SOUTH BALLARAT CENTRAL 3350",
    "locID": "LOC000071546411",
    "tech": "FTTP",
    "upgrade": "NULL_NA",
    "gnaf_pid": "GAVIC410798808"
   }
  },
  {
   "type": "Feature",
   "geometry": {
    "type": "Point",
    "coordinates": [
     143.85294673,
     -37.56213954
    ]
   },
   "properties": {
    "name": "10A DAWSON STREET SOUTH BALLARAT CENTRAL 3350",
    "locID": "LOC000040266399",
    "tech": "FTTP",
    "upgrade": "NULL_NA",
    "gnaf_pid": "GAVIC410798810"
   }
  },
  {
   "type": "Feature",
   "geometry": {
    "type": "Point",
    "coordinates": [
     143.84587144,
     -37.56515654
    ]
   },
   "properties": {
    "name": "607 EYRE STREET BALLARAT CENTRAL 3350",
    "locID": "LOC000009739397",
    "tech": "FTTP",
    "upgrade": "NULL_NA",
    "gnaf_pid": "GAVIC410798819"
   }
  },
  {
   "type": "Feature",
   "geometry": {
    "type": "Point",
    "coordinates": [
     143.84649878,
     -37.5645518
    ]
   },
   "properties": {
    "name": "126 DRUMMOND STREET SOUTH BALLARAT CENTRAL 3350",
    "locID": "LOC000045614488",
    "tech": "FTTP",
    "upgrade": "NULL_NA",
    "gnaf_pid": "GAVIC410798827"
   }
  },
  {
   "type": "Feature",
   "geometry": {
    "type": "Point",
    "coordinates": [
     143.85144021,
     -37.56223785
    ]
   },
   "properties": {
    "name": "UNIT 8, 4 LYONS STREET SOUTH BALLARAT CENTRAL 3350",
    "locID": "LOC100065333857",
    "tech": "FTTP",
    "upgrade": "NULL_NA",
    "gnaf_pid": "GAVIC410799628"
   }
  },
  {
   "type": "Feature",
   "geometry": {
    "type": "Point",
    "coordinates": [
     143.84601306,
     -37.56680791
    ]
   },
   "properties": {
    "name": "UNIT 3, 222 DRUMMOND STREET SOUTH BALLARAT CENTRAL 3350",
    "locID": "LOC000073123217",
    "tech": "FTTP",
    "upgrade": "NULL_NA",
    "gnaf_pid": "GAVIC410799639"
   }
  },
  {
   "type": "Feature",
   "geometry": {
    "type": "Point",
    "coordinates": [
     143.85347424,
     -37.56217051
    ]
   },
   "properties": {
    "name": "1 DAWSON STREET SOUTH BALLARAT CENTRAL 3350",
    "locID": "LOC000079344829",
    "tech": "FTTP",
    "upgrade": "NULL_NA",
    "gnaf_pid": "GAVIC410799660"
   }
  },
  {
   "type": "Feature",
   "geometry": {
    "type": "Point",
    "coordinates": [
     143.85388768,
     -37.56223248
    ]
   },
   "properties": {
    "name": "UNIT 7, 1 DAWSON STREET SOUTH BALLARAT CENTRAL 3350",
    "locID": "LOC000079344829",
    "tech": "FTTP",
    "upgrade": "NULL_NA",
    "gnaf_pid": "GAVIC410799662"
   }
  },
  {
   "type": "Feature",
   "geometry": {
    "type": "Point",
    "coordinates": [
     143.85252881,
     -37.56439526
    ]
   },
   "properties": {
    "name": "UNIT 1, 108 DAWSON STREET SOUTH BALLARAT CENTRAL 3350",
    "locID": "LOC000038716200",
    "tech": "FTTP",
    "upgrade": "NULL_NA",
    "gnaf_pid": "GAVIC410799665"
   }
  },
  {
   "type": "Feature",
   "geometry": {
    "type": "Point",
    "coordinates": [
     143.8601436,
     -37.56259735
    ]
   },
   "properties": {
    "name": "UNIT 1, 11 STURT STREET BALLARAT CENTRAL 3350",
    "locID": "LOC000080797877",
    "tech": "FTTP",
    "upgrade": "NULL_NA",
    "gnaf_pid": "GAVIC410799668"
   }
  },
  {
   "type": "Feature",
   "geometry": {
    "type": "Point",
    "coordinates": [
     143.84880435,
     -37.57100011
    ]
   },
   "properties": {
    "name": "322 SKIPTON STREET BALLARAT CENTRAL 3350",
    "locID": "LOC000062388308",
    "tech": "FTTP",
    "upgrade": "NULL_NA",
    "gnaf_pid": "GAVIC410799726"
   }
  },
  {
   "type": "Feature",
   "geometry": {
    "type": "Point",
    "coordinates": [
     143.85857235,
     -37.55896703
    ]
   },
   "properties": {
    "name": "128 LYDIARD STREET NORTH BALLARAT CENTRAL 3350",
    "locID": "LOC000010966435",
    "tech": "FTTP",
    "upgrade": "NULL_NA",
    "gnaf_pid": "GAVIC410799770"
   }
  },
  {
   "type": "Feature",
   "geometry": {
    "type": "Point",
    "coordinates": [
     143.8504847,
     -37.55484235
    ]
   },
   "properties": {
    "name": "3 MILL STREET BALLARAT CENTRAL 3350",
    "locID": "LOC000096607013",
    "tech": "FTTP",
    "upgrade": "NULL_NA",
    "gnaf_pid": "GAVIC410800603"
   }
  },
  {
   "type": "Feature",
   "geometry": {
    "type": "Point",
    "coordinates": [
     143.84985838,
     -37.55184972
    ]
   },
   "properties": {
    "name": "UNIT 17, 412 DRUMMOND STREET NORTH BALLARAT CENTRAL 3350",
    "locID": "LOC000034762816",
    "tech": "FTTP",
    "upgrade": "NULL_NA",
    "gnaf_pid": "GAVIC410800612"
   }
  },
  {
   "type": "Feature",
   "geometry": {
    "type": "Point",
    "coordinates": [
     143.86032698,
     -37.5619282
    ]
   },
   "properties": {
    "name": "UNIT 1, 10 STURT STREET BALLARAT CENTRAL 3350",
    "locID": "LOC000118397242",
    "tech": "FTTP",
    "upgrade": "NULL_NA",
    "gnaf_pid": "GAVIC410800615"
   }
  },
  {
   "type": "Feature",
   "geometry": {
    "type": "Point",
    "coordinates": [
     143.84601306,
     -37.56680791
    ]
   },
   "properties": {
    "name": "UNIT 2, 222 DRUMMOND STREET SOUTH BALLARAT CENTRAL 3350",
    "locID": "LOC000073123217",
    "tech": "FTTP",
    "upgrade": "NULL_NA",
    "gnaf_pid": "GAVIC410801308"
   }
  },
  {
   "type": "Feature",
   "geometry": {
    "type": "Point",
    "coordinates": [
     143.8512839,
     -37.5630603
    ]
   },
   "properties": {
    "name": "UNIT 9, 20 LYONS STREET SOUTH BALLARAT CENTRAL 3350",
    "locID": "LOC000103918380",
    "tech": "FTTP",
    "upgrade": "NULL_NA",
    "gnaf_pid": "GAVIC410801309"
   }
  },
  {
   "type": "Feature",
   "geometry": {
    "type": "Point",
    "coordinates": [
     143.8512839,
     -37.5630603
    ]
   },
   "properties": {
    "name": "UNIT 1, 20 LYONS STREET SOUTH BALLARAT CENTRAL 3350",
    "locID": "LOC000103918380",
    "tech": "FTTP",
    "upgrade": "NULL_NA",
    "gnaf_pid": "GAVIC410801310"
   }
  },
  {
   "type": "Feature",
   "geometry": {
    "type": "Point",
    "coordinates": [
     143.8512839,
     -37.5630603
    ]
   },
   "properties": {
    "name": "UNIT 10, 20 LYONS STREET SOUTH BALLARAT CENTRAL 3350",
    "locID": "LOC000103918380",
    "tech": "FTTP",
    "upgrade": "NULL_NA",
    "gnaf_pid": "GAVIC410801311"
   }
  },
  {
   "type": "Feature",
   "geometry": {
    "type": "Point",
    "coordinates": [
     143.8512839,
     -37.5630603
    ]
   },
   "properties": {
    "name": "UNIT 12, 20 LYONS STREET SOUTH BALLARAT CENTRAL 3350",
    "locID": "LOC000103918380",
    "tech": "FTTP",
    "upgrade": "NULL_NA",
    "gnaf_pid": "GAVIC410801312"
   }
  },
  {
   "type": "Feature",
   "geometry": {
    "type": "Point",
    "coordinates": [
     143.84614459,
     -37.57111585
    ]
   },
   "properties": {
    "name": "408A SEBASTOPOL STREET BALLARAT CENTRAL 3350",
    "locID": "LOC000052478968",
    "tech": "FTTP",
    "upgrade": "NULL_NA",
    "gnaf_pid": "GAVIC410801320"
   }
  },
  {
   "type": "Feature",
   "geometry": {
    "type": "Point",
    "coordinates": [
     143.84923724,
     -37.55246846
    ]
   },
   "properties": {
    "name": "UNIT 5, 406 DRUMMOND STREET NORTH BALLARAT CENTRAL 3350",
    "locID": "LOC000040790880",
    "tech": "FTTP",
    "upgrade": "NULL_NA",
    "gnaf_pid": "GAVIC410801521"
   }
  },
  {
   "type": "Feature",
   "geometry": {
    "type": "Point",
    "coordinates": [
     143.84923724,
     -37.55246846
    ]
   },
   "properties": {
    "name": "UNIT 4, 406 DRUMMOND STREET NORTH BALLARAT CENTRAL 3350",
    "locID": "LOC000040790880",
    "tech": "FTTP",
    "upgrade": "NULL_NA",
    "gnaf_pid": "GAVIC410801522"
   }
  },
  {
   "type": "Feature",
   "geometry": {
    "type": "Point",
    "coordinates": [
     143.84999483,
     -37.56190826
    ]
   },
   "properties": {
    "name": "UNIT 1, 8 RAGLAN STREET SOUTH BALLARAT CENTRAL 3350",
    "locID": "LOC000071962858",
    "tech": "FTTP",
    "upgrade": "NULL_NA",
    "gnaf_pid": "GAVIC410801642"
   }
  },
  {
   "type": "Feature",
   "geometry": {
    "type": "Point",
    "coordinates": [
     143.84608026,
     -37.5654225
    ]
   },
   "properties": {
    "name": "UNIT 2, 204 DRUMMOND STREET SOUTH BALLARAT CENTRAL 3350",
    "locID": "LOC000056526913",
    "tech": "FTTP",
    "upgrade": "NULL_NA",
    "gnaf_pid": "GAVIC410801644"
   }
  },
  {
   "type": "Feature",
   "geometry": {
    "type": "Point",
    "coordinates": [
     143.85004115,
     -37.56166135
    ]
   },
   "properties": {
    "name": "4A RAGLAN STREET SOUTH BALLARAT CENTRAL 3350",
    "locID": "LOC000052623709",
    "tech": "FTTP",
    "upgrade": "NULL_NA",
    "gnaf_pid": "GAVIC410801646"
   }
  },
  {
   "type": "Feature",
   "geometry": {
    "type": "Point",
    "coordinates": [
     143.85629165,
     -37.56032025
    ]
   },
   "properties": {
    "name": "UNIT 2, 25 ARMSTRONG STREET NORTH BALLARAT CENTRAL 3350",
    "locID": "LOC000106453961",
    "tech": "FTTP",
    "upgrade": "NULL_NA",
    "gnaf_pid": "GAVIC410801647"
   }
  },
  {
   "type": "Feature",
   "geometry": {
    "type": "Point",
    "coordinates": [
     143.83894484,
     -37.5668173
    ]
   },
   "properties": {
    "name": "UNIT 3, 302 RIPON STREET SOUTH BALLARAT CENTRAL 3350",
    "locID": "LOC000124426810",
    "tech": "FTTP",
    "upgrade": "NULL_NA",
    "gnaf_pid": "GAVIC410801691"
   }
  },
  {
   "type": "Feature",
   "geometry": {
    "type": "Point",
    "coordinates": [
     143.85005263,
     -37.56865093
    ]
   },
   "properties": {
    "name": "UNIT 9, 318 LYONS STREET SOUTH BALLARAT CENTRAL 3350",
    "locID": "LOC000045985120",
    "tech": "FTTP",
    "upgrade": "NULL_NA",
    "gnaf_pid": "GAVIC410801717"
   }
  },
  {
   "type": "Feature",
   "geometry": {
    "type": "Point",
    "coordinates": [
     143.8480642,
     -37.56922248
    ]
   },
   "properties": {
    "name": "UNIT 1, 406 SOUTH STREET BALLARAT CENTRAL 3350",
    "locID": "LOC000094929744",
    "tech": "FTTP",
    "upgrade": "NULL_NA",
    "gnaf_pid": "GAVIC410801720"
   }
  },
  {
   "type": "Feature",
   "geometry": {
    "type": "Point",
    "coordinates": [
     143.84705633,
     -37.5615345
    ]
   },
   "properties": {
    "name": "6 DRUMMOND STREET SOUTH BALLARAT CENTRAL 3350",
    "locID": "LOC000105859030",
    "tech": "FTTP",
    "upgrade": "NULL_NA",
    "gnaf_pid": "GAVIC410802217"
   }
  },
  {
   "type": "Feature",
   "geometry": {
    "type": "Point",
    "coordinates": [
     143.85144021,
     -37.56223785
    ]
   },
   "properties": {
    "name": "UNIT 12, 4 LYONS STREET SOUTH BALLARAT CENTRAL 3350",
    "locID": "LOC100065333857",
    "tech": "FTTP",
    "upgrade": "NULL_NA",
    "gnaf_pid": "GAVIC410802219"
   }
  },
  {
   "type": "Feature",
   "geometry": {
    "type": "Point",
    "coordinates": [
     143.85144021,
     -37.56223785
    ]
   },
   "properties": {
    "name": "UNIT 9, 4 LYONS STREET SOUTH BALLARAT CENTRAL 3350",
    "locID": "LOC100065333857",
    "tech": "FTTP",
    "upgrade": "NULL_NA",
    "gnaf_pid": "GAVIC410802223"
   }
  },
  {
   "type": "Feature",
   "geometry": {
    "type": "Point",
    "coordinates": [
     143.84601306,
     -37.56680791
    ]
   },
   "properties": {
    "name": "UNIT 4, 222 DRUMMOND STREET SOUTH BALLARAT CENTRAL 3350",
    "locID": "LOC000073123217",
    "tech": "FTTP",
    "upgrade": "NULL_NA",
    "gnaf_pid": "GAVIC410802224"
   }
  },
  {
   "type": "Feature",
   "geometry": {
    "type": "Point",
    "coordinates": [
     143.84962717,
     -37.55161976
    ]
   },
   "properties": {
    "name": "UNIT 6, 412 DRUMMOND STREET NORTH BALLARAT CENTRAL 3350",
    "locID": "LOC000034762816",
    "tech": "FTTP",
    "upgrade": "NULL_NA",
    "gnaf_pid": "GAVIC410802233"
   }
  },
  {
   "type": "Feature",
   "geometry": {
    "type": "Point",
    "coordinates": [
     143.84920869,
     -37.55262504
    ]
   },
   "properties": {
    "name": "404C DRUMMOND STREET NORTH BALLARAT CENTRAL 3350",
    "locID": "LOC000053862934",
    "tech": "FTTP",
    "upgrade": "NULL_NA",
    "gnaf_pid": "GAVIC410802234"
   }
  },
  {
   "type": "Feature",
   "geometry": {
    "type": "Point",
    "coordinates": [
     143.85621765,
     -37.56425585
    ]
   },
   "properties": {
    "name": "209A DANA STREET BALLARAT CENTRAL 3350",
    "locID": "LOC000006945119",
    "tech": "FTTP",
    "upgrade": "NULL_NA",
    "gnaf_pid": "GAVIC410802238"
   }
  },
  {
   "type": "Feature",
   "geometry": {
    "type": "Point",
    "coordinates": [
     143.85420034,
     -37.56190075
    ]
   },
   "properties": {
    "name": "407A STURT STREET BALLARAT CENTRAL 3350",
    "locID": "LOC000101973892",
    "tech": "FTTP",
    "upgrade": "NULL_NA",
    "gnaf_pid": "GAVIC410802245"
   }
  },
  {
   "type": "Feature",
   "geometry": {
    "type": "Point",
    "coordinates": [
     143.85375104,
     -37.56221568
    ]
   },
   "properties": {
    "name": "UNIT 5, 1 DAWSON STREET SOUTH BALLARAT CENTRAL 3350",
    "locID": "LOC000079344829",
    "tech": "FTTP",
    "upgrade": "NULL_NA",
    "gnaf_pid": "GAVIC410802246"
   }
  },
  {
   "type": "Feature",
   "geometry": {
    "type": "Point",
    "coordinates": [
     143.84296955,
     -37.56145851
    ]
   },
   "properties": {
    "name": "15A TALBOT STREET SOUTH BALLARAT CENTRAL 3350",
    "locID": "LOC000029349419",
    "tech": "FTTP",
    "upgrade": "NULL_NA",
    "gnaf_pid": "GAVIC410802263"
   }
  },
  {
   "type": "Feature",
   "geometry": {
    "type": "Point",
    "coordinates": [
     143.8512839,
     -37.5630603
    ]
   },
   "properties": {
    "name": "UNIT 4, 20 LYONS STREET SOUTH BALLARAT CENTRAL 3350",
    "locID": "LOC000103918380",
    "tech": "FTTP",
    "upgrade": "NULL_NA",
    "gnaf_pid": "GAVIC410802558"
   }
  },
  {
   "type": "Feature",
   "geometry": {
    "type": "Point",
    "coordinates": [
     143.85390889,
     -37.56117478
    ]
   },
   "properties": {
    "name": "428A STURT STREET BALLARAT CENTRAL 3350",
    "locID": "LOC000060786702",
    "tech": "FTTP",
    "upgrade": "NULL_NA",
    "gnaf_pid": "GAVIC410802562"
   }
  },
  {
   "type": "Feature",
   "geometry": {
    "type": "Point",
    "coordinates": [
     143.84487781,
     -37.56885144
    ]
   },
   "properties": {
    "name": "610 SOUTH STREET BALLARAT CENTRAL 3350",
    "locID": "LOC000060583141",
    "tech": "FTTP",
    "upgrade": "NULL_NA",
    "gnaf_pid": "GAVIC410802605"
   }
  },
  {
   "type": "Feature",
   "geometry": {
    "type": "Point",
    "coordinates": [
     143.8515672,
     -37.56158819
    ]
   },
   "properties": {
    "name": "603A STURT STREET BALLARAT CENTRAL 3350",
    "locID": "LOC000095514576",
    "tech": "FTTP",
    "upgrade": "NULL_NA",
    "gnaf_pid": "GAVIC410803410"
   }
  },
  {
   "type": "Feature",
   "geometry": {
    "type": "Point",
    "coordinates": [
     143.8512839,
     -37.5630603
    ]
   },
   "properties": {
    "name": "UNIT 18, 20 LYONS STREET SOUTH BALLARAT CENTRAL 3350",
    "locID": "LOC000103918380",
    "tech": "FTTP",
    "upgrade": "NULL_NA",
    "gnaf_pid": "GAVIC410803415"
   }
  },
  {
   "type": "Feature",
   "geometry": {
    "type": "Point",
    "coordinates": [
     143.85144021,
     -37.56223785
    ]
   },
   "properties": {
    "name": "UNIT 10, 4 LYONS STREET SOUTH BALLARAT CENTRAL 3350",
    "locID": "LOC100065333857",
    "tech": "FTTP",
    "upgrade": "NULL_NA",
    "gnaf_pid": "GAVIC410803417"
   }
  },
  {
   "type": "Feature",
   "geometry": {
    "type": "Point",
    "coordinates": [
     143.84578254,
     -37.56303351
    ]
   },
   "properties": {
    "name": "913 DANA STREET BALLARAT CENTRAL 3350",
    "locID": "LOC000021068794",
    "tech": "FTTP",
    "upgrade": "NULL_NA",
    "gnaf_pid": "GAVIC410803423"
   }
  },
  {
   "type": "Feature",
   "geometry": {
    "type": "Point",
    "coordinates": [
     143.8495174,
     -37.5606558
    ]
   },
   "properties": {
    "name": "UNIT 7, 712 STURT STREET BALLARAT CENTRAL 3350",
    "locID": "LOC000015287322",
    "tech": "FTTP",
    "upgrade": "NULL_NA",
    "gnaf_pid": "GAVIC410804330"
   }
  },
  {
   "type": "Feature",
   "geometry": {
    "type": "Point",
    "coordinates": [
     143.85310772,
     -37.55726422
    ]
   },
   "properties": {
    "name": "17A WEBSTER STREET BALLARAT CENTRAL 3350",
    "locID": "LOC000052312199",
    "tech": "FTTP",
    "upgrade": "NULL_NA",
    "gnaf_pid": "GAVIC410804342"
   }
  },
  {
   "type": "Feature",
   "geometry": {
    "type": "Point",
    "coordinates": [
     143.8483722,
     -37.55883435
    ]
   },
   "properties": {
    "name": "803 MAIR STREET BALLARAT CENTRAL 3350",
    "locID": "LOC000068081355",
    "tech": "FTTP",
    "upgrade": "NULL_NA",
    "gnaf_pid": "GAVIC410804455"
   }
  },
  {
   "type": "Feature",
   "geometry": {
    "type": "Point",
    "coordinates": [
     143.85398893,
     -37.56219644
    ]
   },
   "properties": {
    "name": "UNIT 8, 1 DAWSON STREET SOUTH BALLARAT CENTRAL 3350",
    "locID": "LOC000079344829",
    "tech": "FTTP",
    "upgrade": "NULL_NA",
    "gnaf_pid": "GAVIC410805014"
   }
  },
  {
   "type": "Feature",
   "geometry": {
    "type": "Point",
    "coordinates": [
     143.85009343,
     -37.55691289
    ]
   },
   "properties": {
    "name": "59A WEBSTER STREET BALLARAT CENTRAL 3350",
    "locID": "LOC000033664259",
    "tech": "FTTP",
    "upgrade": "NULL_NA",
    "gnaf_pid": "GAVIC410805022"
   }
  },
  {
   "type": "Feature",
   "geometry": {
    "type": "Point",
    "coordinates": [
     143.85194205,
     -37.56335073
    ]
   },
   "properties": {
    "name": "UNIT 5, 506 DANA STREET BALLARAT CENTRAL 3350",
    "locID": "LOC000038432679",
    "tech": "FTTP",
    "upgrade": "NULL_NA",
    "gnaf_pid": "GAVIC410805025"
   }
  },
  {
   "type": "Feature",
   "geometry": {
    "type": "Point",
    "coordinates": [
     143.85194205,
     -37.56335073
    ]
   },
   "properties": {
    "name": "UNIT 2, 506 DANA STREET BALLARAT CENTRAL 3350",
    "locID": "LOC000038731144",
    "tech": "FTTP",
    "upgrade": "NULL_NA",
    "gnaf_pid": "GAVIC410805026"
   }
  },
  {
   "type": "Feature",
   "geometry": {
    "type": "Point",
    "coordinates": [
     143.84094896,
     -37.55864651
    ]
   },
   "properties": {
    "name": "4A SUSSEX STREET BALLARAT CENTRAL 3350",
    "locID": "LOC000035196662",
    "tech": "FTTP",
    "upgrade": "NULL_NA",
    "gnaf_pid": "GAVIC410805027"
   }
  },
  {
   "type": "Feature",
   "geometry": {
    "type": "Point",
    "coordinates": [
     143.8513964,
     -37.5727773
    ]
   },
   "properties": {
    "name": "11 FAWKNER STREET BALLARAT CENTRAL 3350",
    "locID": "LOC000046267441",
    "tech": "FTTP",
    "upgrade": "NULL_NA",
    "gnaf_pid": "GAVIC410805216"
   }
  },
  {
   "type": "Feature",
   "geometry": {
    "type": "Point",
    "coordinates": [
     143.84188984,
     -37.55890154
    ]
   },
   "properties": {
    "name": "14A RIPON STREET NORTH BALLARAT CENTRAL 3350",
    "locID": "LOC000096612235",
    "tech": "FTTP",
    "upgrade": "NULL_NA",
    "gnaf_pid": "GAVIC410805345"
   }
  },
  {
   "type": "Feature",
   "geometry": {
    "type": "Point",
    "coordinates": [
     143.8413275,
     -37.5591163
    ]
   },
   "properties": {
    "name": "9A RIPON STREET NORTH BALLARAT CENTRAL 3350",
    "locID": "LOC000016881981",
    "tech": "FTTP",
    "upgrade": "NULL_NA",
    "gnaf_pid": "GAVIC410805356"
   }
  },
  {
   "type": "Feature",
   "geometry": {
    "type": "Point",
    "coordinates": [
     143.85316318,
     -37.55684979
    ]
   },
   "properties": {
    "name": "UNIT 7, 18 WEBSTER STREET BALLARAT CENTRAL 3350",
    "locID": "LOC000073261028",
    "tech": "FTTP",
    "upgrade": "NULL_NA",
    "gnaf_pid": "GAVIC410805360"
   }
  },
  {
   "type": "Feature",
   "geometry": {
    "type": "Point",
    "coordinates": [
     143.8497723,
     -37.55050205
    ]
   },
   "properties": {
    "name": "325A CRESWICK ROAD BALLARAT CENTRAL 3350",
    "locID": "LOC000026104598",
    "tech": "FTTP",
    "upgrade": "NULL_NA",
    "gnaf_pid": "GAVIC410805364"
   }
  },
  {
   "type": "Feature",
   "geometry": {
    "type": "Point",
    "coordinates": [
     143.84962717,
     -37.55161976
    ]
   },
   "properties": {
    "name": "UNIT 5, 412 DRUMMOND STREET NORTH BALLARAT CENTRAL 3350",
    "locID": "LOC000034762816",
    "tech": "FTTP",
    "upgrade": "NULL_NA",
    "gnaf_pid": "GAVIC410805368"
   }
  },
  {
   "type": "Feature",
   "geometry": {
    "type": "Point",
    "coordinates": [
     143.8488034,
     -37.5601912
    ]
   },
   "properties": {
    "name": "UNIT 4, 3 ERRARD STREET NORTH BALLARAT CENTRAL 3350",
    "locID": "LOC000044710612",
    "tech": "FTTP",
    "upgrade": "NULL_NA",
    "gnaf_pid": "GAVIC410805372"
   }
  },
  {
   "type": "Feature",
   "geometry": {
    "type": "Point",
    "coordinates": [
     143.85144021,
     -37.56223785
    ]
   },
   "properties": {
    "name": "UNIT 14, 4 LYONS STREET SOUTH BALLARAT CENTRAL 3350",
    "locID": "LOC100065333857",
    "tech": "FTTP",
    "upgrade": "NULL_NA",
    "gnaf_pid": "GAVIC410805373"
   }
  },
  {
   "type": "Feature",
   "geometry": {
    "type": "Point",
    "coordinates": [
     143.85016365,
     -37.55165183
    ]
   },
   "properties": {
    "name": "UNIT 13, 412 DRUMMOND STREET NORTH BALLARAT CENTRAL 3350",
    "locID": "LOC000034762816",
    "tech": "FTTP",
    "upgrade": "NULL_NA",
    "gnaf_pid": "GAVIC410805375"
   }
  },
  {
   "type": "Feature",
   "geometry": {
    "type": "Point",
    "coordinates": [
     143.85033575,
     -37.55482493
    ]
   },
   "properties": {
    "name": "5 MILL STREET BALLARAT CENTRAL 3350",
    "locID": "LOC000055965906",
    "tech": "FTTP",
    "upgrade": "NULL_NA",
    "gnaf_pid": "GAVIC410805376"
   }
  },
  {
   "type": "Feature",
   "geometry": {
    "type": "Point",
    "coordinates": [
     143.85003648,
     -37.55195069
    ]
   },
   "properties": {
    "name": "UNIT 18B, 412 DRUMMOND STREET NORTH BALLARAT CENTRAL 3350",
    "locID": "LOC000034762816",
    "tech": "FTTP",
    "upgrade": "NULL_NA",
    "gnaf_pid": "GAVIC410805377"
   }
  },
  {
   "type": "Feature",
   "geometry": {
    "type": "Point",
    "coordinates": [
     143.85009149,
     -37.55183154
    ]
   },
   "properties": {
    "name": "UNIT 18A, 412 DRUMMOND STREET NORTH BALLARAT CENTRAL 3350",
    "locID": "LOC000034762816",
    "tech": "FTTP",
    "upgrade": "NULL_NA",
    "gnaf_pid": "GAVIC410805378"
   }
  },
  {
   "type": "Feature",
   "geometry": {
    "type": "Point",
    "coordinates": [
     143.84601306,
     -37.56680791
    ]
   },
   "properties": {
    "name": "UNIT 7, 222 DRUMMOND STREET SOUTH BALLARAT CENTRAL 3350",
    "locID": "LOC000073123217",
    "tech": "FTTP",
    "upgrade": "NULL_NA",
    "gnaf_pid": "GAVIC410805381"
   }
  },
  {
   "type": "Feature",
   "geometry": {
    "type": "Point",
    "coordinates": [
     143.84855235,
     -37.556316
    ]
   },
   "properties": {
    "name": "UNIT 3, 58 WEBSTER STREET BALLARAT CENTRAL 3350",
    "locID": "LOC000102147734",
    "tech": "FTTP",
    "upgrade": "NULL_NA",
    "gnaf_pid": "GAVIC410805382"
   }
  },
  {
   "type": "Feature",
   "geometry": {
    "type": "Point",
    "coordinates": [
     143.85375664,
     -37.55733957
    ]
   },
   "properties": {
    "name": "9 WEBSTER STREET BALLARAT CENTRAL 3350",
    "locID": "LOC000063489365",
    "tech": "FTTP",
    "upgrade": "NULL_NA",
    "gnaf_pid": "GAVIC410805385"
   }
  },
  {
   "type": "Feature",
   "geometry": {
    "type": "Point",
    "coordinates": [
     143.85738707,
     -37.56227834
    ]
   },
   "properties": {
    "name": "UNIT 3, 201 STURT STREET BALLARAT CENTRAL 3350",
    "locID": "LOC000042509313",
    "tech": "FTTP",
    "upgrade": "NULL_NA",
    "gnaf_pid": "GAVIC410805949"
   }
  },
  {
   "type": "Feature",
   "geometry": {
    "type": "Point",
    "coordinates": [
     143.8467377,
     -37.56994804
    ]
   },
   "properties": {
    "name": "408B ERRARD STREET SOUTH BALLARAT CENTRAL 3350",
    "locID": "LOC000109074252",
    "tech": "FTTP",
    "upgrade": "NULL_NA",
    "gnaf_pid": "GAVIC410805952"
   }
  },
  {
   "type": "Feature",
   "geometry": {
    "type": "Point",
    "coordinates": [
     143.85347424,
     -37.56217051
    ]
   },
   "properties": {
    "name": "UNIT 1, 1 DAWSON STREET SOUTH BALLARAT CENTRAL 3350",
    "locID": "LOC000079344829",
    "tech": "FTTP",
    "upgrade": "NULL_NA",
    "gnaf_pid": "GAVIC410805957"
   }
  },
  {
   "type": "Feature",
   "geometry": {
    "type": "Point",
    "coordinates": [
     143.8429259,
     -37.56629685
    ]
   },
   "properties": {
    "name": "701 COSMOPOLITAN PLACE BALLARAT CENTRAL 3350",
    "locID": "LOC000019496446",
    "tech": "FTTP",
    "upgrade": "NULL_NA",
    "gnaf_pid": "GAVIC410805963"
   }
  },
  {
   "type": "Feature",
   "geometry": {
    "type": "Point",
    "coordinates": [
     143.84740631,
     -37.57065425
    ]
   },
   "properties": {
    "name": "415A ERRARD STREET SOUTH BALLARAT CENTRAL 3350",
    "locID": "LOC000023872310",
    "tech": "FTTP",
    "upgrade": "NULL_NA",
    "gnaf_pid": "GAVIC410805965"
   }
  },
  {
   "type": "Feature",
   "geometry": {
    "type": "Point",
    "coordinates": [
     143.8393137,
     -37.56650345
    ]
   },
   "properties": {
    "name": "UNIT 1, 907 URQUHART STREET BALLARAT CENTRAL 3350",
    "locID": "LOC000010208987",
    "tech": "FTTP",
    "upgrade": "NULL_NA",
    "gnaf_pid": "GAVIC410805966"
   }
  },
  {
   "type": "Feature",
   "geometry": {
    "type": "Point",
    "coordinates": [
     143.84170905,
     -37.56543371
    ]
   },
   "properties": {
    "name": "UNIT 2, 210 TALBOT STREET SOUTH BALLARAT CENTRAL 3350",
    "locID": "LOC000049952431",
    "tech": "FTTP",
    "upgrade": "NULL_NA",
    "gnaf_pid": "GAVIC410805967"
   }
  },
  {
   "type": "Feature",
   "geometry": {
    "type": "Point",
    "coordinates": [
     143.84171978,
     -37.5653755
    ]
   },
   "properties": {
    "name": "UNIT 1, 210 TALBOT STREET SOUTH BALLARAT CENTRAL 3350",
    "locID": "LOC000049952431",
    "tech": "FTTP",
    "upgrade": "NULL_NA",
    "gnaf_pid": "GAVIC410805975"
   }
  },
  {
   "type": "Feature",
   "geometry": {
    "type": "Point",
    "coordinates": [
     143.8410812,
     -37.56325714
    ]
   },
   "properties": {
    "name": "111B RIPON STREET SOUTH BALLARAT CENTRAL 3350",
    "locID": "LOC000060539195",
    "tech": "FTTP",
    "upgrade": "NULL_NA",
    "gnaf_pid": "GAVIC410805978"
   }
  },
  {
   "type": "Feature",
   "geometry": {
    "type": "Point",
    "coordinates": [
     143.84923724,
     -37.55246846
    ]
   },
   "properties": {
    "name": "UNIT 3, 406 DRUMMOND STREET NORTH BALLARAT CENTRAL 3350",
    "locID": "LOC000040790880",
    "tech": "FTTP",
    "upgrade": "NULL_NA",
    "gnaf_pid": "GAVIC410805991"
   }
  },
  {
   "type": "Feature",
   "geometry": {
    "type": "Point",
    "coordinates": [
     143.85316318,
     -37.55684979
    ]
   },
   "properties": {
    "name": "UNIT 6, 18 WEBSTER STREET BALLARAT CENTRAL 3350",
    "locID": "LOC000073307778",
    "tech": "FTTP",
    "upgrade": "NULL_NA",
    "gnaf_pid": "GAVIC410806091"
   }
  },
  {
   "type": "Feature",
   "geometry": {
    "type": "Point",
    "coordinates": [
     143.84291768,
     -37.56173098
    ]
   },
   "properties": {
    "name": "19A TALBOT STREET SOUTH BALLARAT CENTRAL 3350",
    "locID": "LOC000096798307",
    "tech": "FTTP",
    "upgrade": "NULL_NA",
    "gnaf_pid": "GAVIC410806132"
   }
  },
  {
   "type": "Feature",
   "geometry": {
    "type": "Point",
    "coordinates": [
     143.84976545,
     -37.57205361
    ]
   },
   "properties": {
    "name": "502 LYONS STREET SOUTH BALLARAT CENTRAL 3350",
    "locID": "LOC000014246259",
    "tech": "FTTP",
    "upgrade": "NULL_NA",
    "gnaf_pid": "GAVIC410806145"
   }
  },
  {
   "type": "Feature",
   "geometry": {
    "type": "Point",
    "coordinates": [
     143.85084211,
     -37.56952395
    ]
   },
   "properties": {
    "name": "218 SKIPTON STREET BALLARAT CENTRAL 3350",
    "locID": "LOC000036646391",
    "tech": "FTTP",
    "upgrade": "NULL_NA",
    "gnaf_pid": "GAVIC410806150"
   }
  },
  {
   "type": "Feature",
   "geometry": {
    "type": "Point",
    "coordinates": [
     143.85045755,
     -37.57160398
    ]
   },
   "properties": {
    "name": "421 LYONS STREET SOUTH BALLARAT CENTRAL 3350",
    "locID": "LOC000095068675",
    "tech": "FTTP",
    "upgrade": "NULL_NA",
    "gnaf_pid": "GAVIC410806153"
   }
  },
  {
   "type": "Feature",
   "geometry": {
    "type": "Point",
    "coordinates": [
     143.85144021,
     -37.56223785
    ]
   },
   "properties": {
    "name": "UNIT 6, 4 LYONS STREET SOUTH BALLARAT CENTRAL 3350",
    "locID": "LOC100065333857",
    "tech": "FTTP",
    "upgrade": "NULL_NA",
    "gnaf_pid": "GAVIC410806182"
   }
  },
  {
   "type": "Feature",
   "geometry": {
    "type": "Point",
    "coordinates": [
     143.8517355,
     -37.5654279
    ]
   },
   "properties": {
    "name": "208 EYRE STREET BALLARAT CENTRAL 3350",
    "locID": "LOC000106516349",
    "tech": "FTTP",
    "upgrade": "NULL_NA",
    "gnaf_pid": "GAVIC410806200"
   }
  },
  {
   "type": "Feature",
   "geometry": {
    "type": "Point",
    "coordinates": [
     143.85194205,
     -37.56335073
    ]
   },
   "properties": {
    "name": "UNIT 1, 506 DANA STREET BALLARAT CENTRAL 3350",
    "locID": "LOC000038766190",
    "tech": "FTTP",
    "upgrade": "NULL_NA",
    "gnaf_pid": "GAVIC410806202"
   }
  },
  {
   "type": "Feature",
   "geometry": {
    "type": "Point",
    "coordinates": [
     143.84701455,
     -37.56990795
    ]
   },
   "properties": {
    "name": "408A ERRARD STREET SOUTH BALLARAT CENTRAL 3350",
    "locID": "LOC000109807184",
    "tech": "FTTP",
    "upgrade": "NULL_NA",
    "gnaf_pid": "GAVIC410806203"
   }
  },
  {
   "type": "Feature",
   "geometry": {
    "type": "Point",
    "coordinates": [
     143.85385211,
     -37.55735068
    ]
   },
   "properties": {
    "name": "UNIT 2, 7 WEBSTER STREET BALLARAT CENTRAL 3350",
    "locID": "LOC000029339088",
    "tech": "FTTP",
    "upgrade": "NULL_NA",
    "gnaf_pid": "GAVIC410806204"
   }
  },
  {
   "type": "Feature",
   "geometry": {
    "type": "Point",
    "coordinates": [
     143.85420034,
     -37.56190075
    ]
   },
   "properties": {
    "name": "407 STURT STREET BALLARAT CENTRAL 3350",
    "locID": "LOC000102039001",
    "tech": "FTTP",
    "upgrade": "NULL_NA",
    "gnaf_pid": "GAVIC410806275"
   }
  },
  {
   "type": "Feature",
   "geometry": {
    "type": "Point",
    "coordinates": [
     143.8588075,
     -37.56298398
    ]
   },
   "properties": {
    "name": "UNIT 5, 2 ALBERT STREET BALLARAT CENTRAL 3350",
    "locID": "LOC000010162672",
    "tech": "FTTP",
    "upgrade": "NULL_NA",
    "gnaf_pid": "GAVIC410806277"
   }
  },
  {
   "type": "Feature",
   "geometry": {
    "type": "Point",
    "coordinates": [
     143.85425221,
     -37.55830879
    ]
   },
   "properties": {
    "name": "12 YUILLE STREET BALLARAT CENTRAL 3350",
    "locID": "LOC000016959134",
    "tech": "FTTP",
    "upgrade": "NULL_NA",
    "gnaf_pid": "GAVIC410806280"
   }
  },
  {
   "type": "Feature",
   "geometry": {
    "type": "Point",
    "coordinates": [
     143.84437478,
     -37.55945759
    ]
   },
   "properties": {
    "name": "9 ASCOT STREET NORTH BALLARAT CENTRAL 3350",
    "locID": "LOC000027017589",
    "tech": "FTTP",
    "upgrade": "NULL_NA",
    "gnaf_pid": "GAVIC410806281"
   }
  },
  {
   "type": "Feature",
   "geometry": {
    "type": "Point",
    "coordinates": [
     143.85310772,
     -37.55726422
    ]
   },
   "properties": {
    "name": "21A WEBSTER STREET BALLARAT CENTRAL 3350",
    "locID": "LOC000075932032",
    "tech": "FTTP",
    "upgrade": "NULL_NA",
    "gnaf_pid": "GAVIC410806285"
   }
  },
  {
   "type": "Feature",
   "geometry": {
    "type": "Point",
    "coordinates": [
     143.84969185,
     -37.55919733
    ]
   },
   "properties": {
    "name": "UNIT 1, 22 ERRARD STREET NORTH BALLARAT CENTRAL 3350",
    "locID": "LOC000096471975",
    "tech": "FTTP",
    "upgrade": "NULL_NA",
    "gnaf_pid": "GAVIC410806286"
   }
  },
  {
   "type": "Feature",
   "geometry": {
    "type": "Point",
    "coordinates": [
     143.8488034,
     -37.5601912
    ]
   },
   "properties": {
    "name": "UNIT 3, 3 ERRARD STREET NORTH BALLARAT CENTRAL 3350",
    "locID": "LOC000044710612",
    "tech": "FTTP",
    "upgrade": "NULL_NA",
    "gnaf_pid": "GAVIC410806287"
   }
  },
  {
   "type": "Feature",
   "geometry": {
    "type": "Point",
    "coordinates": [
     143.84601306,
     -37.56680791
    ]
   },
   "properties": {
    "name": "UNIT 6, 222 DRUMMOND STREET SOUTH BALLARAT CENTRAL 3350",
    "locID": "LOC000073123217",
    "tech": "FTTP",
    "upgrade": "NULL_NA",
    "gnaf_pid": "GAVIC410806289"
   }
  },
  {
   "type": "Feature",
   "geometry": {
    "type": "Point",
    "coordinates": [
     143.8512839,
     -37.5630603
    ]
   },
   "properties": {
    "name": "UNIT 6, 20 LYONS STREET SOUTH BALLARAT CENTRAL 3350",
    "locID": "LOC000103918380",
    "tech": "FTTP",
    "upgrade": "NULL_NA",
    "gnaf_pid": "GAVIC410806291"
   }
  },
  {
   "type": "Feature",
   "geometry": {
    "type": "Point",
    "coordinates": [
     143.84962717,
     -37.55161976
    ]
   },
   "properties": {
    "name": "UNIT 10, 412 DRUMMOND STREET NORTH BALLARAT CENTRAL 3350",
    "locID": "LOC000034762816",
    "tech": "FTTP",
    "upgrade": "NULL_NA",
    "gnaf_pid": "GAVIC410806888"
   }
  },
  {
   "type": "Feature",
   "geometry": {
    "type": "Point",
    "coordinates": [
     143.83929183,
     -37.56862168
    ]
   },
   "properties": {
    "name": "1003 SOUTH STREET BALLARAT CENTRAL 3350",
    "locID": "LOC000106288725",
    "tech": "FTTP",
    "upgrade": "NULL_NA",
    "gnaf_pid": "GAVIC410807011"
   }
  },
  {
   "type": "Feature",
   "geometry": {
    "type": "Point",
    "coordinates": [
     143.83900669,
     -37.5702852
    ]
   },
   "properties": {
    "name": "902A SEBASTOPOL STREET BALLARAT CENTRAL 3350",
    "locID": "LOC000106477188",
    "tech": "FTTP",
    "upgrade": "NULL_NA",
    "gnaf_pid": "GAVIC410807017"
   }
  },
  {
   "type": "Feature",
   "geometry": {
    "type": "Point",
    "coordinates": [
     143.83926695,
     -37.57029705
    ]
   },
   "properties": {
    "name": "418 RIPON STREET SOUTH BALLARAT CENTRAL 3350",
    "locID": "LOC000094025494",
    "tech": "FTTP",
    "upgrade": "NULL_NA",
    "gnaf_pid": "GAVIC410807019"
   }
  },
  {
   "type": "Feature",
   "geometry": {
    "type": "Point",
    "coordinates": [
     143.84413826,
     -37.56614216
    ]
   },
   "properties": {
    "name": "UNIT 3, 223 ASCOT STREET SOUTH BALLARAT CENTRAL 3350",
    "locID": "LOC000094011909",
    "tech": "FTTP",
    "upgrade": "NULL_NA",
    "gnaf_pid": "GAVIC410807528"
   }
  },
  {
   "type": "Feature",
   "geometry": {
    "type": "Point",
    "coordinates": [
     143.84828653,
     -37.5658221
    ]
   },
   "properties": {
    "name": "205 ERRARD STREET SOUTH BALLARAT CENTRAL 3350",
    "locID": "LOC000105851794",
    "tech": "FTTP",
    "upgrade": "NULL_NA",
    "gnaf_pid": "GAVIC410807556"
   }
  },
  {
   "type": "Feature",
   "geometry": {
    "type": "Point",
    "coordinates": [
     143.83912515,
     -37.5685359
    ]
   },
   "properties": {
    "name": "1003A SOUTH STREET BALLARAT CENTRAL 3350",
    "locID": "LOC000106468264",
    "tech": "FTTP",
    "upgrade": "NULL_NA",
    "gnaf_pid": "GAVIC410807584"
   }
  },
  {
   "type": "Feature",
   "geometry": {
    "type": "Point",
    "coordinates": [
     143.83957698,
     -37.56755445
    ]
   },
   "properties": {
    "name": "314 RIPON STREET SOUTH BALLARAT CENTRAL 3350",
    "locID": "LOC000020475147",
    "tech": "FTTP",
    "upgrade": "NULL_NA",
    "gnaf_pid": "GAVIC410808492"
   }
  },
  {
   "type": "Feature",
   "geometry": {
    "type": "Point",
    "coordinates": [
     143.84154446,
     -37.5663282
    ]
   },
   "properties": {
    "name": "222 TALBOT STREET SOUTH BALLARAT CENTRAL 3350",
    "locID": "LOC000093815907",
    "tech": "FTTP",
    "upgrade": "NULL_NA",
    "gnaf_pid": "GAVIC410808499"
   }
  },
  {
   "type": "Feature",
   "geometry": {
    "type": "Point",
    "coordinates": [
     143.84791049,
     -37.56962701
    ]
   },
   "properties": {
    "name": "409A SOUTH STREET BALLARAT CENTRAL 3350",
    "locID": "LOC000008908639",
    "tech": "FTTP",
    "upgrade": "NULL_NA",
    "gnaf_pid": "GAVIC410809269"
   }
  },
  {
   "type": "Feature",
   "geometry": {
    "type": "Point",
    "coordinates": [
     143.85005263,
     -37.56865093
    ]
   },
   "properties": {
    "name": "UNIT 4, 318 LYONS STREET SOUTH BALLARAT CENTRAL 3350",
    "locID": "LOC000045985120",
    "tech": "FTTP",
    "upgrade": "NULL_NA",
    "gnaf_pid": "GAVIC410809274"
   }
  },
  {
   "type": "Feature",
   "geometry": {
    "type": "Point",
    "coordinates": [
     143.84953978,
     -37.56939833
    ]
   },
   "properties": {
    "name": "308 SOUTH STREET BALLARAT CENTRAL 3350",
    "locID": "LOC000086697754",
    "tech": "FTTP",
    "upgrade": "NULL_NA",
    "gnaf_pid": "GAVIC410809276"
   }
  },
  {
   "type": "Feature",
   "geometry": {
    "type": "Point",
    "coordinates": [
     143.85316318,
     -37.55684979
    ]
   },
   "properties": {
    "name": "UNIT 4, 18 WEBSTER STREET BALLARAT CENTRAL 3350",
    "locID": "LOC000073664245",
    "tech": "FTTP",
    "upgrade": "NULL_NA",
    "gnaf_pid": "GAVIC410809431"
   }
  },
  {
   "type": "Feature",
   "geometry": {
    "type": "Point",
    "coordinates": [
     143.85316318,
     -37.55684979
    ]
   },
   "properties": {
    "name": "UNIT 3, 18 WEBSTER STREET BALLARAT CENTRAL 3350",
    "locID": "LOC000073698761",
    "tech": "FTTP",
    "upgrade": "NULL_NA",
    "gnaf_pid": "GAVIC410809432"
   }
  },
  {
   "type": "Feature",
   "geometry": {
    "type": "Point",
    "coordinates": [
     143.85159368,
     -37.55281494
    ]
   },
   "properties": {
    "name": "207 CRESWICK ROAD BALLARAT CENTRAL 3350",
    "locID": "LOC000083046139",
    "tech": "FTTP",
    "upgrade": "NULL_NA",
    "gnaf_pid": "GAVIC410809435"
   }
  },
  {
   "type": "Feature",
   "geometry": {
    "type": "Point",
    "coordinates": [
     143.85263193,
     -37.55678753
    ]
   },
   "properties": {
    "name": "UNIT 2, 22 WEBSTER STREET BALLARAT CENTRAL 3350",
    "locID": "LOC000069206984",
    "tech": "FTTP",
    "upgrade": "NULL_NA",
    "gnaf_pid": "GAVIC410809437"
   }
  },
  {
   "type": "Feature",
   "geometry": {
    "type": "Point",
    "coordinates": [
     143.84109201,
     -37.56319852
    ]
   },
   "properties": {
    "name": "111A RIPON STREET SOUTH BALLARAT CENTRAL 3350",
    "locID": "LOC000060257301",
    "tech": "FTTP",
    "upgrade": "NULL_NA",
    "gnaf_pid": "GAVIC410809451"
   }
  },
  {
   "type": "Feature",
   "geometry": {
    "type": "Point",
    "coordinates": [
     143.84019565,
     -37.56810244
    ]
   },
   "properties": {
    "name": "321 RIPON STREET SOUTH BALLARAT CENTRAL 3350",
    "locID": "LOC000016844334",
    "tech": "FTTP",
    "upgrade": "NULL_NA",
    "gnaf_pid": "GAVIC410809457"
   }
  },
  {
   "type": "Feature",
   "geometry": {
    "type": "Point",
    "coordinates": [
     143.85005263,
     -37.56865093
    ]
   },
   "properties": {
    "name": "UNIT 2, 318 LYONS STREET SOUTH BALLARAT CENTRAL 3350",
    "locID": "LOC000045985120",
    "tech": "FTTP",
    "upgrade": "NULL_NA",
    "gnaf_pid": "GAVIC410809460"
   }
  },
  {
   "type": "Feature",
   "geometry": {
    "type": "Point",
    "coordinates": [
     143.84311569,
     -37.56630498
    ]
   },
   "properties": {
    "name": "222 ASCOT STREET SOUTH BALLARAT CENTRAL 3350",
    "locID": "LOC000104687553",
    "tech": "FTTP",
    "upgrade": "NULL_NA",
    "gnaf_pid": "GAVIC410809462"
   }
  },
  {
   "type": "Feature",
   "geometry": {
    "type": "Point",
    "coordinates": [
     143.84058346,
     -37.56666271
    ]
   },
   "properties": {
    "name": "813 URQUHART STREET BALLARAT CENTRAL 3350",
    "locID": "LOC000109809176",
    "tech": "FTTP",
    "upgrade": "NULL_NA",
    "gnaf_pid": "GAVIC410809463"
   }
  },
  {
   "type": "Feature",
   "geometry": {
    "type": "Point",
    "coordinates": [
     143.84999483,
     -37.56190826
    ]
   },
   "properties": {
    "name": "UNIT 2, 8 RAGLAN STREET SOUTH BALLARAT CENTRAL 3350",
    "locID": "LOC000071962858",
    "tech": "FTTP",
    "upgrade": "NULL_NA",
    "gnaf_pid": "GAVIC410809933"
   }
  },
  {
   "type": "Feature",
   "geometry": {
    "type": "Point",
    "coordinates": [
     143.85144021,
     -37.56223785
    ]
   },
   "properties": {
    "name": "UNIT 7, 4 LYONS STREET SOUTH BALLARAT CENTRAL 3350",
    "locID": "LOC100065333857",
    "tech": "FTTP",
    "upgrade": "NULL_NA",
    "gnaf_pid": "GAVIC410809936"
   }
  },
  {
   "type": "Feature",
   "geometry": {
    "type": "Point",
    "coordinates": [
     143.84601306,
     -37.56680791
    ]
   },
   "properties": {
    "name": "UNIT 1, 222 DRUMMOND STREET SOUTH BALLARAT CENTRAL 3350",
    "locID": "LOC000073123217",
    "tech": "FTTP",
    "upgrade": "NULL_NA",
    "gnaf_pid": "GAVIC410809940"
   }
  },
  {
   "type": "Feature",
   "geometry": {
    "type": "Point",
    "coordinates": [
     143.84809658,
     -37.56685821
    ]
   },
   "properties": {
    "name": "227 ERRARD STREET SOUTH BALLARAT CENTRAL 3350",
    "locID": "LOC000028830642",
    "tech": "FTTP",
    "upgrade": "NULL_NA",
    "gnaf_pid": "GAVIC410810031"
   }
  },
  {
   "type": "Feature",
   "geometry": {
    "type": "Point",
    "coordinates": [
     143.84962717,
     -37.55161976
    ]
   },
   "properties": {
    "name": "UNIT 8, 412 DRUMMOND STREET NORTH BALLARAT CENTRAL 3350",
    "locID": "LOC000034762816",
    "tech": "FTTP",
    "upgrade": "NULL_NA",
    "gnaf_pid": "GAVIC410810061"
   }
  },
  {
   "type": "Feature",
   "geometry": {
    "type": "Point",
    "coordinates": [
     143.84962717,
     -37.55161976
    ]
   },
   "properties": {
    "name": "UNIT 7, 412 DRUMMOND STREET NORTH BALLARAT CENTRAL 3350",
    "locID": "LOC000034762816",
    "tech": "FTTP",
    "upgrade": "NULL_NA",
    "gnaf_pid": "GAVIC410810067"
   }
  },
  {
   "type": "Feature",
   "geometry": {
    "type": "Point",
    "coordinates": [
     143.84934265,
     -37.55189048
    ]
   },
   "properties": {
    "name": "412A DRUMMOND STREET NORTH BALLARAT CENTRAL 3350",
    "locID": "LOC000034660554",
    "tech": "FTTP",
    "upgrade": "NULL_NA",
    "gnaf_pid": "GAVIC410810072"
   }
  },
  {
   "type": "Feature",
   "geometry": {
    "type": "Point",
    "coordinates": [
     143.8493572,
     -37.5518107
    ]
   },
   "properties": {
    "name": "412B DRUMMOND STREET NORTH BALLARAT CENTRAL 3350",
    "locID": "LOC000034453794",
    "tech": "FTTP",
    "upgrade": "NULL_NA",
    "gnaf_pid": "GAVIC410810073"
   }
  },
  {
   "type": "Feature",
   "geometry": {
    "type": "Point",
    "coordinates": [
     143.85102854,
     -37.56152495
    ]
   },
   "properties": {
    "name": "621 STURT STREET BALLARAT CENTRAL 3350",
    "locID": "LOC000080917507",
    "tech": "FTTP",
    "upgrade": "NULL_NA",
    "gnaf_pid": "GAVIC410810074"
   }
  },
  {
   "type": "Feature",
   "geometry": {
    "type": "Point",
    "coordinates": [
     143.85280998,
     -37.55892673
    ]
   },
   "properties": {
    "name": "520 MAIR STREET BALLARAT CENTRAL 3350",
    "locID": "LOC000142711944",
    "tech": "FTTP",
    "upgrade": "NULL_NA",
    "gnaf_pid": "GAVIC410810115"
   }
  },
  {
   "type": "Feature",
   "geometry": {
    "type": "Point",
    "coordinates": [
     143.85215698,
     -37.57152949
    ]
   },
   "properties": {
    "name": "425 ARMSTRONG STREET SOUTH BALLARAT CENTRAL 3350",
    "locID": "LOC000048850288",
    "tech": "FTTP",
    "upgrade": "NULL_NA",
    "gnaf_pid": "GAVIC410810133"
   }
  },
  {
   "type": "Feature",
   "geometry": {
    "type": "Point",
    "coordinates": [
     143.85310772,
     -37.55726422
    ]
   },
   "properties": {
    "name": "23A WEBSTER STREET BALLARAT CENTRAL 3350",
    "locID": "LOC000095146042",
    "tech": "FTTP",
    "upgrade": "NULL_NA",
    "gnaf_pid": "GAVIC410810171"
   }
  },
  {
   "type": "Feature",
   "geometry": {
    "type": "Point",
    "coordinates": [
     143.85310772,
     -37.55726422
    ]
   },
   "properties": {
    "name": "19 WEBSTER STREET BALLARAT CENTRAL 3350",
    "locID": "LOC000039600261",
    "tech": "FTTP",
    "upgrade": "NULL_NA",
    "gnaf_pid": "GAVIC410810187"
   }
  },
  {
   "type": "Feature",
   "geometry": {
    "type": "Point",
    "coordinates": [
     143.84620547,
     -37.56921072
    ]
   },
   "properties": {
    "name": "UNIT 2, 204 SOUTH STREET BALLARAT CENTRAL 3350",
    "locID": "LOC000029777676",
    "tech": "FTTP",
    "upgrade": "NULL_NA",
    "gnaf_pid": "GAVIC410810201"
   }
  },
  {
   "type": "Feature",
   "geometry": {
    "type": "Point",
    "coordinates": [
     143.85070192,
     -37.57325942
    ]
   },
   "properties": {
    "name": "18 FAWKNER STREET BALLARAT CENTRAL 3350",
    "locID": "LOC000124487892",
    "tech": "FTTP",
    "upgrade": "NULL_NA",
    "gnaf_pid": "GAVIC410810209"
   }
  },
  {
   "type": "Feature",
   "geometry": {
    "type": "Point",
    "coordinates": [
     143.84941531,
     -37.57121833
    ]
   },
   "properties": {
    "name": "305 SKIPTON STREET BALLARAT CENTRAL 3350",
    "locID": "LOC000058193029",
    "tech": "FTTP",
    "upgrade": "NULL_NA",
    "gnaf_pid": "GAVIC410810210"
   }
  },
  {
   "type": "Feature",
   "geometry": {
    "type": "Point",
    "coordinates": [
     143.84959876,
     -37.57257087
    ]
   },
   "properties": {
    "name": "5 HILL STREET BALLARAT CENTRAL 3350",
    "locID": "LOC000114175152",
    "tech": "FTTP",
    "upgrade": "NULL_NA",
    "gnaf_pid": "GAVIC410810211"
   }
  },
  {
   "type": "Feature",
   "geometry": {
    "type": "Point",
    "coordinates": [
     143.8418985,
     -37.55885466
    ]
   },
   "properties": {
    "name": "16 RIPON STREET NORTH BALLARAT CENTRAL 3350",
    "locID": "LOC000079115561",
    "tech": "FTTP",
    "upgrade": "NULL_NA",
    "gnaf_pid": "GAVIC410810842"
   }
  },
  {
   "type": "Feature",
   "geometry": {
    "type": "Point",
    "coordinates": [
     143.85738707,
     -37.56227834
    ]
   },
   "properties": {
    "name": "UNIT 1, 201 STURT STREET BALLARAT CENTRAL 3350",
    "locID": "LOC000042707186",
    "tech": "FTTP",
    "upgrade": "NULL_NA",
    "gnaf_pid": "GAVIC410810846"
   }
  },
  {
   "type": "Feature",
   "geometry": {
    "type": "Point",
    "coordinates": [
     143.85278561,
     -37.56704951
    ]
   },
   "properties": {
    "name": "UNIT 2, 221 DAWSON STREET SOUTH BALLARAT CENTRAL 3350",
    "locID": "LOC000029212327",
    "tech": "FTTP",
    "upgrade": "NULL_NA",
    "gnaf_pid": "GAVIC410810847"
   }
  },
  {
   "type": "Feature",
   "geometry": {
    "type": "Point",
    "coordinates": [
     143.84100357,
     -37.5586529
    ]
   },
   "properties": {
    "name": "4 SUSSEX STREET BALLARAT CENTRAL 3350",
    "locID": "LOC000034986161",
    "tech": "FTTP",
    "upgrade": "NULL_NA",
    "gnaf_pid": "GAVIC410810856"
   }
  },
  {
   "type": "Feature",
   "geometry": {
    "type": "Point",
    "coordinates": [
     143.85273289,
     -37.5574364
    ]
   },
   "properties": {
    "name": "27 WEBSTER STREET BALLARAT CENTRAL 3350",
    "locID": "LOC000067873774",
    "tech": "FTTP",
    "upgrade": "NULL_NA",
    "gnaf_pid": "GAVIC410810865"
   }
  },
  {
   "type": "Feature",
   "geometry": {
    "type": "Point",
    "coordinates": [
     143.8581387,
     -37.55849373
    ]
   },
   "properties": {
    "name": "121 LYDIARD STREET NORTH BALLARAT CENTRAL 3350",
    "locID": "LOC000008460932",
    "tech": "FTTP",
    "upgrade": "NULL_NA",
    "gnaf_pid": "GAVIC410810891"
   }
  },
  {
   "type": "Feature",
   "geometry": {
    "type": "Point",
    "coordinates": [
     143.84197048,
     -37.55846563
    ]
   },
   "properties": {
    "name": "22 RIPON STREET NORTH BALLARAT CENTRAL 3350",
    "locID": "LOC000103914995",
    "tech": "FTTP",
    "upgrade": "NULL_NA",
    "gnaf_pid": "GAVIC410810899"
   }
  },
  {
   "type": "Feature",
   "geometry": {
    "type": "Point",
    "coordinates": [
     143.84344962,
     -37.55887991
    ]
   },
   "properties": {
    "name": "18 TALBOT STREET NORTH BALLARAT CENTRAL 3350",
    "locID": "LOC000045591643",
    "tech": "FTTP",
    "upgrade": "NULL_NA",
    "gnaf_pid": "GAVIC410810904"
   }
  },
  {
   "type": "Feature",
   "geometry": {
    "type": "Point",
    "coordinates": [
     143.8443917,
     -37.5593654
    ]
   },
   "properties": {
    "name": "11 ASCOT STREET NORTH BALLARAT CENTRAL 3350",
    "locID": "LOC000015130664",
    "tech": "FTTP",
    "upgrade": "NULL_NA",
    "gnaf_pid": "GAVIC410810906"
   }
  },
  {
   "type": "Feature",
   "geometry": {
    "type": "Point",
    "coordinates": [
     143.8488106,
     -37.5629599
    ]
   },
   "properties": {
    "name": "UNIT 2, 708 DANA STREET BALLARAT CENTRAL 3350",
    "locID": "LOC000056509902",
    "tech": "FTTP",
    "upgrade": "NULL_NA",
    "gnaf_pid": "GAVIC410811193"
   }
  },
  {
   "type": "Feature",
   "geometry": {
    "type": "Point",
    "coordinates": [
     143.85666858,
     -37.56113353
    ]
   },
   "properties": {
    "name": "UNIT 2, 8A ARMSTRONG STREET NORTH BALLARAT CENTRAL 3350",
    "locID": "LOC000046825587",
    "tech": "FTTP",
    "upgrade": "NULL_NA",
    "gnaf_pid": "GAVIC410811195"
   }
  },
  {
   "type": "Feature",
   "geometry": {
    "type": "Point",
    "coordinates": [
     143.85666858,
     -37.56113353
    ]
   },
   "properties": {
    "name": "UNIT 3, 8A ARMSTRONG STREET NORTH BALLARAT CENTRAL 3350",
    "locID": "LOC000046825587",
    "tech": "FTTP",
    "upgrade": "NULL_NA",
    "gnaf_pid": "GAVIC410811196"
   }
  },
  {
   "type": "Feature",
   "geometry": {
    "type": "Point",
    "coordinates": [
     143.84855235,
     -37.556316
    ]
   },
   "properties": {
    "name": "UNIT 2, 58 WEBSTER STREET BALLARAT CENTRAL 3350",
    "locID": "LOC000102147734",
    "tech": "FTTP",
    "upgrade": "NULL_NA",
    "gnaf_pid": "GAVIC410811198"
   }
  },
  {
   "type": "Feature",
   "geometry": {
    "type": "Point",
    "coordinates": [
     143.85548474,
     -37.55965785
    ]
   },
   "properties": {
    "name": "331 MAIR STREET BALLARAT CENTRAL 3350",
    "locID": "LOC000001987852",
    "tech": "FTTP",
    "upgrade": "NULL_NA",
    "gnaf_pid": "GAVIC410811200"
   }
  },
  {
   "type": "Feature",
   "geometry": {
    "type": "Point",
    "coordinates": [
     143.85666858,
     -37.56113353
    ]
   },
   "properties": {
    "name": "UNIT 1, 8A ARMSTRONG STREET NORTH BALLARAT CENTRAL 3350",
    "locID": "LOC000046825587",
    "tech": "FTTP",
    "upgrade": "NULL_NA",
    "gnaf_pid": "GAVIC410811201"
   }
  },
  {
   "type": "Feature",
   "geometry": {
    "type": "Point",
    "coordinates": [
     143.8488034,
     -37.5601912
    ]
   },
   "properties": {
    "name": "UNIT 2, 3 ERRARD STREET NORTH BALLARAT CENTRAL 3350",
    "locID": "LOC000044710612",
    "tech": "FTTP",
    "upgrade": "NULL_NA",
    "gnaf_pid": "GAVIC410811209"
   }
  },
  {
   "type": "Feature",
   "geometry": {
    "type": "Point",
    "coordinates": [
     143.84438321,
     -37.5594116
    ]
   },
   "properties": {
    "name": "9A ASCOT STREET NORTH BALLARAT CENTRAL 3350",
    "locID": "LOC000026892250",
    "tech": "FTTP",
    "upgrade": "NULL_NA",
    "gnaf_pid": "GAVIC410811217"
   }
  },
  {
   "type": "Feature",
   "geometry": {
    "type": "Point",
    "coordinates": [
     143.84338638,
     -37.55922199
    ]
   },
   "properties": {
    "name": "12 TALBOT STREET NORTH BALLARAT CENTRAL 3350",
    "locID": "LOC000068276857",
    "tech": "FTTP",
    "upgrade": "NULL_NA",
    "gnaf_pid": "GAVIC410811793"
   }
  },
  {
   "type": "Feature",
   "geometry": {
    "type": "Point",
    "coordinates": [
     143.85176037,
     -37.56312955
    ]
   },
   "properties": {
    "name": "17 LYONS STREET SOUTH BALLARAT CENTRAL 3350",
    "locID": "LOC000107843514",
    "tech": "FTTP",
    "upgrade": "NULL_NA",
    "gnaf_pid": "GAVIC410811806"
   }
  },
  {
   "type": "Feature",
   "geometry": {
    "type": "Point",
    "coordinates": [
     143.85144021,
     -37.56223785
    ]
   },
   "properties": {
    "name": "UNIT 11, 4 LYONS STREET SOUTH BALLARAT CENTRAL 3350",
    "locID": "LOC100065333857",
    "tech": "FTTP",
    "upgrade": "NULL_NA",
    "gnaf_pid": "GAVIC410811897"
   }
  },
  {
   "type": "Feature",
   "geometry": {
    "type": "Point",
    "coordinates": [
     143.85144021,
     -37.56223785
    ]
   },
   "properties": {
    "name": "UNIT 3, 4 LYONS STREET SOUTH BALLARAT CENTRAL 3350",
    "locID": "LOC100065333857",
    "tech": "FTTP",
    "upgrade": "NULL_NA",
    "gnaf_pid": "GAVIC410811900"
   }
  },
  {
   "type": "Feature",
   "geometry": {
    "type": "Point",
    "coordinates": [
     143.8512839,
     -37.5630603
    ]
   },
   "properties": {
    "name": "UNIT 2, 20 LYONS STREET SOUTH BALLARAT CENTRAL 3350",
    "locID": "LOC000103918380",
    "tech": "FTTP",
    "upgrade": "NULL_NA",
    "gnaf_pid": "GAVIC410811902"
   }
  },
  {
   "type": "Feature",
   "geometry": {
    "type": "Point",
    "coordinates": [
     143.8496856,
     -37.5694156
    ]
   },
   "properties": {
    "name": "306 SOUTH STREET BALLARAT CENTRAL 3350",
    "locID": "LOC000027033731",
    "tech": "FTTP",
    "upgrade": "NULL_NA",
    "gnaf_pid": "GAVIC410812332"
   }
  },
  {
   "type": "Feature",
   "geometry": {
    "type": "Point",
    "coordinates": [
     143.8480642,
     -37.56922248
    ]
   },
   "properties": {
    "name": "UNIT 3, 406 SOUTH STREET BALLARAT CENTRAL 3350",
    "locID": "LOC000094998096",
    "tech": "FTTP",
    "upgrade": "NULL_NA",
    "gnaf_pid": "GAVIC410812333"
   }
  },
  {
   "type": "Feature",
   "geometry": {
    "type": "Point",
    "coordinates": [
     143.8411028,
     -37.56314001
    ]
   },
   "properties": {
    "name": "111 RIPON STREET SOUTH BALLARAT CENTRAL 3350",
    "locID": "LOC000118387811",
    "tech": "FTTP",
    "upgrade": "NULL_NA",
    "gnaf_pid": "GAVIC410812735"
   }
  },
  {
   "type": "Feature",
   "geometry": {
    "type": "Point",
    "coordinates": [
     143.85207026,
     -37.55714454
    ]
   },
   "properties": {
    "name": "UNIT 5, 37 WEBSTER STREET BALLARAT CENTRAL 3350",
    "locID": "LOC000025265610",
    "tech": "FTTP",
    "upgrade": "NULL_NA",
    "gnaf_pid": "GAVIC410812814"
   }
  },
  {
   "type": "Feature",
   "geometry": {
    "type": "Point",
    "coordinates": [
     143.8551286,
     -37.55845531
    ]
   },
   "properties": {
    "name": "121A DOVETON STREET NORTH BALLARAT CENTRAL 3350",
    "locID": "LOC000086454604",
    "tech": "FTTP",
    "upgrade": "NULL_NA",
    "gnaf_pid": "GAVIC410812816"
   }
  },
  {
   "type": "Feature",
   "geometry": {
    "type": "Point",
    "coordinates": [
     143.85863445,
     -37.5667966
    ]
   },
   "properties": {
    "name": "137A ALBERT STREET BALLARAT CENTRAL 3350",
    "locID": "LOC000048680768",
    "tech": "FTTP",
    "upgrade": "NULL_NA",
    "gnaf_pid": "GAVIC410812830"
   }
  },
  {
   "type": "Feature",
   "geometry": {
    "type": "Point",
    "coordinates": [
     143.8480642,
     -37.56922248
    ]
   },
   "properties": {
    "name": "UNIT 4, 406 SOUTH STREET BALLARAT CENTRAL 3350",
    "locID": "LOC000094584010",
    "tech": "FTTP",
    "upgrade": "NULL_NA",
    "gnaf_pid": "GAVIC410813007"
   }
  },
  {
   "type": "Feature",
   "geometry": {
    "type": "Point",
    "coordinates": [
     143.84577811,
     -37.56684085
    ]
   },
   "properties": {
    "name": "504 URQUHART STREET BALLARAT CENTRAL 3350",
    "locID": "LOC000080024413",
    "tech": "FTTP",
    "upgrade": "NULL_NA",
    "gnaf_pid": "GAVIC410813602"
   }
  },
  {
   "type": "Feature",
   "geometry": {
    "type": "Point",
    "coordinates": [
     143.84985838,
     -37.55184972
    ]
   },
   "properties": {
    "name": "UNIT 16, 412 DRUMMOND STREET NORTH BALLARAT CENTRAL 3350",
    "locID": "LOC000034762816",
    "tech": "FTTP",
    "upgrade": "NULL_NA",
    "gnaf_pid": "GAVIC410813608"
   }
  },
  {
   "type": "Feature",
   "geometry": {
    "type": "Point",
    "coordinates": [
     143.84923724,
     -37.55246846
    ]
   },
   "properties": {
    "name": "UNIT 2, 406 DRUMMOND STREET NORTH BALLARAT CENTRAL 3350",
    "locID": "LOC000040790880",
    "tech": "FTTP",
    "upgrade": "NULL_NA",
    "gnaf_pid": "GAVIC410813613"
   }
  },
  {
   "type": "Feature",
   "geometry": {
    "type": "Point",
    "coordinates": [
     143.84985838,
     -37.55184972
    ]
   },
   "properties": {
    "name": "UNIT 15, 412 DRUMMOND STREET NORTH BALLARAT CENTRAL 3350",
    "locID": "LOC000034762816",
    "tech": "FTTP",
    "upgrade": "NULL_NA",
    "gnaf_pid": "GAVIC410813615"
   }
  },
  {
   "type": "Feature",
   "geometry": {
    "type": "Point",
    "coordinates": [
     143.8512839,
     -37.5630603
    ]
   },
   "properties": {
    "name": "UNIT 7, 20 LYONS STREET SOUTH BALLARAT CENTRAL 3350",
    "locID": "LOC000103918380",
    "tech": "FTTP",
    "upgrade": "NULL_NA",
    "gnaf_pid": "GAVIC410813627"
   }
  },
  {
   "type": "Feature",
   "geometry": {
    "type": "Point",
    "coordinates": [
     143.85207026,
     -37.55714454
    ]
   },
   "properties": {
    "name": "UNIT 1, 37 WEBSTER STREET BALLARAT CENTRAL 3350",
    "locID": "LOC000025182038",
    "tech": "FTTP",
    "upgrade": "NULL_NA",
    "gnaf_pid": "GAVIC410813631"
   }
  },
  {
   "type": "Feature",
   "geometry": {
    "type": "Point",
    "coordinates": [
     143.84584578,
     -37.57100896
    ]
   },
   "properties": {
    "name": "UNIT 2, 423 DRUMMOND STREET SOUTH BALLARAT CENTRAL 3350",
    "locID": "LOC000058556544",
    "tech": "FTTP",
    "upgrade": "NULL_NA",
    "gnaf_pid": "GAVIC410813672"
   }
  },
  {
   "type": "Feature",
   "geometry": {
    "type": "Point",
    "coordinates": [
     143.84588145,
     -37.57081323
    ]
   },
   "properties": {
    "name": "419 DRUMMOND STREET SOUTH BALLARAT CENTRAL 3350",
    "locID": "LOC000026104386",
    "tech": "FTTP",
    "upgrade": "NULL_NA",
    "gnaf_pid": "GAVIC410813731"
   }
  },
  {
   "type": "Feature",
   "geometry": {
    "type": "Point",
    "coordinates": [
     143.85144021,
     -37.56223785
    ]
   },
   "properties": {
    "name": "UNIT 4, 4 LYONS STREET SOUTH BALLARAT CENTRAL 3350",
    "locID": "LOC100065333857",
    "tech": "FTTP",
    "upgrade": "NULL_NA",
    "gnaf_pid": "GAVIC410813733"
   }
  },
  {
   "type": "Feature",
   "geometry": {
    "type": "Point",
    "coordinates": [
     143.84104269,
     -37.563466
    ]
   },
   "properties": {
    "name": "115A RIPON STREET SOUTH BALLARAT CENTRAL 3350",
    "locID": "LOC000102596628",
    "tech": "FTTP",
    "upgrade": "NULL_NA",
    "gnaf_pid": "GAVIC410813773"
   }
  },
  {
   "type": "Feature",
   "geometry": {
    "type": "Point",
    "coordinates": [
     143.85005263,
     -37.56865093
    ]
   },
   "properties": {
    "name": "UNIT 3, 318 LYONS STREET SOUTH BALLARAT CENTRAL 3350",
    "locID": "LOC000045985120",
    "tech": "FTTP",
    "upgrade": "NULL_NA",
    "gnaf_pid": "GAVIC410813774"
   }
  },
  {
   "type": "Feature",
   "geometry": {
    "type": "Point",
    "coordinates": [
     143.85453365,
     -37.56617794
    ]
   },
   "properties": {
    "name": "11 EYRE STREET BALLARAT CENTRAL 3350",
    "locID": "LOC000088531210",
    "tech": "FTTP",
    "upgrade": "NULL_NA",
    "gnaf_pid": "GAVIC410814550"
   }
  },
  {
   "type": "Feature",
   "geometry": {
    "type": "Point",
    "coordinates": [
     143.84633203,
     -37.56545195
    ]
   },
   "properties": {
    "name": "UNIT 1, 204 DRUMMOND STREET SOUTH BALLARAT CENTRAL 3350",
    "locID": "LOC000056526913",
    "tech": "FTTP",
    "upgrade": "NULL_NA",
    "gnaf_pid": "GAVIC410814639"
   }
  },
  {
   "type": "Feature",
   "geometry": {
    "type": "Point",
    "coordinates": [
     143.84647213,
     -37.56469706
    ]
   },
   "properties": {
    "name": "130 DRUMMOND STREET SOUTH BALLARAT CENTRAL 3350",
    "locID": "LOC000048545241",
    "tech": "FTTP",
    "upgrade": "NULL_NA",
    "gnaf_pid": "GAVIC410814645"
   }
  },
  {
   "type": "Feature",
   "geometry": {
    "type": "Point",
    "coordinates": [
     143.8488034,
     -37.5601912
    ]
   },
   "properties": {
    "name": "UNIT 1, 3 ERRARD STREET NORTH BALLARAT CENTRAL 3350",
    "locID": "LOC000044710612",
    "tech": "FTTP",
    "upgrade": "NULL_NA",
    "gnaf_pid": "GAVIC410814646"
   }
  },
  {
   "type": "Feature",
   "geometry": {
    "type": "Point",
    "coordinates": [
     143.85144021,
     -37.56223785
    ]
   },
   "properties": {
    "name": "4A LYONS STREET SOUTH BALLARAT CENTRAL 3350",
    "locID": "LOC000060668313",
    "tech": "FTTP",
    "upgrade": "NULL_NA",
    "gnaf_pid": "GAVIC410814650"
   }
  },
  {
   "type": "Feature",
   "geometry": {
    "type": "Point",
    "coordinates": [
     143.84576154,
     -37.56514414
    ]
   },
   "properties": {
    "name": "609 EYRE STREET BALLARAT CENTRAL 3350",
    "locID": "LOC000041160738",
    "tech": "FTTP",
    "upgrade": "NULL_NA",
    "gnaf_pid": "GAVIC410814653"
   }
  },
  {
   "type": "Feature",
   "geometry": {
    "type": "Point",
    "coordinates": [
     143.8488034,
     -37.5601912
    ]
   },
   "properties": {
    "name": "UNIT 6, 3 ERRARD STREET NORTH BALLARAT CENTRAL 3350",
    "locID": "LOC000044710612",
    "tech": "FTTP",
    "upgrade": "NULL_NA",
    "gnaf_pid": "GAVIC410814664"
   }
  },
  {
   "type": "Feature",
   "geometry": {
    "type": "Point",
    "coordinates": [
     143.84601306,
     -37.56680791
    ]
   },
   "properties": {
    "name": "UNIT 5, 222 DRUMMOND STREET SOUTH BALLARAT CENTRAL 3350",
    "locID": "LOC000073123217",
    "tech": "FTTP",
    "upgrade": "NULL_NA",
    "gnaf_pid": "GAVIC410814677"
   }
  },
  {
   "type": "Feature",
   "geometry": {
    "type": "Point",
    "coordinates": [
     143.8518579,
     -37.56801255
    ]
   },
   "properties": {
    "name": "306 DAWSON STREET SOUTH BALLARAT CENTRAL 3350",
    "locID": "LOC000071671171",
    "tech": "FTTP",
    "upgrade": "NULL_NA",
    "gnaf_pid": "GAVIC410814760"
   }
  },
  {
   "type": "Feature",
   "geometry": {
    "type": "Point",
    "coordinates": [
     143.85084211,
     -37.56952395
    ]
   },
   "properties": {
    "name": "206A SOUTH STREET BALLARAT CENTRAL 3350",
    "locID": "LOC000023396594",
    "tech": "FTTP",
    "upgrade": "NULL_NA",
    "gnaf_pid": "GAVIC410814767"
   }
  },
  {
   "type": "Feature",
   "geometry": {
    "type": "Point",
    "coordinates": [
     143.84360271,
     -37.56363068
    ]
   },
   "properties": {
    "name": "102 ASCOT STREET SOUTH BALLARAT CENTRAL 3350",
    "locID": "LOC000150407811",
    "tech": "FTTB",
    "upgrade": "NULL_NA",
    "gnaf_pid": "GAVIC410814883"
   }
  },
  {
   "type": "Feature",
   "geometry": {
    "type": "Point",
    "coordinates": [
     143.85005263,
     -37.56865093
    ]
   },
   "properties": {
    "name": "UNIT 10, 318 LYONS STREET SOUTH BALLARAT CENTRAL 3350",
    "locID": "LOC000045985120",
    "tech": "FTTP",
    "upgrade": "NULL_NA",
    "gnaf_pid": "GAVIC410814899"
   }
  },
  {
   "type": "Feature",
   "geometry": {
    "type": "Point",
    "coordinates": [
     143.84962717,
     -37.55161976
    ]
   },
   "properties": {
    "name": "UNIT 9, 412 DRUMMOND STREET NORTH BALLARAT CENTRAL 3350",
    "locID": "LOC000034762816",
    "tech": "FTTP",
    "upgrade": "NULL_NA",
    "gnaf_pid": "GAVIC410815572"
   }
  },
  {
   "type": "Feature",
   "geometry": {
    "type": "Point",
    "coordinates": [
     143.8464619,
     -37.56475314
    ]
   },
   "properties": {
    "name": "132 DRUMMOND STREET SOUTH BALLARAT CENTRAL 3350",
    "locID": "LOC000103648954",
    "tech": "FTTP",
    "upgrade": "NULL_NA",
    "gnaf_pid": "GAVIC410815573"
   }
  },
  {
   "type": "Feature",
   "geometry": {
    "type": "Point",
    "coordinates": [
     143.85616927,
     -37.55973971
    ]
   },
   "properties": {
    "name": "UNIT 1, 307 MAIR STREET BALLARAT CENTRAL 3350",
    "locID": "LOC000077335637",
    "tech": "FTTP",
    "upgrade": "NULL_NA",
    "gnaf_pid": "GAVIC410815575"
   }
  },
  {
   "type": "Feature",
   "geometry": {
    "type": "Point",
    "coordinates": [
     143.85455023,
     -37.55376499
    ]
   },
   "properties": {
    "name": "4 HOLMES STREET BALLARAT CENTRAL 3350",
    "locID": "LOC000074284138",
    "tech": "FTTP",
    "upgrade": "NULL_NA",
    "gnaf_pid": "GAVIC410815584"
   }
  },
  {
   "type": "Feature",
   "geometry": {
    "type": "Point",
    "coordinates": [
     143.8512839,
     -37.5630603
    ]
   },
   "properties": {
    "name": "UNIT 3, 20 LYONS STREET SOUTH BALLARAT CENTRAL 3350",
    "locID": "LOC000103918380",
    "tech": "FTTP",
    "upgrade": "NULL_NA",
    "gnaf_pid": "GAVIC410815590"
   }
  },
  {
   "type": "Feature",
   "geometry": {
    "type": "Point",
    "coordinates": [
     143.84962717,
     -37.55161976
    ]
   },
   "properties": {
    "name": "UNIT 11, 412 DRUMMOND STREET NORTH BALLARAT CENTRAL 3350",
    "locID": "LOC000034762816",
    "tech": "FTTP",
    "upgrade": "NULL_NA",
    "gnaf_pid": "GAVIC410815598"
   }
  },
  {
   "type": "Feature",
   "geometry": {
    "type": "Point",
    "coordinates": [
     143.8408361,
     -37.55795295
    ]
   },
   "properties": {
    "name": "1309 MAIR STREET BALLARAT CENTRAL 3350",
    "locID": "LOC000096941884",
    "tech": "FTTP",
    "upgrade": "NULL_NA",
    "gnaf_pid": "GAVIC410815660"
   }
  },
  {
   "type": "Feature",
   "geometry": {
    "type": "Point",
    "coordinates": [
     143.8434702,
     -37.55876852
    ]
   },
   "properties": {
    "name": "18A TALBOT STREET NORTH BALLARAT CENTRAL 3350",
    "locID": "LOC000045427836",
    "tech": "FTTP",
    "upgrade": "NULL_NA",
    "gnaf_pid": "GAVIC410815667"
   }
  },
  {
   "type": "Feature",
   "geometry": {
    "type": "Point",
    "coordinates": [
     143.84384333,
     -37.55888361
    ]
   },
   "properties": {
    "name": "18B TALBOT STREET NORTH BALLARAT CENTRAL 3350",
    "locID": "LOC000045591643",
    "tech": "FTTP",
    "upgrade": "NULL_NA",
    "gnaf_pid": "GAVIC410815675"
   }
  },
  {
   "type": "Feature",
   "geometry": {
    "type": "Point",
    "coordinates": [
     143.84962717,
     -37.55161976
    ]
   },
   "properties": {
    "name": "UNIT 12, 412 DRUMMOND STREET NORTH BALLARAT CENTRAL 3350",
    "locID": "LOC000034762816",
    "tech": "FTTP",
    "upgrade": "NULL_NA",
    "gnaf_pid": "GAVIC410815685"
   }
  },
  {
   "type": "Feature",
   "geometry": {
    "type": "Point",
    "coordinates": [
     143.84855235,
     -37.556316
    ]
   },
   "properties": {
    "name": "UNIT 1, 58 WEBSTER STREET BALLARAT CENTRAL 3350",
    "locID": "LOC000102147734",
    "tech": "FTTP",
    "upgrade": "NULL_NA",
    "gnaf_pid": "GAVIC410815690"
   }
  },
  {
   "type": "Feature",
   "geometry": {
    "type": "Point",
    "coordinates": [
     143.84962717,
     -37.55161976
    ]
   },
   "properties": {
    "name": "UNIT 3, 412 DRUMMOND STREET NORTH BALLARAT CENTRAL 3350",
    "locID": "LOC000034762816",
    "tech": "FTTP",
    "upgrade": "NULL_NA",
    "gnaf_pid": "GAVIC410815693"
   }
  },
  {
   "type": "Feature",
   "geometry": {
    "type": "Point",
    "coordinates": [
     143.8480642,
     -37.56922248
    ]
   },
   "properties": {
    "name": "UNIT 5, 406 SOUTH STREET BALLARAT CENTRAL 3350",
    "locID": "LOC000094984913",
    "tech": "FTTP",
    "upgrade": "NULL_NA",
    "gnaf_pid": "GAVIC410815808"
   }
  },
  {
   "type": "Feature",
   "geometry": {
    "type": "Point",
    "coordinates": [
     143.85005263,
     -37.56865093
    ]
   },
   "properties": {
    "name": "UNIT 11, 318 LYONS STREET SOUTH BALLARAT CENTRAL 3350",
    "locID": "LOC000045985120",
    "tech": "FTTP",
    "upgrade": "NULL_NA",
    "gnaf_pid": "GAVIC410815819"
   }
  },
  {
   "type": "Feature",
   "geometry": {
    "type": "Point",
    "coordinates": [
     143.85616927,
     -37.55973971
    ]
   },
   "properties": {
    "name": "307 MAIR STREET BALLARAT CENTRAL 3350",
    "locID": "LOC000077335637",
    "tech": "FTTP",
    "upgrade": "NULL_NA",
    "gnaf_pid": "GAVIC410815821"
   }
  },
  {
   "type": "Feature",
   "geometry": {
    "type": "Point",
    "coordinates": [
     143.84921674,
     -37.55258086
    ]
   },
   "properties": {
    "name": "404D DRUMMOND STREET NORTH BALLARAT CENTRAL 3350",
    "locID": "LOC000054133445",
    "tech": "FTTP",
    "upgrade": "NULL_NA",
    "gnaf_pid": "GAVIC410815823"
   }
  },
  {
   "type": "Feature",
   "geometry": {
    "type": "Point",
    "coordinates": [
     143.85005263,
     -37.56865093
    ]
   },
   "properties": {
    "name": "UNIT 14, 318 LYONS STREET SOUTH BALLARAT CENTRAL 3350",
    "locID": "LOC000045985120",
    "tech": "FTTP",
    "upgrade": "NULL_NA",
    "gnaf_pid": "GAVIC410816373"
   }
  },
  {
   "type": "Feature",
   "geometry": {
    "type": "Point",
    "coordinates": [
     143.85005263,
     -37.56865093
    ]
   },
   "properties": {
    "name": "UNIT 12, 318 LYONS STREET SOUTH BALLARAT CENTRAL 3350",
    "locID": "LOC000045985120",
    "tech": "FTTP",
    "upgrade": "NULL_NA",
    "gnaf_pid": "GAVIC410816377"
   }
  },
  {
   "type": "Feature",
   "geometry": {
    "type": "Point",
    "coordinates": [
     143.84986199,
     -37.55652164
    ]
   },
   "properties": {
    "name": "46 WEBSTER STREET BALLARAT CENTRAL 3350",
    "locID": "LOC000032882155",
    "tech": "FTTP",
    "upgrade": "NULL_NA",
    "gnaf_pid": "GAVIC410816451"
   }
  },
  {
   "type": "Feature",
   "geometry": {
    "type": "Point",
    "coordinates": [
     143.837914,
     -37.568881
    ]
   },
   "properties": {
    "name": "UNIT 1, 403 PLEASANT STREET SOUTH BALLARAT CENTRAL 3350",
    "locID": "LOC000020392932",
    "tech": "FTTP",
    "upgrade": "NULL_NA",
    "gnaf_pid": "GAVIC410816521"
   }
  },
  {
   "type": "Feature",
   "geometry": {
    "type": "Point",
    "coordinates": [
     143.83757233,
     -37.5691093
    ]
   },
   "properties": {
    "name": "405A PLEASANT STREET SOUTH BALLARAT CENTRAL 3350",
    "locID": "LOC000103711309",
    "tech": "FTTP",
    "upgrade": "NULL_NA",
    "gnaf_pid": "GAVIC410816527"
   }
  },
  {
   "type": "Feature",
   "geometry": {
    "type": "Point",
    "coordinates": [
     143.85017497,
     -37.55883153
    ]
   },
   "properties": {
    "name": "49 MAIR STREET BALLARAT CENTRAL 3350",
    "locID": "LOC000008856647",
    "tech": "FTTP",
    "upgrade": "NULL_NA",
    "gnaf_pid": "GAVIC410817245"
   }
  },
  {
   "type": "Feature",
   "geometry": {
    "type": "Point",
    "coordinates": [
     143.85017497,
     -37.55883153
    ]
   },
   "properties": {
    "name": "30 MAIR STREET BALLARAT CENTRAL 3350",
    "locID": "LOC000108019842",
    "tech": "FTTP",
    "upgrade": "NULL_NA",
    "gnaf_pid": "GAVIC410817247"
   }
  },
  {
   "type": "Feature",
   "geometry": {
    "type": "Point",
    "coordinates": [
     143.83894484,
     -37.5668173
    ]
   },
   "properties": {
    "name": "UNIT 1, 302 RIPON STREET SOUTH BALLARAT CENTRAL 3350",
    "locID": "LOC000124426810",
    "tech": "FTTP",
    "upgrade": "NULL_NA",
    "gnaf_pid": "GAVIC410817263"
   }
  },
  {
   "type": "Feature",
   "geometry": {
    "type": "Point",
    "coordinates": [
     143.85005263,
     -37.56865093
    ]
   },
   "properties": {
    "name": "UNIT 16, 318 LYONS STREET SOUTH BALLARAT CENTRAL 3350",
    "locID": "LOC000045985120",
    "tech": "FTTP",
    "upgrade": "NULL_NA",
    "gnaf_pid": "GAVIC410817290"
   }
  },
  {
   "type": "Feature",
   "geometry": {
    "type": "Point",
    "coordinates": [
     143.85005263,
     -37.56865093
    ]
   },
   "properties": {
    "name": "UNIT 7, 318 LYONS STREET SOUTH BALLARAT CENTRAL 3350",
    "locID": "LOC000045985120",
    "tech": "FTTP",
    "upgrade": "NULL_NA",
    "gnaf_pid": "GAVIC410817294"
   }
  },
  {
   "type": "Feature",
   "geometry": {
    "type": "Point",
    "coordinates": [
     143.83894484,
     -37.5668173
    ]
   },
   "properties": {
    "name": "UNIT 1A, 302 RIPON STREET SOUTH BALLARAT CENTRAL 3350",
    "locID": "LOC000124426810",
    "tech": "FTTP",
    "upgrade": "NULL_NA",
    "gnaf_pid": "GAVIC410817295"
   }
  },
  {
   "type": "Feature",
   "geometry": {
    "type": "Point",
    "coordinates": [
     143.84985203,
     -37.55060344
    ]
   },
   "properties": {
    "name": "323A CRESWICK ROAD BALLARAT CENTRAL 3350",
    "locID": "LOC000087619739",
    "tech": "FTTP",
    "upgrade": "NULL_NA",
    "gnaf_pid": "GAVIC410817338"
   }
  },
  {
   "type": "Feature",
   "geometry": {
    "type": "Point",
    "coordinates": [
     143.85144021,
     -37.56223785
    ]
   },
   "properties": {
    "name": "UNIT 2, 4 LYONS STREET SOUTH BALLARAT CENTRAL 3350",
    "locID": "LOC100065333857",
    "tech": "FTTP",
    "upgrade": "NULL_NA",
    "gnaf_pid": "GAVIC410817348"
   }
  },
  {
   "type": "Feature",
   "geometry": {
    "type": "Point",
    "coordinates": [
     143.84920075,
     -37.55266843
    ]
   },
   "properties": {
    "name": "404B DRUMMOND STREET NORTH BALLARAT CENTRAL 3350",
    "locID": "LOC000054268980",
    "tech": "FTTP",
    "upgrade": "NULL_NA",
    "gnaf_pid": "GAVIC410817349"
   }
  },
  {
   "type": "Feature",
   "geometry": {
    "type": "Point",
    "coordinates": [
     143.85144021,
     -37.56223785
    ]
   },
   "properties": {
    "name": "UNIT 13, 4 LYONS STREET SOUTH BALLARAT CENTRAL 3350",
    "locID": "LOC100065333857",
    "tech": "FTTP",
    "upgrade": "NULL_NA",
    "gnaf_pid": "GAVIC410817352"
   }
  },
  {
   "type": "Feature",
   "geometry": {
    "type": "Point",
    "coordinates": [
     143.84648535,
     -37.5646248
    ]
   },
   "properties": {
    "name": "128 DRUMMOND STREET SOUTH BALLARAT CENTRAL 3350",
    "locID": "LOC000040357664",
    "tech": "FTTP",
    "upgrade": "NULL_NA",
    "gnaf_pid": "GAVIC410817353"
   }
  },
  {
   "type": "Feature",
   "geometry": {
    "type": "Point",
    "coordinates": [
     143.85316318,
     -37.55684979
    ]
   },
   "properties": {
    "name": "UNIT 2, 18 WEBSTER STREET BALLARAT CENTRAL 3350",
    "locID": "LOC000073339422",
    "tech": "FTTP",
    "upgrade": "NULL_NA",
    "gnaf_pid": "GAVIC410817367"
   }
  },
  {
   "type": "Feature",
   "geometry": {
    "type": "Point",
    "coordinates": [
     143.85005263,
     -37.56865093
    ]
   },
   "properties": {
    "name": "UNIT 6, 318 LYONS STREET SOUTH BALLARAT CENTRAL 3350",
    "locID": "LOC000045985120",
    "tech": "FTTP",
    "upgrade": "NULL_NA",
    "gnaf_pid": "GAVIC410817388"
   }
  },
  {
   "type": "Feature",
   "geometry": {
    "type": "Point",
    "coordinates": [
     143.85005263,
     -37.56865093
    ]
   },
   "properties": {
    "name": "UNIT 8, 318 LYONS STREET SOUTH BALLARAT CENTRAL 3350",
    "locID": "LOC000045985120",
    "tech": "FTTP",
    "upgrade": "NULL_NA",
    "gnaf_pid": "GAVIC410817397"
   }
  },
  {
   "type": "Feature",
   "geometry": {
    "type": "Point",
    "coordinates": [
     143.84465085,
     -37.562478
    ]
   },
   "properties": {
    "name": "1008 DANA STREET BALLARAT CENTRAL 3350",
    "locID": "LOC000101607010",
    "tech": "FTTP",
    "upgrade": "NULL_NA",
    "gnaf_pid": "GAVIC410817414"
   }
  },
  {
   "type": "Feature",
   "geometry": {
    "type": "Point",
    "coordinates": [
     143.84046298,
     -37.56131056
    ]
   },
   "properties": {
    "name": "7 CHURCH STREET BALLARAT CENTRAL 3350",
    "locID": "LOC000094764111",
    "tech": "FTTP",
    "upgrade": "NULL_NA",
    "gnaf_pid": "GAVIC410818099"
   }
  },
  {
   "type": "Feature",
   "geometry": {
    "type": "Point",
    "coordinates": [
     143.84137745,
     -37.56725844
    ]
   },
   "properties": {
    "name": "308A TALBOT STREET SOUTH BALLARAT CENTRAL 3350",
    "locID": "LOC000063482942",
    "tech": "FTTP",
    "upgrade": "NULL_NA",
    "gnaf_pid": "GAVIC410818124"
   }
  },
  {
   "type": "Feature",
   "geometry": {
    "type": "Point",
    "coordinates": [
     143.84959813,
     -37.5710529
    ]
   },
   "properties": {
    "name": "303 SKIPTON STREET BALLARAT CENTRAL 3350",
    "locID": "LOC000029406526",
    "tech": "FTTP",
    "upgrade": "NULL_NA",
    "gnaf_pid": "GAVIC410818149"
   }
  },
  {
   "type": "Feature",
   "geometry": {
    "type": "Point",
    "coordinates": [
     143.85316318,
     -37.55684979
    ]
   },
   "properties": {
    "name": "UNIT 1, 18 WEBSTER STREET BALLARAT CENTRAL 3350",
    "locID": "LOC000073425497",
    "tech": "FTTP",
    "upgrade": "NULL_NA",
    "gnaf_pid": "GAVIC410818170"
   }
  },
  {
   "type": "Feature",
   "geometry": {
    "type": "Point",
    "coordinates": [
     143.85005263,
     -37.56865093
    ]
   },
   "properties": {
    "name": "UNIT 15, 318 LYONS STREET SOUTH BALLARAT CENTRAL 3350",
    "locID": "LOC000045985120",
    "tech": "FTTP",
    "upgrade": "NULL_NA",
    "gnaf_pid": "GAVIC410818184"
   }
  },
  {
   "type": "Feature",
   "geometry": {
    "type": "Point",
    "coordinates": [
     143.85600568,
     -37.56142449
    ]
   },
   "properties": {
    "name": "UNIT 1, 306 STURT STREET BALLARAT CENTRAL 3350",
    "locID": "LOC000077865061",
    "tech": "FTTP",
    "upgrade": "NULL_NA",
    "gnaf_pid": "GAVIC410818187"
   }
  },
  {
   "type": "Feature",
   "geometry": {
    "type": "Point",
    "coordinates": [
     143.8488034,
     -37.5601912
    ]
   },
   "properties": {
    "name": "UNIT 7, 3 ERRARD STREET NORTH BALLARAT CENTRAL 3350",
    "locID": "LOC000044710612",
    "tech": "FTTP",
    "upgrade": "NULL_NA",
    "gnaf_pid": "GAVIC410818191"
   }
  },
  {
   "type": "Feature",
   "geometry": {
    "type": "Point",
    "coordinates": [
     143.84934308,
     -37.56013201
    ]
   },
   "properties": {
    "name": "6A ERRARD STREET NORTH BALLARAT CENTRAL 3350",
    "locID": "LOC000070224005",
    "tech": "FTTP",
    "upgrade": "NULL_NA",
    "gnaf_pid": "GAVIC410818203"
   }
  },
  {
   "type": "Feature",
   "geometry": {
    "type": "Point",
    "coordinates": [
     143.8596719,
     -37.56124
    ]
   },
   "properties": {
    "name": "22 CAMP STREET BALLARAT CENTRAL 3350",
    "locID": "LOC000079641596",
    "tech": "FTTP",
    "upgrade": "NULL_NA",
    "gnaf_pid": "GAVIC410818204"
   }
  },
  {
   "type": "Feature",
   "geometry": {
    "type": "Point",
    "coordinates": [
     143.84919276,
     -37.5527122
    ]
   },
   "properties": {
    "name": "404A DRUMMOND STREET NORTH BALLARAT CENTRAL 3350",
    "locID": "LOC000054368775",
    "tech": "FTTP",
    "upgrade": "NULL_NA",
    "gnaf_pid": "GAVIC410818205"
   }
  },
  {
   "type": "Feature",
   "geometry": {
    "type": "Point",
    "coordinates": [
     143.85310772,
     -37.55726422
    ]
   },
   "properties": {
    "name": "19A WEBSTER STREET BALLARAT CENTRAL 3350",
    "locID": "LOC000040382947",
    "tech": "FTTP",
    "upgrade": "NULL_NA",
    "gnaf_pid": "GAVIC410818209"
   }
  },
  {
   "type": "Feature",
   "geometry": {
    "type": "Point",
    "coordinates": [
     143.85364964,
     -37.56220293
    ]
   },
   "properties": {
    "name": "UNIT 4, 1 DAWSON STREET SOUTH BALLARAT CENTRAL 3350",
    "locID": "LOC000079344829",
    "tech": "FTTP",
    "upgrade": "NULL_NA",
    "gnaf_pid": "GAVIC410818414"
   }
  },
  {
   "type": "Feature",
   "geometry": {
    "type": "Point",
    "coordinates": [
     143.85194205,
     -37.56335073
    ]
   },
   "properties": {
    "name": "UNIT 6, 506 DANA STREET BALLARAT CENTRAL 3350",
    "locID": "LOC000038578384",
    "tech": "FTTP",
    "upgrade": "NULL_NA",
    "gnaf_pid": "GAVIC410818415"
   }
  },
  {
   "type": "Feature",
   "geometry": {
    "type": "Point",
    "coordinates": [
     143.85360405,
     -37.56219734
    ]
   },
   "properties": {
    "name": "UNIT 3, 1 DAWSON STREET SOUTH BALLARAT CENTRAL 3350",
    "locID": "LOC000079344829",
    "tech": "FTTP",
    "upgrade": "NULL_NA",
    "gnaf_pid": "GAVIC410818417"
   }
  },
  {
   "type": "Feature",
   "geometry": {
    "type": "Point",
    "coordinates": [
     143.85143096,
     -37.56580991
    ]
   },
   "properties": {
    "name": "213 EYRE STREET BALLARAT CENTRAL 3350",
    "locID": "LOC000096695184",
    "tech": "FTTP",
    "upgrade": "NULL_NA",
    "gnaf_pid": "GAVIC410818429"
   }
  },
  {
   "type": "Feature",
   "geometry": {
    "type": "Point",
    "coordinates": [
     143.85413258,
     -37.56189271
    ]
   },
   "properties": {
    "name": "409A STURT STREET BALLARAT CENTRAL 3350",
    "locID": "LOC000098312937",
    "tech": "FTTP",
    "upgrade": "NULL_NA",
    "gnaf_pid": "GAVIC410818432"
   }
  },
  {
   "type": "Feature",
   "geometry": {
    "type": "Point",
    "coordinates": [
     143.8530621,
     -37.55467995
    ]
   },
   "properties": {
    "name": "224 LYONS STREET NORTH BALLARAT CENTRAL 3350",
    "locID": "LOC000020434352",
    "tech": "FTTP",
    "upgrade": "NULL_NA",
    "gnaf_pid": "GAVIC410818453"
   }
  },
  {
   "type": "Feature",
   "geometry": {
    "type": "Point",
    "coordinates": [
     143.84985838,
     -37.55184972
    ]
   },
   "properties": {
    "name": "UNIT 14, 412 DRUMMOND STREET NORTH BALLARAT CENTRAL 3350",
    "locID": "LOC000034762816",
    "tech": "FTTP",
    "upgrade": "NULL_NA",
    "gnaf_pid": "GAVIC410818548"
   }
  },
  {
   "type": "Feature",
   "geometry": {
    "type": "Point",
    "coordinates": [
     143.85680696,
     -37.56040835
    ]
   },
   "properties": {
    "name": "32A ARMSTRONG STREET NORTH BALLARAT CENTRAL 3350",
    "locID": "LOC000066179752",
    "tech": "FTTP",
    "upgrade": "NULL_NA",
    "gnaf_pid": "GAVIC410818550"
   }
  },