{
 "type": "FeatureCollection",
 "generated": "2023-10-23T10:03:42.614417",
 "suburb": "BEAUCHAMP",
 "features": [
  {
   "type": "Feature",
   "geometry": {
    "type": "Point",
    "coordinates": [
     143.59847026,
     -35.61158888
    ]
   },
   "properties": {
    "name": "649 MYSTIC PARK-BEAUCHAMP ROAD BEAUCHAMP 3579",
    "locID": "LOC000028460644",
    "tech": "SATELLITE",
    "upgrade": "NULL_NA",
    "gnaf_pid": "GAVIC410835801"
   }
  },
  {
   "type": "Feature",
   "geometry": {
    "type": "Point",
    "coordinates": [
     143.54249894,
     -35.59292506
    ]
   },
   "properties": {
    "name": "1482 THOMPSON ROAD BEAUCHAMP 3579",
    "locID": "LOC000092845929",
    "tech": "SATELLITE",
    "upgrade": "NULL_NA",
    "gnaf_pid": "GAVIC410835802"
   }
  },
  {
   "type": "Feature",
   "geometry": {
    "type": "Point",
    "coordinates": [
     143.60158495,
     -35.5880671
    ]
   },
   "properties": {
    "name": "199 MCCANN ROAD BEAUCHAMP 3579",
    "locID": "LOC000058440413",
    "tech": "SATELLITE",
    "upgrade": "NULL_NA",
    "gnaf_pid": "GAVIC410836524"
   }
  },
  {
   "type": "Feature",
   "geometry": {
    "type": "Point",
    "coordinates": [
     143.56761976,
     -35.57537949
    ]
   },
   "properties": {
    "name": "409 JAMPOT ROAD BEAUCHAMP 3579",
    "locID": "LOC000069999445",
    "tech": "SATELLITE",
    "upgrade": "NULL_NA",
    "gnaf_pid": "GAVIC410836525"
   }
  },
  {
   "type": "Feature",
   "geometry": {
    "type": "Point",
    "coordinates": [
     143.57217184,
     -35.61255647
    ]
   },
   "properties": {
    "name": "410 MYSTIC PARK-BEAUCHAMP ROAD BEAUCHAMP 3579",
    "locID": "LOC000093721531",
    "tech": "SATELLITE",
    "upgrade": "NULL_NA",
    "gnaf_pid": "GAVIC410836526"
   }
  },
  {
   "type": "Feature",
   "geometry": {
    "type": "Point",
    "coordinates": [
     143.52754956,
     -35.63652488
    ]
   },
   "properties": {
    "name": "2098 QUAMBATOOK-SWAN HILL ROAD BEAUCHAMP 3579",
    "locID": "LOC000086390785",
    "tech": "SATELLITE",
    "upgrade": "NULL_NA",
    "gnaf_pid": "GAVIC410836527"
   }
  },
  {
   "type": "Feature",
   "geometry": {
    "type": "Point",
    "coordinates": [
     143.58665544,
     -35.581661
    ]
   },
   "properties": {
    "name": "100 STEER ROAD BEAUCHAMP 3579",
    "locID": "LOC000094143189",
    "tech": "SATELLITE",
    "upgrade": "NULL_NA",
    "gnaf_pid": "GAVIC410836528"
   }
  },
  {
   "type": "Feature",
   "geometry": {
    "type": "Point",
    "coordinates": [
     143.55322212,
     -35.61239583
    ]
   },
   "properties": {
    "name": "240 MYSTIC PARK-BEAUCHAMP ROAD BEAUCHAMP 3579",
    "locID": "LOC000017547739",
    "tech": "SATELLITE",
    "upgrade": "NULL_NA",
    "gnaf_pid": "GAVIC410836529"
   }
  },
  {
   "type": "Feature",
   "geometry": {
    "type": "Point",
    "coordinates": [
     143.53744504,
     -35.57284157
    ]
   },
   "properties": {
    "name": "1286 MYSTIC PARK-MEATIAN ROAD BEAUCHAMP 3579",
    "locID": "LOC000071203567",
    "tech": "SATELLITE",
    "upgrade": "NULL_NA",
    "gnaf_pid": "GAVIC410836530"
   }
  },
  {
   "type": "Feature",
   "geometry": {
    "type": "Point",
    "coordinates": [
     143.58895808,
     -35.63415456
    ]
   },
   "properties": {
    "name": "681 STEER ROAD BEAUCHAMP 3579",
    "locID": "LOC000063574633",
    "tech": "SATELLITE",
    "upgrade": "NULL_NA",
    "gnaf_pid": "GAVIC410836531"
   }
  },
  {
   "type": "Feature",
   "geometry": {
    "type": "Point",
    "coordinates": [
     143.63978695,
     -35.5587983
    ]
   },
   "properties": {
    "name": "150 JEWSON ROAD BEAUCHAMP 3579",
    "locID": "LOC000018482053",
    "tech": "WIRELESS",
    "upgrade": "NULL_NA",
    "gnaf_pid": "GAVIC410836532"
   }
  },
  {
   "type": "Feature",
   "geometry": {
    "type": "Point",
    "coordinates": [
     143.659688,
     -35.62191995
    ]
   },
   "properties": {
    "name": "121 LOOKOUT ROAD BEAUCHAMP 3579",
    "locID": "LOC000004369683",
    "tech": "SATELLITE",
    "upgrade": "NULL_NA",
    "gnaf_pid": "GAVIC410836534"
   }
  },
  {
   "type": "Feature",
   "geometry": {
    "type": "Point",
    "coordinates": [
     143.58675565,
     -35.62703608
    ]
   },
   "properties": {
    "name": "600 STEER ROAD BEAUCHAMP 3579",
    "locID": "LOC000095221990",
    "tech": "SATELLITE",
    "upgrade": "NULL_NA",
    "gnaf_pid": "GAVIC410836535"
   }
  },
  {
   "type": "Feature",
   "geometry": {
    "type": "Point",
    "coordinates": [
     143.63483569,
     -35.55648201
    ]
   },
   "properties": {
    "name": "105 JEWSON ROAD BEAUCHAMP 3579",
    "locID": "LOC000124892116",
    "tech": "WIRELESS",
    "upgrade": "NULL_NA",
    "gnaf_pid": "GAVIC422029616"
   }
  },
  {
   "type": "Feature",
   "geometry": {
    "type": "Point",
    "coordinates": [
     143.6245831,
     -35.60258306
    ]
   },
   "properties": {
    "name": "974 MYSTIC PARK-BEAUCHAMP ROAD BEAUCHAMP 3579",
    "locID": "LOC000037078889",
    "tech": "SATELLITE",
    "upgrade": "NULL_NA",
    "gnaf_pid": "GAVIC422175551"
   }
  },
  {
   "type": "Feature",
   "geometry": {
    "type": "Point",
    "coordinates": [
     143.60491026,
     -35.54487401
    ]
   },
   "properties": {
    "name": "171 QUARRY ROAD BEAUCHAMP 3579",
    "locID": "ChIJ03TmWn2922oRRGPkYRpmExs",
    "tech": "WIRELESS",
    "upgrade": "UNKNOWN",
    "gnaf_pid": "GAVIC422184210"
   }
  },
  {
   "type": "Feature",
   "geometry": {
    "type": "Point",
    "coordinates": [
     143.63882235,
     -35.53635752
    ]
   },
   "properties": {
    "name": "293 OLD CUMNOCK ROAD BEAUCHAMP 3579",
    "locID": "ChIJpdbLV2WW22oRlGl4jSq5mx8",
    "tech": "WIRELESS",
    "upgrade": "UNKNOWN",
    "gnaf_pid": "GAVIC422416941"
   }
  },
  {
   "type": "Feature",
   "geometry": {
    "type": "Point",
    "coordinates": [
     143.5863791,
     -35.55096071
    ]
   },
   "properties": {
    "name": "710 QUARRY ROAD BEAUCHAMP 3579",
    "locID": "ChIJV3MBt2C922oRZFudlWuYxuY",
    "tech": "SATELLITE",
    "upgrade": "UNKNOWN",
    "gnaf_pid": "GAVIC423482583"
   }
  },
  {
   "type": "Feature",
   "geometry": {
    "type": "Point",
    "coordinates": [
     143.70849278,
     -35.64354054
    ]
   },
   "properties": {
    "name": "387 BAEL BAEL-BOGA ROAD BEAUCHAMP 3579",
    "locID": "ChIJjcFJkSK_22oRw-th1J9biC8",
    "tech": "SATELLITE",
    "upgrade": "UNKNOWN",
    "gnaf_pid": "GAVIC423621077"
   }
  },
  {
   "type": "Feature",
   "geometry": {
    "type": "Point",
    "coordinates": [
     143.65479275,
     -35.68010636
    ]
   },
   "properties": {
    "name": "121 LAKE LOOKOUT ROAD BEAUCHAMP 3579",
    "locID": "LOC000004369683",
    "tech": "SATELLITE",
    "upgrade": "NULL_NA",
    "gnaf_pid": "GAVIC424029582"
   }
  },
  {
   "type": "Feature",
   "geometry": {
    "type": "Point",
    "coordinates": [
     143.59875214,
     -35.61216556
    ]
   },
   "properties": {
    "name": "651 MYSTIC PARK-BEAUCHAMP ROAD BEAUCHAMP 3579",
    "locID": "ChIJlQ-rMoy822oRM_uMUuQCV3w",
    "tech": "SATELLITE",
    "upgrade": "UNKNOWN",
    "gnaf_pid": "GAVIC424915002"
   }
  },
  {
   "type": "Feature",
   "geometry": {
    "type": "Point",
    "coordinates": [
     143.63949569,
     -35.5306202
    ]
   },
   "properties": {
    "name": "1390 OLD CUMNOCK ROAD BEAUCHAMP 3579",
    "locID": "ChIJYe3zynyW22oRYaIBrbDHKdk",
    "tech": "SATELLITE",
    "upgrade": "UNKNOWN",
    "gnaf_pid": "GAVIC425827145"
   }
  },
  {
   "type": "Feature",
   "geometry": {
    "type": "Point",
    "coordinates": [
     143.5382597,
     -35.57295413
    ]
   },
   "properties": {
    "name": "2547 QUAMBATOOK-SWAN HILL ROAD BEAUCHAMP 3579",
    "locID": "ChIJRdRYMRmj22oRd-J03n8dsM0",
    "tech": "SATELLITE",
    "upgrade": "UNKNOWN",
    "gnaf_pid": "GAVIC719117454"
   }
  },
  {
   "type": "Feature",
   "geometry": {
    "type": "Point",
    "coordinates": [
     143.59857651,
     -35.6124039
    ]
   },
   "properties": {
    "name": "650 MYSTIC PARK-BEAUCHAMP ROAD BEAUCHAMP 3579",
    "locID": "ChIJl-V4042822oRwsPlZV2ePNI",
    "tech": "SATELLITE",
    "upgrade": "UNKNOWN",
    "gnaf_pid": "GAVIC719211564"
   }
  }
 ]
}