{
 "type": "FeatureCollection",
 "generated": "2024-07-05T06:11:46.385809",
 "suburb": "BEAUCHAMP",
 "features": [
  {
   "type": "Feature",
   "geometry": {
    "type": "Point",
    "coordinates": [
     143.59847026,
     -35.61158888
    ]
   },
   "properties": {
    "name": "649 MYSTIC PARK-BEAUCHAMP ROAD BEAUCHAMP 3579",
    "locID": "LOC000028460644",
    "tech": "SATELLITE",
    "upgrade": "NULL_NA",
    "gnaf_pid": "GAVIC410835801",
    "tech_change_status": "Not Planned"
   }
  },
  {
   "type": "Feature",
   "geometry": {
    "type": "Point",
    "coordinates": [
     143.54249894,
     -35.59292506
    ]
   },
   "properties": {
    "name": "1482 THOMPSON ROAD BEAUCHAMP 3579",
    "locID": "LOC000092845929",
    "tech": "SATELLITE",
    "upgrade": "NULL_NA",
    "gnaf_pid": "GAVIC410835802",
    "tech_change_status": "Not Planned"
   }
  },
  {
   "type": "Feature",
   "geometry": {
    "type": "Point",
    "coordinates": [
     143.60158495,
     -35.5880671
    ]
   },
   "properties": {
    "name": "199 MCCANN ROAD BEAUCHAMP 3579",
    "locID": "LOC000058440413",
    "tech": "SATELLITE",
    "upgrade": "NULL_NA",
    "gnaf_pid": "GAVIC410836524",
    "tech_change_status": "Not Planned"
   }
  },
  {
   "type": "Feature",
   "geometry": {
    "type": "Point",
    "coordinates": [
     143.56761976,
     -35.57537949
    ]
   },
   "properties": {
    "name": "409 JAMPOT ROAD BEAUCHAMP 3579",
    "locID": "LOC000069999445",
    "tech": "SATELLITE",
    "upgrade": "NULL_NA",
    "gnaf_pid": "GAVIC410836525",
    "tech_change_status": "Not Planned"
   }
  },
  {
   "type": "Feature",
   "geometry": {
    "type": "Point",
    "coordinates": [
     143.57217184,
     -35.61255647
    ]
   },
   "properties": {
    "name": "410 MYSTIC PARK-BEAUCHAMP ROAD BEAUCHAMP 3579",
    "locID": "LOC000093721531",
    "tech": "SATELLITE",
    "upgrade": "NULL_NA",
    "gnaf_pid": "GAVIC410836526",
    "tech_change_status": "Not Planned"
   }
  },
  {
   "type": "Feature",
   "geometry": {
    "type": "Point",
    "coordinates": [
     143.52754956,
     -35.63652488
    ]
   },
   "properties": {
    "name": "2098 QUAMBATOOK-SWAN HILL ROAD BEAUCHAMP 3579",
    "locID": "LOC000086390785",
    "tech": "SATELLITE",
    "upgrade": "NULL_NA",
    "gnaf_pid": "GAVIC410836527",
    "tech_change_status": "Not Planned"
   }
  },
  {
   "type": "Feature",
   "geometry": {
    "type": "Point",
    "coordinates": [
     143.58665544,
     -35.581661
    ]
   },
   "properties": {
    "name": "100 STEER ROAD BEAUCHAMP 3579",
    "locID": "LOC000094143189",
    "tech": "SATELLITE",
    "upgrade": "NULL_NA",
    "gnaf_pid": "GAVIC410836528",
    "tech_change_status": "Not Planned"
   }
  },
  {
   "type": "Feature",
   "geometry": {
    "type": "Point",
    "coordinates": [
     143.55322212,
     -35.61239583
    ]
   },
   "properties": {
    "name": "240 MYSTIC PARK-BEAUCHAMP ROAD BEAUCHAMP 3579",
    "locID": "LOC000017547739",
    "tech": "SATELLITE",
    "upgrade": "NULL_NA",
    "gnaf_pid": "GAVIC410836529",
    "tech_change_status": "Not Planned"
   }
  },
  {
   "type": "Feature",
   "geometry": {
    "type": "Point",
    "coordinates": [
     143.53744504,
     -35.57284157
    ]
   },
   "properties": {
    "name": "1286 MYSTIC PARK-MEATIAN ROAD BEAUCHAMP 3579",
    "locID": "LOC000071203567",
    "tech": "SATELLITE",
    "upgrade": "NULL_NA",
    "gnaf_pid": "GAVIC410836530",
    "tech_change_status": "Not Planned"
   }
  },
  {
   "type": "Feature",
   "geometry": {
    "type": "Point",
    "coordinates": [
     143.58895808,
     -35.63415456
    ]
   },
   "properties": {
    "name": "681 STEER ROAD BEAUCHAMP 3579",
    "locID": "LOC000063574633",
    "tech": "SATELLITE",
    "upgrade": "NULL_NA",
    "gnaf_pid": "GAVIC410836531",
    "tech_change_status": "Not Planned"
   }
  },
  {
   "type": "Feature",
   "geometry": {
    "type": "Point",
    "coordinates": [
     143.63978695,
     -35.5587983
    ]
   },
   "properties": {
    "name": "150 JEWSON ROAD BEAUCHAMP 3579",
    "locID": "LOC000018482053",
    "tech": "WIRELESS",
    "upgrade": "NULL_NA",
    "gnaf_pid": "GAVIC410836532",
    "tech_change_status": "Not Planned",
    "program_type": "Fixed Wireless and Satellite Upgrade Program",
    "target_eligibility_quarter": "NA"
   }
  },
  {
   "type": "Feature",
   "geometry": {
    "type": "Point",
    "coordinates": [
     143.659688,
     -35.62191995
    ]
   },
   "properties": {
    "name": "121 LOOKOUT ROAD BEAUCHAMP 3579",
    "locID": "LOC000004369683",
    "tech": "SATELLITE",
    "upgrade": "NULL_NA",
    "gnaf_pid": "GAVIC410836534",
    "tech_change_status": "Not Planned"
   }
  },
  {
   "type": "Feature",
   "geometry": {
    "type": "Point",
    "coordinates": [
     143.58675565,
     -35.62703608
    ]
   },
   "properties": {
    "name": "600 STEER ROAD BEAUCHAMP 3579",
    "locID": "LOC000095221990",
    "tech": "SATELLITE",
    "upgrade": "NULL_NA",
    "gnaf_pid": "GAVIC410836535",
    "tech_change_status": "Not Planned"
   }
  },
  {
   "type": "Feature",
   "geometry": {
    "type": "Point",
    "coordinates": [
     143.63483569,
     -35.55648201
    ]
   },
   "properties": {
    "name": "105 JEWSON ROAD BEAUCHAMP 3579",
    "locID": "LOC000124892116",
    "tech": "WIRELESS",
    "upgrade": "NULL_NA",
    "gnaf_pid": "GAVIC422029616",
    "tech_change_status": "Not Planned",
    "program_type": "Fixed Wireless and Satellite Upgrade Program",
    "target_eligibility_quarter": "NA"
   }
  },
  {
   "type": "Feature",
   "geometry": {
    "type": "Point",
    "coordinates": [
     143.6245831,
     -35.60258306
    ]
   },
   "properties": {
    "name": "974 MYSTIC PARK-BEAUCHAMP ROAD BEAUCHAMP 3579",
    "locID": "LOC000037078889",
    "tech": "SATELLITE",
    "upgrade": "NULL_NA",
    "gnaf_pid": "GAVIC422175551",
    "tech_change_status": "Not Planned"
   }
  },
  {
   "type": "Feature",
   "geometry": {
    "type": "Point",
    "coordinates": [
     143.65479275,
     -35.68010636
    ]
   },
   "properties": {
    "name": "121 LAKE LOOKOUT ROAD BEAUCHAMP 3579",
    "locID": "LOC000004369683",
    "tech": "SATELLITE",
    "upgrade": "NULL_NA",
    "gnaf_pid": "GAVIC424029582",
    "tech_change_status": "Not Planned"
   }
  }
 ]
}