{
 "type": "FeatureCollection",
 "generated": "2023-09-26T10:08:54.032324",
 "suburb": "BENALLA",
 "features": [
  {
   "type": "Feature",
   "geometry": {
    "type": "Point",
    "coordinates": [
     145.9673181,
     -36.56147424
    ]
   },
   "properties": {
    "name": "UNIT 4, 6 LEDGER COURT BENALLA 3672",
    "locID": "LOC000026836266",
    "tech": "FTTC",
    "upgrade": "NULL_NA",
    "gnaf_pid": "GAVIC410849735"
   }
  },
  {
   "type": "Feature",
   "geometry": {
    "type": "Point",
    "coordinates": [
     145.96928964,
     -36.56071179
    ]
   },
   "properties": {
    "name": "103 WALLER STREET BENALLA 3672",
    "locID": "LOC000178471375",
    "tech": "FTTC",
    "upgrade": "FTTP_SA",
    "gnaf_pid": "GAVIC410850856"
   }
  },
  {
   "type": "Feature",
   "geometry": {
    "type": "Point",
    "coordinates": [
     145.96327813,
     -36.56186929
    ]
   },
   "properties": {
    "name": "18 STATESMAN DRIVE BENALLA 3672",
    "locID": "LOC000179531712",
    "tech": "FTTC",
    "upgrade": "FTTP_SA",
    "gnaf_pid": "GAVIC410850857"
   }
  },
  {
   "type": "Feature",
   "geometry": {
    "type": "Point",
    "coordinates": [
     145.9974655,
     -36.54182181
    ]
   },
   "properties": {
    "name": "35A GAY STREET BENALLA 3672",
    "locID": "ChIJvcaf8KMPJ2sRzYex9wYOE2w",
    "tech": "FTTN",
    "upgrade": "UNKNOWN",
    "gnaf_pid": "GAVIC410850907"
   }
  },
  {
   "type": "Feature",
   "geometry": {
    "type": "Point",
    "coordinates": [
     145.99839905,
     -36.54490785
    ]
   },
   "properties": {
    "name": "44 WITT STREET BENALLA 3672",
    "locID": "LOC000096886951",
    "tech": "FTTN",
    "upgrade": "NULL_NA",
    "gnaf_pid": "GAVIC410851408"
   }
  },
  {
   "type": "Feature",
   "geometry": {
    "type": "Point",
    "coordinates": [
     145.99225062,
     -36.55529263
    ]
   },
   "properties": {
    "name": "UNIT 1, 1 MOORE STREET BENALLA 3672",
    "locID": "LOC000052774713",
    "tech": "FTTC",
    "upgrade": "NULL_NA",
    "gnaf_pid": "GAVIC410851410"
   }
  },
  {
   "type": "Feature",
   "geometry": {
    "type": "Point",
    "coordinates": [
     145.9673181,
     -36.56147424
    ]
   },
   "properties": {
    "name": "UNIT 8, 6 LEDGER COURT BENALLA 3672",
    "locID": "LOC000026952564",
    "tech": "FTTC",
    "upgrade": "NULL_NA",
    "gnaf_pid": "GAVIC410851411"
   }
  },
  {
   "type": "Feature",
   "geometry": {
    "type": "Point",
    "coordinates": [
     145.9673181,
     -36.56147424
    ]
   },
   "properties": {
    "name": "UNIT 3, 6 LEDGER COURT BENALLA 3672",
    "locID": "LOC000026878860",
    "tech": "FTTC",
    "upgrade": "NULL_NA",
    "gnaf_pid": "GAVIC410851412"
   }
  },
  {
   "type": "Feature",
   "geometry": {
    "type": "Point",
    "coordinates": [
     145.9673181,
     -36.56147424
    ]
   },
   "properties": {
    "name": "UNIT 13, 6 LEDGER COURT BENALLA 3672",
    "locID": "LOC000027073355",
    "tech": "FTTC",
    "upgrade": "NULL_NA",
    "gnaf_pid": "GAVIC410851413"
   }
  },
  {
   "type": "Feature",
   "geometry": {
    "type": "Point",
    "coordinates": [
     145.9673181,
     -36.56147424
    ]
   },
   "properties": {
    "name": "UNIT 12, 6 LEDGER COURT BENALLA 3672",
    "locID": "LOC000026854163",
    "tech": "FTTC",
    "upgrade": "NULL_NA",
    "gnaf_pid": "GAVIC410851414"
   }
  },
  {
   "type": "Feature",
   "geometry": {
    "type": "Point",
    "coordinates": [
     145.98501353,
     -36.54816078
    ]
   },
   "properties": {
    "name": "29 CARRIER STREET BENALLA 3672",
    "locID": "LOC000059831826",
    "tech": "FTTC",
    "upgrade": "FTTP_SA",
    "gnaf_pid": "GAVIC410851417"
   }
  },
  {
   "type": "Feature",
   "geometry": {
    "type": "Point",
    "coordinates": [
     145.99133903,
     -36.55081656
    ]
   },
   "properties": {
    "name": "69 BARKLY STREET BENALLA 3672",
    "locID": "LOC000162488768",
    "tech": "FTTN",
    "upgrade": "NULL_NA",
    "gnaf_pid": "GAVIC410851432"
   }
  },
  {
   "type": "Feature",
   "geometry": {
    "type": "Point",
    "coordinates": [
     145.98629355,
     -36.54811434
    ]
   },
   "properties": {
    "name": "33 NIXON STREET BENALLA 3672",
    "locID": "LOC000081379952",
    "tech": "FTTC",
    "upgrade": "FTTP_SA",
    "gnaf_pid": "GAVIC410851837"
   }
  },
  {
   "type": "Feature",
   "geometry": {
    "type": "Point",
    "coordinates": [
     145.99281468,
     -36.54936466
    ]
   },
   "properties": {
    "name": "171 BRIDGE STREET EAST BENALLA 3672",
    "locID": "LOC000032712754",
    "tech": "FTTC",
    "upgrade": "FTTP_SA",
    "gnaf_pid": "GAVIC410851845"
   }
  },
  {
   "type": "Feature",
   "geometry": {
    "type": "Point",
    "coordinates": [
     145.99018455,
     -36.54614048
    ]
   },
   "properties": {
    "name": "86 BENALLA STREET BENALLA 3672",
    "locID": "LOC000095156441",
    "tech": "FTTC",
    "upgrade": "NULL_NA",
    "gnaf_pid": "GAVIC410851849"
   }
  },
  {
   "type": "Feature",
   "geometry": {
    "type": "Point",
    "coordinates": [
     145.98333101,
     -36.55097461
    ]
   },
   "properties": {
    "name": "75A NUNN STREET BENALLA 3672",
    "locID": "LOC000125043796",
    "tech": "FTTC",
    "upgrade": "FTTP_SA",
    "gnaf_pid": "GAVIC410851859"
   }
  },
  {
   "type": "Feature",
   "geometry": {
    "type": "Point",
    "coordinates": [
     145.99225062,
     -36.55529263
    ]
   },
   "properties": {
    "name": "1 MOORE STREET BENALLA 3672",
    "locID": "LOC000052774713",
    "tech": "FTTC",
    "upgrade": "NULL_NA",
    "gnaf_pid": "GAVIC410851894"
   }
  },
  {
   "type": "Feature",
   "geometry": {
    "type": "Point",
    "coordinates": [
     145.99472224,
     -36.54422266
    ]
   },
   "properties": {
    "name": "9 ETHEL STREET BENALLA 3672",
    "locID": "LOC000060086085",
    "tech": "FTTC",
    "upgrade": "FTTP_SA",
    "gnaf_pid": "GAVIC410851903"
   }
  },
  {
   "type": "Feature",
   "geometry": {
    "type": "Point",
    "coordinates": [
     145.9893447,
     -36.54672424
    ]
   },
   "properties": {
    "name": "26 BARKLY STREET BENALLA 3672",
    "locID": "LOC000012750295",
    "tech": "FTTC",
    "upgrade": "FTTP_SA",
    "gnaf_pid": "GAVIC410851909"
   }
  },
  {
   "type": "Feature",
   "geometry": {
    "type": "Point",
    "coordinates": [
     145.97588195,
     -36.5550431
    ]
   },
   "properties": {
    "name": "10 BRIDGE STREET WEST BENALLA 3672",
    "locID": "LOC000125107357",
    "tech": "FTTN",
    "upgrade": "NULL_NA",
    "gnaf_pid": "GAVIC410851917"
   }
  },
  {
   "type": "Feature",
   "geometry": {
    "type": "Point",
    "coordinates": [
     145.96864224,
     -36.5572517
    ]
   },
   "properties": {
    "name": "UNIT 2, 21 CROFTON STREET BENALLA 3672",
    "locID": "LOC000036053977",
    "tech": "FTTC",
    "upgrade": "FTTP_SA",
    "gnaf_pid": "GAVIC410852303"
   }
  },
  {
   "type": "Feature",
   "geometry": {
    "type": "Point",
    "coordinates": [
     145.99099958,
     -36.54762515
    ]
   },
   "properties": {
    "name": "20 LAVERY STREET BENALLA 3672",
    "locID": "LOC000029298007",
    "tech": "FTTC",
    "upgrade": "NULL_NA",
    "gnaf_pid": "GAVIC410852311"
   }
  },
  {
   "type": "Feature",
   "geometry": {
    "type": "Point",
    "coordinates": [
     145.9934933,
     -36.54293458
    ]
   },
   "properties": {
    "name": "4 SALISBURY STREET BENALLA 3672",
    "locID": "LOC000050048010",
    "tech": "FTTC",
    "upgrade": "FTTP_SA",
    "gnaf_pid": "GAVIC410853362"
   }
  },
  {
   "type": "Feature",
   "geometry": {
    "type": "Point",
    "coordinates": [
     145.99223575,
     -36.54495519
    ]
   },
   "properties": {
    "name": "107 MACKELLAR STREET BENALLA 3672",
    "locID": "LOC000070079698",
    "tech": "FTTC",
    "upgrade": "FTTP_SA",
    "gnaf_pid": "GAVIC410854205"
   }
  },
  {
   "type": "Feature",
   "geometry": {
    "type": "Point",
    "coordinates": [
     145.9636546,
     -36.5602704
    ]
   },
   "properties": {
    "name": "4 STATESMAN DRIVE BENALLA 3672",
    "locID": "LOC000062365439",
    "tech": "FTTC",
    "upgrade": "FTTP_SA",
    "gnaf_pid": "GAVIC410854221"
   }
  },
  {
   "type": "Feature",
   "geometry": {
    "type": "Point",
    "coordinates": [
     145.98446114,
     -36.54601333
    ]
   },
   "properties": {
    "name": "UNIT 6, 9 CARRIER STREET BENALLA 3672",
    "locID": "LOC000125060929",
    "tech": "FTTN",
    "upgrade": "NULL_NA",
    "gnaf_pid": "GAVIC410854229"
   }
  },
  {
   "type": "Feature",
   "geometry": {
    "type": "Point",
    "coordinates": [
     145.99335098,
     -36.54354876
    ]
   },
   "properties": {
    "name": "10 SALISBURY STREET BENALLA 3672",
    "locID": "LOC000059960882",
    "tech": "FTTC",
    "upgrade": "FTTP_SA",
    "gnaf_pid": "GAVIC410854262"
   }
  },
  {
   "type": "Feature",
   "geometry": {
    "type": "Point",
    "coordinates": [
     145.98870081,
     -36.54733778
    ]
   },
   "properties": {
    "name": "31 BYRNE STREET BENALLA 3672",
    "locID": "LOC000035426464",
    "tech": "FTTC",
    "upgrade": "FTTP_SA",
    "gnaf_pid": "GAVIC410854263"
   }
  },
  {
   "type": "Feature",
   "geometry": {
    "type": "Point",
    "coordinates": [
     145.98689466,
     -36.54856234
    ]
   },
   "properties": {
    "name": "UNIT 1, 55 CHURCH STREET BENALLA 3672",
    "locID": "LOC000103318650",
    "tech": "FTTC",
    "upgrade": "FTTP_SA",
    "gnaf_pid": "GAVIC410854264"
   }
  },
  {
   "type": "Feature",
   "geometry": {
    "type": "Point",
    "coordinates": [
     145.98707228,
     -36.54852058
    ]
   },
   "properties": {
    "name": "57 CHURCH STREET BENALLA 3672",
    "locID": "LOC000074310639",
    "tech": "FTTC",
    "upgrade": "NULL_NA",
    "gnaf_pid": "GAVIC410854269"
   }
  },
  {
   "type": "Feature",
   "geometry": {
    "type": "Point",
    "coordinates": [
     145.9679945,
     -36.55593249
    ]
   },
   "properties": {
    "name": "69A BRIDGE STREET WEST BENALLA 3672",
    "locID": "LOC000082268024",
    "tech": "FTTC",
    "upgrade": "FTTP_SA",
    "gnaf_pid": "GAVIC410854342"
   }
  },
  {
   "type": "Feature",
   "geometry": {
    "type": "Point",
    "coordinates": [
     145.9677027,
     -36.56435656
    ]
   },
   "properties": {
    "name": "107 COWAN STREET BENALLA 3672",
    "locID": "LOC000096886732",
    "tech": "FTTC",
    "upgrade": "FTTP_SA",
    "gnaf_pid": "GAVIC410854344"
   }
  },
  {
   "type": "Feature",
   "geometry": {
    "type": "Point",
    "coordinates": [
     145.97615738,
     -36.56908159
    ]
   },
   "properties": {
    "name": "39 GRANT DRIVE BENALLA 3672",
    "locID": "LOC000101369461",
    "tech": "WIRELESS",
    "upgrade": "NULL_NA",
    "gnaf_pid": "GAVIC410854345"
   }
  },
  {
   "type": "Feature",
   "geometry": {
    "type": "Point",
    "coordinates": [
     145.9925323,
     -36.55521814
    ]
   },
   "properties": {
    "name": "UNIT 1, 32 COSTER STREET BENALLA 3672",
    "locID": "LOC000009818712",
    "tech": "FTTC",
    "upgrade": "FTTP_SA",
    "gnaf_pid": "GAVIC410854348"
   }
  },
  {
   "type": "Feature",
   "geometry": {
    "type": "Point",
    "coordinates": [
     145.96726311,
     -36.56429444
    ]
   },
   "properties": {
    "name": "111 COWAN STREET BENALLA 3672",
    "locID": "LOC000060473733",
    "tech": "FTTC",
    "upgrade": "FTTP_SA",
    "gnaf_pid": "GAVIC410854349"
   }
  },
  {
   "type": "Feature",
   "geometry": {
    "type": "Point",
    "coordinates": [
     145.9924544,
     -36.55517449
    ]
   },
   "properties": {
    "name": "UNIT 2, 32 COSTER STREET BENALLA 3672",
    "locID": "LOC000009387770",
    "tech": "FTTC",
    "upgrade": "FTTP_SA",
    "gnaf_pid": "GAVIC410854351"
   }
  },
  {
   "type": "Feature",
   "geometry": {
    "type": "Point",
    "coordinates": [
     145.9673181,
     -36.56147424
    ]
   },
   "properties": {
    "name": "UNIT 11, 6 LEDGER COURT BENALLA 3672",
    "locID": "LOC000026815366",
    "tech": "FTTC",
    "upgrade": "NULL_NA",
    "gnaf_pid": "GAVIC410854370"
   }
  },
  {
   "type": "Feature",
   "geometry": {
    "type": "Point",
    "coordinates": [
     145.96329729,
     -36.55985415
    ]
   },
   "properties": {
    "name": "UNIT 2, 147 WALLER STREET BENALLA 3672",
    "locID": "LOC000090891432",
    "tech": "FTTC",
    "upgrade": "FTTP_SA",
    "gnaf_pid": "GAVIC410855142"
   }
  },
  {
   "type": "Feature",
   "geometry": {
    "type": "Point",
    "coordinates": [
     145.99754923,
     -36.62554416
    ]
   },
   "properties": {
    "name": "71 SAMARIA ROAD BENALLA 3672",
    "locID": "LOC000172610551",
    "tech": "FTTC",
    "upgrade": "NULL_NA",
    "gnaf_pid": "GAVIC410855144"
   }
  },
  {
   "type": "Feature",
   "geometry": {
    "type": "Point",
    "coordinates": [
     145.96233606,
     -36.56402485
    ]
   },
   "properties": {
    "name": "5 MONASH DRIVE BENALLA 3672",
    "locID": "LOC000101191457",
    "tech": "FTTC",
    "upgrade": "FTTP_SA",
    "gnaf_pid": "GAVIC410855147"
   }
  },
  {
   "type": "Feature",
   "geometry": {
    "type": "Point",
    "coordinates": [
     145.99337115,
     -36.55153189
    ]
   },
   "properties": {
    "name": "UNIT 3, 12 PERTH STREET BENALLA 3672",
    "locID": "LOC000097280358",
    "tech": "FTTN",
    "upgrade": "NULL_NA",
    "gnaf_pid": "GAVIC410855148"
   }
  },
  {
   "type": "Feature",
   "geometry": {
    "type": "Point",
    "coordinates": [
     145.99685351,
     -36.54964673
    ]
   },
   "properties": {
    "name": "6 SAMARIA ROAD BENALLA 3672",
    "locID": "LOC000041766390",
    "tech": "FTTC",
    "upgrade": "NULL_NA",
    "gnaf_pid": "GAVIC410855154"
   }
  },
  {
   "type": "Feature",
   "geometry": {
    "type": "Point",
    "coordinates": [
     145.99430456,
     -36.55047861
    ]
   },
   "properties": {
    "name": "UNIT 2, 17 CRAMMOND STREET BENALLA 3672",
    "locID": "LOC000023778240",
    "tech": "FTTN",
    "upgrade": "NULL_NA",
    "gnaf_pid": "GAVIC410855170"
   }
  },
  {
   "type": "Feature",
   "geometry": {
    "type": "Point",
    "coordinates": [
     145.99661804,
     -36.55705626
    ]
   },
   "properties": {
    "name": "73 SAMARIA ROAD BENALLA 3672",
    "locID": "LOC000190348243",
    "tech": "FTTB",
    "upgrade": "NULL_NA",
    "gnaf_pid": "GAVIC410855171"
   }
  },
  {
   "type": "Feature",
   "geometry": {
    "type": "Point",
    "coordinates": [
     145.9673181,
     -36.56147424
    ]
   },
   "properties": {
    "name": "UNIT 5, 6 LEDGER COURT BENALLA 3672",
    "locID": "LOC000026967848",
    "tech": "FTTC",
    "upgrade": "NULL_NA",
    "gnaf_pid": "GAVIC410856056"
   }
  },
  {
   "type": "Feature",
   "geometry": {
    "type": "Point",
    "coordinates": [
     145.96903582,
     -36.56455044
    ]
   },
   "properties": {
    "name": "73 COWAN STREET BENALLA 3672",
    "locID": "LOC000060297698",
    "tech": "FTTC",
    "upgrade": "FTTP_SA",
    "gnaf_pid": "GAVIC410856071"
   }
  },
  {
   "type": "Feature",
   "geometry": {
    "type": "Point",
    "coordinates": [
     145.99000495,
     -36.54704945
    ]
   },
   "properties": {
    "name": "UNIT 1, 31 BARKLY STREET BENALLA 3672",
    "locID": "LOC000020491757",
    "tech": "FTTC",
    "upgrade": "FTTP_SA",
    "gnaf_pid": "GAVIC410856192"
   }
  },
  {
   "type": "Feature",
   "geometry": {
    "type": "Point",
    "coordinates": [
     145.9930871,
     -36.5514921
    ]
   },
   "properties": {
    "name": "UNIT 3, 10 PERTH STREET BENALLA 3672",
    "locID": "LOC000075953689",
    "tech": "FTTN",
    "upgrade": "NULL_NA",
    "gnaf_pid": "GAVIC410857832"
   }
  },
  {
   "type": "Feature",
   "geometry": {
    "type": "Point",
    "coordinates": [
     145.99372895,
     -36.55309658
    ]
   },
   "properties": {
    "name": "UNIT 5, 13B MELROSE STREET BENALLA 3672",
    "locID": "LOC000102793514",
    "tech": "FTTC",
    "upgrade": "NULL_NA",
    "gnaf_pid": "GAVIC410857834"
   }
  },
  {
   "type": "Feature",
   "geometry": {
    "type": "Point",
    "coordinates": [
     145.98368609,
     -36.54930679
    ]
   },
   "properties": {
    "name": "29 CHURCH STREET BENALLA 3672",
    "locID": "LOC000081294071",
    "tech": "FTTC",
    "upgrade": "FTTP_SA",
    "gnaf_pid": "GAVIC410858750"
   }
  },
  {
   "type": "Feature",
   "geometry": {
    "type": "Point",
    "coordinates": [
     145.99031689,
     -36.5460907
    ]
   },
   "properties": {
    "name": "88 BENALLA STREET BENALLA 3672",
    "locID": "LOC000014525748",
    "tech": "FTTC",
    "upgrade": "NULL_NA",
    "gnaf_pid": "GAVIC410858799"
   }
  },
  {
   "type": "Feature",
   "geometry": {
    "type": "Point",
    "coordinates": [
     145.97276464,
     -36.55618248
    ]
   },
   "properties": {
    "name": "31 BRIDGE STREET WEST BENALLA 3672",
    "locID": "LOC000106577734",
    "tech": "FTTC",
    "upgrade": "FTTP_SA",
    "gnaf_pid": "GAVIC410859724"
   }
  },
  {
   "type": "Feature",
   "geometry": {
    "type": "Point",
    "coordinates": [
     145.97220179,
     -36.55904877
    ]
   },
   "properties": {
    "name": "12 DUNN STREET BENALLA 3672",
    "locID": "LOC000093291616",
    "tech": "FTTC",
    "upgrade": "NULL_NA",
    "gnaf_pid": "GAVIC410860645"
   }
  },
  {
   "type": "Feature",
   "geometry": {
    "type": "Point",
    "coordinates": [
     145.98268335,
     -36.5422686
    ]
   },
   "properties": {
    "name": "17 COMMERCIAL ROAD BENALLA 3672",
    "locID": "LOC000007814049",
    "tech": "FTTC",
    "upgrade": "NULL_NA",
    "gnaf_pid": "GAVIC410860649"
   }
  },
  {
   "type": "Feature",
   "geometry": {
    "type": "Point",
    "coordinates": [
     145.98616894,
     -36.54776579
    ]
   },
   "properties": {
    "name": "29 NIXON STREET BENALLA 3672",
    "locID": "LOC000096846944",
    "tech": "FTTC",
    "upgrade": "NULL_NA",
    "gnaf_pid": "GAVIC410860655"
   }
  },
  {
   "type": "Feature",
   "geometry": {
    "type": "Point",
    "coordinates": [
     145.97587876,
     -36.5616269
    ]
   },
   "properties": {
    "name": "43 WALLER STREET BENALLA 3672",
    "locID": "LOC000024214507",
    "tech": "FTTN",
    "upgrade": "NULL_NA",
    "gnaf_pid": "GAVIC410860688"
   }
  },
  {
   "type": "Feature",
   "geometry": {
    "type": "Point",
    "coordinates": [
     145.9952542,
     -36.5610994
    ]
   },
   "properties": {
    "name": "18 SHAWBROOK AVENUE BENALLA 3672",
    "locID": "LOC000091842647",
    "tech": "FTTC",
    "upgrade": "FTTP_SA",
    "gnaf_pid": "GAVIC410860689"
   }
  },
  {
   "type": "Feature",
   "geometry": {
    "type": "Point",
    "coordinates": [
     145.99131605,
     -36.55286912
    ]
   },
   "properties": {
    "name": "UNIT 2, 90 SALISBURY STREET BENALLA 3672",
    "locID": "LOC000023028708",
    "tech": "FTTC",
    "upgrade": "FTTP_SA",
    "gnaf_pid": "GAVIC410860692"
   }
  },
  {
   "type": "Feature",
   "geometry": {
    "type": "Point",
    "coordinates": [
     145.99315144,
     -36.5518149
    ]
   },
   "properties": {
    "name": "3 MEADOWS AVENUE BENALLA 3672",
    "locID": "LOC000050976404",
    "tech": "FTTC",
    "upgrade": "NULL_NA",
    "gnaf_pid": "GAVIC410860693"
   }
  },
  {
   "type": "Feature",
   "geometry": {
    "type": "Point",
    "coordinates": [
     145.98572413,
     -36.54883545
    ]
   },
   "properties": {
    "name": "UNIT 1, 45 CHURCH STREET BENALLA 3672",
    "locID": "LOC000059410311",
    "tech": "FTTC",
    "upgrade": "FTTP_SA",
    "gnaf_pid": "GAVIC410860698"
   }
  },
  {
   "type": "Feature",
   "geometry": {
    "type": "Point",
    "coordinates": [
     145.98316194,
     -36.54685083
    ]
   },
   "properties": {
    "name": "UNIT 3, 15 WALKER STREET BENALLA 3672",
    "locID": "LOC000048807461",
    "tech": "FTTN",
    "upgrade": "NULL_NA",
    "gnaf_pid": "GAVIC410860704"
   }
  },
  {
   "type": "Feature",
   "geometry": {
    "type": "Point",
    "coordinates": [
     145.98538401,
     -36.54499411
    ]
   },
   "properties": {
    "name": "UNIT 3, 1 NIXON STREET BENALLA 3672",
    "locID": "LOC000067257565",
    "tech": "FTTC",
    "upgrade": "NULL_NA",
    "gnaf_pid": "GAVIC410860705"
   }
  },
  {
   "type": "Feature",
   "geometry": {
    "type": "Point",
    "coordinates": [
     145.99586553,
     -36.54649259
    ]
   },
   "properties": {
    "name": "UNIT 5, 6 MARY STREET BENALLA 3672",
    "locID": "LOC000125052239",
    "tech": "FTTC",
    "upgrade": "NULL_NA",
    "gnaf_pid": "GAVIC410861557"
   }
  },
  {
   "type": "Feature",
   "geometry": {
    "type": "Point",
    "coordinates": [
     145.99003561,
     -36.54713649
    ]
   },
   "properties": {
    "name": "UNIT 2, 31 BARKLY STREET BENALLA 3672",
    "locID": "LOC000020256254",
    "tech": "FTTC",
    "upgrade": "FTTP_SA",
    "gnaf_pid": "GAVIC410861563"
   }
  },
  {
   "type": "Feature",
   "geometry": {
    "type": "Point",
    "coordinates": [
     145.97927559,
     -36.56271179
    ]
   },
   "properties": {
    "name": "3 MCCONNAN STREET BENALLA 3672",
    "locID": "LOC000046198584",
    "tech": "FTTN",
    "upgrade": "NULL_NA",
    "gnaf_pid": "GAVIC410861593"
   }
  },
  {
   "type": "Feature",
   "geometry": {
    "type": "Point",
    "coordinates": [
     145.98316194,
     -36.54685083
    ]
   },
   "properties": {
    "name": "UNIT 2, 15 WALKER STREET BENALLA 3672",
    "locID": "LOC000048400151",
    "tech": "FTTN",
    "upgrade": "NULL_NA",
    "gnaf_pid": "GAVIC410861660"
   }
  },
  {
   "type": "Feature",
   "geometry": {
    "type": "Point",
    "coordinates": [
     145.9925323,
     -36.55521814
    ]
   },
   "properties": {
    "name": "32 COSTER STREET BENALLA 3672",
    "locID": "LOC000009387770",
    "tech": "FTTC",
    "upgrade": "FTTP_SA",
    "gnaf_pid": "GAVIC410862365"
   }
  },
  {
   "type": "Feature",
   "geometry": {
    "type": "Point",
    "coordinates": [
     145.99099177,
     -36.55380978
    ]
   },
   "properties": {
    "name": "19 COSTER STREET BENALLA 3672",
    "locID": "LOC000071761819",
    "tech": "FTTC",
    "upgrade": "FTTP_SA",
    "gnaf_pid": "GAVIC410862370"
   }
  },
  {
   "type": "Feature",
   "geometry": {
    "type": "Point",
    "coordinates": [
     145.9930871,
     -36.5514921
    ]
   },
   "properties": {
    "name": "UNIT 4, 10 PERTH STREET BENALLA 3672",
    "locID": "LOC000076003931",
    "tech": "FTTN",
    "upgrade": "NULL_NA",
    "gnaf_pid": "GAVIC410862372"
   }
  },
  {
   "type": "Feature",
   "geometry": {
    "type": "Point",
    "coordinates": [
     145.99430456,
     -36.55047861
    ]
   },
   "properties": {
    "name": "UNIT 1, 17 CRAMMOND STREET BENALLA 3672",
    "locID": "LOC000023915257",
    "tech": "FTTN",
    "upgrade": "NULL_NA",
    "gnaf_pid": "GAVIC410862373"
   }
  },
  {
   "type": "Feature",
   "geometry": {
    "type": "Point",
    "coordinates": [
     145.99372895,
     -36.55309658
    ]
   },
   "properties": {
    "name": "UNIT 4, 13B MELROSE STREET BENALLA 3672",
    "locID": "LOC000103407097",
    "tech": "FTTC",
    "upgrade": "NULL_NA",
    "gnaf_pid": "GAVIC410862570"
   }
  },
  {
   "type": "Feature",
   "geometry": {
    "type": "Point",
    "coordinates": [
     145.9937872,
     -36.54347655
    ]
   },
   "properties": {
    "name": "5 SALISBURY STREET BENALLA 3672",
    "locID": "LOC000061699412",
    "tech": "FTTC",
    "upgrade": "FTTP_SA",
    "gnaf_pid": "GAVIC410862580"
   }
  },
  {
   "type": "Feature",
   "geometry": {
    "type": "Point",
    "coordinates": [
     145.98959505,
     -36.55093511
    ]
   },
   "properties": {
    "name": "UNIT 3, 6 REILLY AVENUE BENALLA 3672",
    "locID": "LOC000062693078",
    "tech": "FTTC",
    "upgrade": "NULL_NA",
    "gnaf_pid": "GAVIC410863277"
   }
  },
  {
   "type": "Feature",
   "geometry": {
    "type": "Point",
    "coordinates": [
     145.9815531,
     -36.5502641
    ]
   },
   "properties": {
    "name": "1 MAIR STREET BENALLA 3672",
    "locID": "LOC000063629363",
    "tech": "FTTN",
    "upgrade": "NULL_NA",
    "gnaf_pid": "GAVIC410863487"
   }
  },
  {
   "type": "Feature",
   "geometry": {
    "type": "Point",
    "coordinates": [
     145.98610184,
     -36.54173376
    ]
   },
   "properties": {
    "name": "12 HOLLOWAY STREET BENALLA 3672",
    "locID": "LOC000016757603",
    "tech": "FTTC",
    "upgrade": "FTTP_SA",
    "gnaf_pid": "GAVIC410863493"
   }
  },
  {
   "type": "Feature",
   "geometry": {
    "type": "Point",
    "coordinates": [
     145.98712965,
     -36.54801586
    ]
   },
   "properties": {
    "name": "36 SMYTHE STREET BENALLA 3672",
    "locID": "LOC000016015779",
    "tech": "FTTC",
    "upgrade": "FTTP_SA",
    "gnaf_pid": "GAVIC410864701"
   }
  },
  {
   "type": "Feature",
   "geometry": {
    "type": "Point",
    "coordinates": [
     145.97975766,
     -36.54849745
    ]
   },
   "properties": {
    "name": "UNIT 1, 3A MITCHELL STREET BENALLA 3672",
    "locID": "LOC000041572465",
    "tech": "FTTN",
    "upgrade": "NULL_NA",
    "gnaf_pid": "GAVIC410864710"
   }
  },
  {
   "type": "Feature",
   "geometry": {
    "type": "Point",
    "coordinates": [
     145.99225062,
     -36.55529263
    ]
   },
   "properties": {
    "name": "UNIT 5, 1 MOORE STREET BENALLA 3672",
    "locID": "LOC000053002381",
    "tech": "FTTC",
    "upgrade": "NULL_NA",
    "gnaf_pid": "GAVIC410864712"
   }
  },
  {
   "type": "Feature",
   "geometry": {
    "type": "Point",
    "coordinates": [
     145.98658863,
     -36.54793625
    ]
   },
   "properties": {
    "name": "UNIT 3, 31 NIXON STREET BENALLA 3672",
    "locID": "LOC000091440274",
    "tech": "FTTC",
    "upgrade": "FTTP_SA",
    "gnaf_pid": "GAVIC410864756"
   }
  },
  {
   "type": "Feature",
   "geometry": {
    "type": "Point",
    "coordinates": [
     145.9991979,
     -36.55742513
    ]
   },
   "properties": {
    "name": "28 KILFEERA ROAD BENALLA 3672",
    "locID": "LOC000017030876",
    "tech": "FTTC",
    "upgrade": "FTTP_SA",
    "gnaf_pid": "GAVIC410864758"
   }
  },
  {
   "type": "Feature",
   "geometry": {
    "type": "Point",
    "coordinates": [
     145.97663453,
     -36.55662794
    ]
   },
   "properties": {
    "name": "UNIT 2, 16 HARRISON AVENUE BENALLA 3672",
    "locID": "LOC000103239563",
    "tech": "FTTN",
    "upgrade": "NULL_NA",
    "gnaf_pid": "GAVIC410864853"
   }
  },
  {
   "type": "Feature",
   "geometry": {
    "type": "Point",
    "coordinates": [
     145.99372895,
     -36.55309658
    ]
   },
   "properties": {
    "name": "UNIT 2, 13B MELROSE STREET BENALLA 3672",
    "locID": "LOC000103330601",
    "tech": "FTTC",
    "upgrade": "NULL_NA",
    "gnaf_pid": "GAVIC410864923"
   }
  },
  {
   "type": "Feature",
   "geometry": {
    "type": "Point",
    "coordinates": [
     145.99163236,
     -36.55111401
    ]
   },
   "properties": {
    "name": "76 SALISBURY STREET BENALLA 3672",
    "locID": "LOC000047516773",
    "tech": "FTTN",
    "upgrade": "NULL_NA",
    "gnaf_pid": "GAVIC410864926"
   }
  },
  {
   "type": "Feature",
   "geometry": {
    "type": "Point",
    "coordinates": [
     145.96742271,
     -36.55640063
    ]
   },
   "properties": {
    "name": "UNIT 2, 62A CLARKE STREET BENALLA 3672",
    "locID": "LOC000081976910",
    "tech": "FTTC",
    "upgrade": "NULL_NA",
    "gnaf_pid": "GAVIC410865061"
   }
  },
  {
   "type": "Feature",
   "geometry": {
    "type": "Point",
    "coordinates": [
     145.98314991,
     -36.55047043
    ]
   },
   "properties": {
    "name": "61 NUNN STREET BENALLA 3672",
    "locID": "LOC000044549763",
    "tech": "FTTC",
    "upgrade": "FTTP_SA",
    "gnaf_pid": "GAVIC410865066"
   }
  },
  {
   "type": "Feature",
   "geometry": {
    "type": "Point",
    "coordinates": [
     145.99655275,
     -36.56006005
    ]
   },
   "properties": {
    "name": "2 PLOVER PLACE BENALLA 3672",
    "locID": "LOC000052492446",
    "tech": "FTTC",
    "upgrade": "FTTP_SA",
    "gnaf_pid": "GAVIC410865079"
   }
  },
  {
   "type": "Feature",
   "geometry": {
    "type": "Point",
    "coordinates": [
     145.98959505,
     -36.55093511
    ]
   },
   "properties": {
    "name": "UNIT 4, 6 REILLY AVENUE BENALLA 3672",
    "locID": "LOC000062329370",
    "tech": "FTTC",
    "upgrade": "NULL_NA",
    "gnaf_pid": "GAVIC410865081"
   }
  },
  {
   "type": "Feature",
   "geometry": {
    "type": "Point",
    "coordinates": [
     145.99225062,
     -36.55529263
    ]
   },
   "properties": {
    "name": "UNIT 2, 1 MOORE STREET BENALLA 3672",
    "locID": "LOC000054002789",
    "tech": "FTTC",
    "upgrade": "NULL_NA",
    "gnaf_pid": "GAVIC410865084"
   }
  },
  {
   "type": "Feature",
   "geometry": {
    "type": "Point",
    "coordinates": [
     145.96834688,
     -36.55081299
    ]
   },
   "properties": {
    "name": "UNIT 2, 45 KENT STREET BENALLA 3672",
    "locID": "LOC000097038593",
    "tech": "FTTC",
    "upgrade": "FTTP_SA",
    "gnaf_pid": "GAVIC410865087"
   }
  },
  {
   "type": "Feature",
   "geometry": {
    "type": "Point",
    "coordinates": [
     145.96556605,
     -36.56283445
    ]
   },
   "properties": {
    "name": "2 GRUBISSA COURT BENALLA 3672",
    "locID": "LOC000057104038",
    "tech": "FTTC",
    "upgrade": "FTTP_SA",
    "gnaf_pid": "GAVIC410865619"
   }
  },
  {
   "type": "Feature",
   "geometry": {
    "type": "Point",
    "coordinates": [
     145.96534503,
     -36.5628054
    ]
   },
   "properties": {
    "name": "4 GRUBISSA COURT BENALLA 3672",
    "locID": "LOC000079463605",
    "tech": "FTTC",
    "upgrade": "FTTP_SA",
    "gnaf_pid": "GAVIC410865620"
   }
  },
  {
   "type": "Feature",
   "geometry": {
    "type": "Point",
    "coordinates": [
     145.9673181,
     -36.56147424
    ]
   },
   "properties": {
    "name": "UNIT 10, 6 LEDGER COURT BENALLA 3672",
    "locID": "LOC000027160577",
    "tech": "FTTC",
    "upgrade": "NULL_NA",
    "gnaf_pid": "GAVIC410865621"
   }
  },
  {
   "type": "Feature",
   "geometry": {
    "type": "Point",
    "coordinates": [
     145.98176243,
     -36.54322363
    ]
   },
   "properties": {
    "name": "18 MAGINNESS STREET BENALLA 3672",
    "locID": "LOC000047348584",
    "tech": "FTTC",
    "upgrade": "FTTP_SA",
    "gnaf_pid": "GAVIC410865636"
   }
  },
  {
   "type": "Feature",
   "geometry": {
    "type": "Point",
    "coordinates": [
     145.96742271,
     -36.55640063
    ]
   },
   "properties": {
    "name": "UNIT 3, 62A CLARKE STREET BENALLA 3672",
    "locID": "LOC000082293327",
    "tech": "FTTC",
    "upgrade": "NULL_NA",
    "gnaf_pid": "GAVIC410865660"
   }
  },
  {
   "type": "Feature",
   "geometry": {
    "type": "Point",
    "coordinates": [
     145.97346476,
     -36.5555937
    ]
   },
   "properties": {
    "name": "UNIT 1, 26 BRIDGE STREET WEST BENALLA 3672",
    "locID": "LOC000016912142",
    "tech": "FTTN",
    "upgrade": "NULL_NA",
    "gnaf_pid": "GAVIC410865664"
   }
  },
  {
   "type": "Feature",
   "geometry": {
    "type": "Point",
    "coordinates": [
     145.9731928,
     -36.55608249
    ]
   },
   "properties": {
    "name": "27 BRIDGE STREET WEST BENALLA 3672",
    "locID": "LOC000050953730",
    "tech": "FTTC",
    "upgrade": "FTTP_SA",
    "gnaf_pid": "GAVIC410865677"
   }
  },
  {
   "type": "Feature",
   "geometry": {
    "type": "Point",
    "coordinates": [
     145.97362166,
     -36.55931696
    ]
   },
   "properties": {
    "name": "UNIT 1, 48 THOMAS STREET BENALLA 3672",
    "locID": "LOC000010245000",
    "tech": "FTTC",
    "upgrade": "NULL_NA",
    "gnaf_pid": "GAVIC410865690"
   }
  },
  {
   "type": "Feature",
   "geometry": {
    "type": "Point",
    "coordinates": [
     145.97539401,
     -36.55719739
    ]
   },
   "properties": {
    "name": "UNIT 3, 2 BENSON STREET BENALLA 3672",
    "locID": "LOC000088930326",
    "tech": "FTTC",
    "upgrade": "NULL_NA",
    "gnaf_pid": "GAVIC410865703"
   }
  },
  {
   "type": "Feature",
   "geometry": {
    "type": "Point",
    "coordinates": [
     145.97160057,
     -36.54752862
    ]
   },
   "properties": {
    "name": "UNIT 2, 3 SHADFORTH STREET BENALLA 3672",
    "locID": "LOC000033084133",
    "tech": "FTTC",
    "upgrade": "FTTP_SA",
    "gnaf_pid": "GAVIC410865718"
   }
  },
  {
   "type": "Feature",
   "geometry": {
    "type": "Point",
    "coordinates": [
     145.96902018,
     -36.54976782
    ]
   },
   "properties": {
    "name": "118 GOODWIN STREET BENALLA 3672",
    "locID": "ChIJuYugge8OJ2sRHan-cW2-n4I",
    "tech": "FTTC",
    "upgrade": "UNKNOWN",
    "gnaf_pid": "GAVIC410865719"
   }
  },
  {
   "type": "Feature",
   "geometry": {
    "type": "Point",
    "coordinates": [
     145.96215194,
     -36.54778584
    ]
   },
   "properties": {
    "name": "12 BOURKE DRIVE BENALLA 3672",
    "locID": "LOC000092817730",
    "tech": "FTTC",
    "upgrade": "FTTP_SA",
    "gnaf_pid": "GAVIC410865721"
   }
  },
  {
   "type": "Feature",
   "geometry": {
    "type": "Point",
    "coordinates": [
     145.96742271,
     -36.55640063
    ]
   },
   "properties": {
    "name": "UNIT 4, 62A CLARKE STREET BENALLA 3672",
    "locID": "LOC000082647713",
    "tech": "FTTC",
    "upgrade": "NULL_NA",
    "gnaf_pid": "GAVIC410865742"
   }
  },
  {
   "type": "Feature",
   "geometry": {
    "type": "Point",
    "coordinates": [
     145.96641691,
     -36.55777817
    ]
   },
   "properties": {
    "name": "UNIT 2, 13 LATIMER STREET BENALLA 3672",
    "locID": "LOC000030161094",
    "tech": "FTTC",
    "upgrade": "FTTP_SA",
    "gnaf_pid": "GAVIC410865770"
   }
  },
  {
   "type": "Feature",
   "geometry": {
    "type": "Point",
    "coordinates": [
     145.98522789,
     -36.54511996
    ]
   },
   "properties": {
    "name": "UNIT 2, 1 NIXON STREET BENALLA 3672",
    "locID": "LOC000067849440",
    "tech": "FTTC",
    "upgrade": "NULL_NA",
    "gnaf_pid": "GAVIC410865795"
   }
  },
  {
   "type": "Feature",
   "geometry": {
    "type": "Point",
    "coordinates": [
     145.99762371,
     -36.54604935
    ]
   },
   "properties": {
    "name": "29 WITT STREET BENALLA 3672",
    "locID": "LOC000067607741",
    "tech": "FTTN",
    "upgrade": "NULL_NA",
    "gnaf_pid": "GAVIC410865797"
   }
  },
  {
   "type": "Feature",
   "geometry": {
    "type": "Point",
    "coordinates": [
     145.96140268,
     -36.57262275
    ]
   },
   "properties": {
    "name": "198 GRANT DRIVE BENALLA 3672",
    "locID": "LOC000032594543",
    "tech": "WIRELESS",
    "upgrade": "NULL_NA",
    "gnaf_pid": "GAVIC410865810"
   }
  },
  {
   "type": "Feature",
   "geometry": {
    "type": "Point",
    "coordinates": [
     145.97634644,
     -36.56638659
    ]
   },
   "properties": {
    "name": "6A GRANT DRIVE BENALLA 3672",
    "locID": "ChIJoeJ3DdkOJ2sR_qgua-hdE14",
    "tech": "WIRELESS",
    "upgrade": "UNKNOWN",
    "gnaf_pid": "GAVIC410865814"
   }
  },
  {
   "type": "Feature",
   "geometry": {
    "type": "Point",
    "coordinates": [
     145.96674505,
     -36.5596381
    ]
   },
   "properties": {
    "name": "UNIT 2, 102 CLARKE STREET BENALLA 3672",
    "locID": "LOC000012069171",
    "tech": "FTTC",
    "upgrade": "FTTP_SA",
    "gnaf_pid": "GAVIC410865827"
   }
  },
  {
   "type": "Feature",
   "geometry": {
    "type": "Point",
    "coordinates": [
     145.9673181,
     -36.56147424
    ]
   },
   "properties": {
    "name": "UNIT 1, 6 LEDGER COURT BENALLA 3672",
    "locID": "LOC000027073355",
    "tech": "FTTC",
    "upgrade": "NULL_NA",
    "gnaf_pid": "GAVIC410866556"
   }
  },
  {
   "type": "Feature",
   "geometry": {
    "type": "Point",
    "coordinates": [
     145.98887102,
     -36.54092874
    ]
   },
   "properties": {
    "name": "18 GILLIES STREET BENALLA 3672",
    "locID": "LOC000031130161",
    "tech": "FTTN",
    "upgrade": "NULL_NA",
    "gnaf_pid": "GAVIC410866562"
   }
  },
  {
   "type": "Feature",
   "geometry": {
    "type": "Point",
    "coordinates": [
     145.96218444,
     -36.5476396
    ]
   },
   "properties": {
    "name": "10 BOURKE DRIVE BENALLA 3672",
    "locID": "LOC000007776675",
    "tech": "FTTC",
    "upgrade": "FTTP_SA",
    "gnaf_pid": "GAVIC410866564"
   }
  },
  {
   "type": "Feature",
   "geometry": {
    "type": "Point",
    "coordinates": [
     145.97306239,
     -36.55350319
    ]
   },
   "properties": {
    "name": "22 WEDGE STREET BENALLA 3672",
    "locID": "LOC000086445267",
    "tech": "FTTN",
    "upgrade": "NULL_NA",
    "gnaf_pid": "GAVIC410866567"
   }
  },
  {
   "type": "Feature",
   "geometry": {
    "type": "Point",
    "coordinates": [
     145.98053086,
     -36.56181043
    ]
   },
   "properties": {
    "name": "UNIT 1, 44 GARDEN STREET BENALLA 3672",
    "locID": "LOC000048952486",
    "tech": "FTTN",
    "upgrade": "NULL_NA",
    "gnaf_pid": "GAVIC410866608"
   }
  },
  {
   "type": "Feature",
   "geometry": {
    "type": "Point",
    "coordinates": [
     145.98528366,
     -36.54297498
    ]
   },
   "properties": {
    "name": "UNIT 2, 37A HANNAH STREET BENALLA 3672",
    "locID": "LOC000105579902",
    "tech": "FTTC",
    "upgrade": "FTTP_SA",
    "gnaf_pid": "GAVIC410866615"
   }
  },
  {
   "type": "Feature",
   "geometry": {
    "type": "Point",
    "coordinates": [
     145.98053086,
     -36.56181043
    ]
   },
   "properties": {
    "name": "UNIT 2, 44 GARDEN STREET BENALLA 3672",
    "locID": "LOC000048393603",
    "tech": "FTTN",
    "upgrade": "NULL_NA",
    "gnaf_pid": "GAVIC410866620"
   }
  },
  {
   "type": "Feature",
   "geometry": {
    "type": "Point",
    "coordinates": [
     145.97551228,
     -36.55726998
    ]
   },
   "properties": {
    "name": "UNIT 2, 2 BENSON STREET BENALLA 3672",
    "locID": "LOC000088930326",
    "tech": "FTTC",
    "upgrade": "NULL_NA",
    "gnaf_pid": "GAVIC410866720"
   }
  },
  {
   "type": "Feature",
   "geometry": {
    "type": "Point",
    "coordinates": [
     145.9930871,
     -36.5514921
    ]
   },
   "properties": {
    "name": "UNIT 2, 10 PERTH STREET BENALLA 3672",
    "locID": "LOC000076170351",
    "tech": "FTTN",
    "upgrade": "NULL_NA",
    "gnaf_pid": "GAVIC410866722"
   }
  },
  {
   "type": "Feature",
   "geometry": {
    "type": "Point",
    "coordinates": [
     145.97330178,
     -36.55784378
    ]
   },
   "properties": {
    "name": "11 EGMONT STREET BENALLA 3672",
    "locID": "LOC000059395261",
    "tech": "FTTC",
    "upgrade": "FTTP_SA",
    "gnaf_pid": "GAVIC410866727"
   }
  },
  {
   "type": "Feature",
   "geometry": {
    "type": "Point",
    "coordinates": [
     145.99099177,
     -36.55380978
    ]
   },
   "properties": {
    "name": "17A COSTER STREET BENALLA 3672",
    "locID": "LOC000089967113",
    "tech": "FTTC",
    "upgrade": "FTTP_SA",
    "gnaf_pid": "GAVIC410866733"
   }
  },
  {
   "type": "Feature",
   "geometry": {
    "type": "Point",
    "coordinates": [
     145.96742271,
     -36.55640063
    ]
   },
   "properties": {
    "name": "UNIT 1, 62A CLARKE STREET BENALLA 3672",
    "locID": "LOC000082293327",
    "tech": "FTTC",
    "upgrade": "NULL_NA",
    "gnaf_pid": "GAVIC410866744"
   }
  },
  {
   "type": "Feature",
   "geometry": {
    "type": "Point",
    "coordinates": [
     145.97220179,
     -36.55904877
    ]
   },
   "properties": {
    "name": "UNIT 3, 12 DUNN STREET BENALLA 3672",
    "locID": "LOC000093007966",
    "tech": "FTTC",
    "upgrade": "NULL_NA",
    "gnaf_pid": "GAVIC410866779"
   }
  },
  {
   "type": "Feature",
   "geometry": {
    "type": "Point",
    "coordinates": [
     145.96522285,
     -36.56192581
    ]
   },
   "properties": {
    "name": "1 KNIGHTS LANE BENALLA 3672",
    "locID": "LOC000060099526",
    "tech": "FTTC",
    "upgrade": "FTTP_SA",
    "gnaf_pid": "GAVIC410866781"
   }
  },
  {
   "type": "Feature",
   "geometry": {
    "type": "Point",
    "coordinates": [
     145.9625262,
     -36.56463746
    ]
   },
   "properties": {
    "name": "11 MONASH DRIVE BENALLA 3672",
    "locID": "LOC000075191805",
    "tech": "FTTC",
    "upgrade": "NULL_NA",
    "gnaf_pid": "GAVIC410866785"
   }
  },
  {
   "type": "Feature",
   "geometry": {
    "type": "Point",
    "coordinates": [
     145.99819716,
     -36.54583165
    ]
   },
   "properties": {
    "name": "34 WITT STREET BENALLA 3672",
    "locID": "LOC000057023121",
    "tech": "FTTN",
    "upgrade": "NULL_NA",
    "gnaf_pid": "GAVIC410866787"
   }
  },
  {
   "type": "Feature",
   "geometry": {
    "type": "Point",
    "coordinates": [
     145.96216996,
     -36.56512891
    ]
   },
   "properties": {
    "name": "16 MONASH DRIVE BENALLA 3672",
    "locID": "LOC000061797309",
    "tech": "FTTC",
    "upgrade": "FTTP_SA",
    "gnaf_pid": "GAVIC410866788"
   }
  },
  {
   "type": "Feature",
   "geometry": {
    "type": "Point",
    "coordinates": [
     145.96864543,
     -36.55737936
    ]
   },
   "properties": {
    "name": "UNIT 3, 21 CROFTON STREET BENALLA 3672",
    "locID": "LOC000035935192",
    "tech": "FTTC",
    "upgrade": "FTTP_SA",
    "gnaf_pid": "GAVIC410866789"
   }
  },
  {
   "type": "Feature",
   "geometry": {
    "type": "Point",
    "coordinates": [
     145.99420503,
     -36.5437546
    ]
   },
   "properties": {
    "name": "1 ETHEL STREET BENALLA 3672",
    "locID": "LOC000107295239",
    "tech": "FTTC",
    "upgrade": "FTTP_SA",
    "gnaf_pid": "GAVIC410866791"
   }
  },
  {
   "type": "Feature",
   "geometry": {
    "type": "Point",
    "coordinates": [
     145.9798522,
     -36.56222156
    ]
   },
   "properties": {
    "name": "7 WALLER STREET BENALLA 3672",
    "locID": "LOC000079368210",
    "tech": "FTTN",
    "upgrade": "NULL_NA",
    "gnaf_pid": "GAVIC410866801"
   }
  },
  {
   "type": "Feature",
   "geometry": {
    "type": "Point",
    "coordinates": [
     145.96980081,
     -36.55189701
    ]
   },
   "properties": {
    "name": "UNIT 1, 18 CHARLES STREET BENALLA 3672",
    "locID": "LOC000073238849",
    "tech": "FTTC",
    "upgrade": "FTTP_SA",
    "gnaf_pid": "GAVIC410866809"
   }
  },
  {
   "type": "Feature",
   "geometry": {
    "type": "Point",
    "coordinates": [
     145.98959505,
     -36.55093511
    ]
   },
   "properties": {
    "name": "UNIT 2, 6 REILLY AVENUE BENALLA 3672",
    "locID": "LOC000062693078",
    "tech": "FTTC",
    "upgrade": "NULL_NA",
    "gnaf_pid": "GAVIC410867289"
   }
  },
  {
   "type": "Feature",
   "geometry": {
    "type": "Point",
    "coordinates": [
     145.99860553,
     -36.54396306
    ]
   },
   "properties": {
    "name": "UNIT 2, 56 WITT STREET BENALLA 3672",
    "locID": "LOC000081357114",
    "tech": "FTTN",
    "upgrade": "NULL_NA",
    "gnaf_pid": "GAVIC410867292"
   }
  },
  {
   "type": "Feature",
   "geometry": {
    "type": "Point",
    "coordinates": [
     145.97884398,
     -36.56472064
    ]
   },
   "properties": {
    "name": "17 MCCONNAN STREET BENALLA 3672",
    "locID": "LOC000079914590",
    "tech": "FTTN",
    "upgrade": "NULL_NA",
    "gnaf_pid": "GAVIC410867293"
   }
  },
  {
   "type": "Feature",
   "geometry": {
    "type": "Point",
    "coordinates": [
     145.96644165,
     -36.56424479
    ]
   },
   "properties": {
    "name": "2 MORAN STREET BENALLA 3672",
    "locID": "LOC000082193977",
    "tech": "FTTC",
    "upgrade": "FTTP_SA",
    "gnaf_pid": "GAVIC410867294"
   }
  },
  {
   "type": "Feature",
   "geometry": {
    "type": "Point",
    "coordinates": [
     145.97824415,
     -36.55573011
    ]
   },
   "properties": {
    "name": "119 ARUNDEL STREET BENALLA 3672",
    "locID": "ChIJsbGfheEOJ2sR4mwMO8tecmE",
    "tech": "FTTN",
    "upgrade": "UNKNOWN",
    "gnaf_pid": "GAVIC410867301"
   }
  },
  {
   "type": "Feature",
   "geometry": {
    "type": "Point",
    "coordinates": [
     145.98213603,
     -36.55843598
    ]
   },
   "properties": {
    "name": "13 CROCKFORD STREET BENALLA 3672",
    "locID": "LOC000092691366",
    "tech": "FTTN",
    "upgrade": "NULL_NA",
    "gnaf_pid": "GAVIC410867313"
   }
  },
  {
   "type": "Feature",
   "geometry": {
    "type": "Point",
    "coordinates": [
     145.99252481,
     -36.54347125
    ]
   },
   "properties": {
    "name": "5 GORDON STREET BENALLA 3672",
    "locID": "LOC000060621835",
    "tech": "FTTC",
    "upgrade": "FTTP_SA",
    "gnaf_pid": "GAVIC410867479"
   }
  },
  {
   "type": "Feature",
   "geometry": {
    "type": "Point",
    "coordinates": [
     145.97945618,
     -36.5621595
    ]
   },
   "properties": {
    "name": "11 WALLER STREET BENALLA 3672",
    "locID": "LOC000010211838",
    "tech": "FTTN",
    "upgrade": "NULL_NA",
    "gnaf_pid": "GAVIC410867510"
   }
  },
  {
   "type": "Feature",
   "geometry": {
    "type": "Point",
    "coordinates": [
     145.97779501,
     -36.55975139
    ]
   },
   "properties": {
    "name": "38 MAUD STREET BENALLA 3672",
    "locID": "LOC000113199834",
    "tech": "FTTN",
    "upgrade": "NULL_NA",
    "gnaf_pid": "GAVIC410867512"
   }
  },
  {
   "type": "Feature",
   "geometry": {
    "type": "Point",
    "coordinates": [
     145.99860553,
     -36.54396306
    ]
   },
   "properties": {
    "name": "UNIT 1, 56 WITT STREET BENALLA 3672",
    "locID": "LOC000081140348",
    "tech": "FTTN",
    "upgrade": "NULL_NA",
    "gnaf_pid": "GAVIC410867628"
   }
  },
  {
   "type": "Feature",
   "geometry": {
    "type": "Point",
    "coordinates": [
     145.97776325,
     -36.55526931
    ]
   },
   "properties": {
    "name": "67 ARUNDEL STREET BENALLA 3672",
    "locID": "LOC000125061097",
    "tech": "FTTN",
    "upgrade": "NULL_NA",
    "gnaf_pid": "GAVIC410867631"
   }
  },
  {
   "type": "Feature",
   "geometry": {
    "type": "Point",
    "coordinates": [
     145.9673181,
     -36.56147424
    ]
   },
   "properties": {
    "name": "UNIT 6, 6 LEDGER COURT BENALLA 3672",
    "locID": "LOC000026878860",
    "tech": "FTTC",
    "upgrade": "NULL_NA",
    "gnaf_pid": "GAVIC410867632"
   }
  },
  {
   "type": "Feature",
   "geometry": {
    "type": "Point",
    "coordinates": [
     145.97330006,
     -36.55563113
    ]
   },
   "properties": {
    "name": "UNIT 3, 26 BRIDGE STREET WEST BENALLA 3672",
    "locID": "LOC000016912142",
    "tech": "FTTN",
    "upgrade": "NULL_NA",
    "gnaf_pid": "GAVIC410867638"
   }
  },
  {
   "type": "Feature",
   "geometry": {
    "type": "Point",
    "coordinates": [
     145.96291646,
     -36.54711026
    ]
   },
   "properties": {
    "name": "1 BOURKE DRIVE BENALLA 3672",
    "locID": "LOC000028821373",
    "tech": "FTTC",
    "upgrade": "FTTP_SA",
    "gnaf_pid": "GAVIC410867646"
   }
  },
  {
   "type": "Feature",
   "geometry": {
    "type": "Point",
    "coordinates": [
     145.99783938,
     -36.53098931
    ]
   },
   "properties": {
    "name": "181 RACECOURSE ROAD BENALLA 3672",
    "locID": "LOC000092731422",
    "tech": "WIRELESS",
    "upgrade": "NULL_NA",
    "gnaf_pid": "GAVIC410867647"
   }
  },
  {
   "type": "Feature",
   "geometry": {
    "type": "Point",
    "coordinates": [
     145.98528366,
     -36.54297498
    ]
   },
   "properties": {
    "name": "UNIT 1, 37A HANNAH STREET BENALLA 3672",
    "locID": "LOC000105793722",
    "tech": "FTTC",
    "upgrade": "FTTP_SA",
    "gnaf_pid": "GAVIC410867654"
   }
  },
  {
   "type": "Feature",
   "geometry": {
    "type": "Point",
    "coordinates": [
     145.98251256,
     -36.55020538
    ]
   },
   "properties": {
    "name": "52A NUNN STREET BENALLA 3672",
    "locID": "LOC000012779484",
    "tech": "FTTC",
    "upgrade": "FTTP_SA",
    "gnaf_pid": "GAVIC410867655"
   }
  },
  {
   "type": "Feature",
   "geometry": {
    "type": "Point",
    "coordinates": [
     145.9673181,
     -36.56147424
    ]
   },
   "properties": {
    "name": "UNIT 14, 6 LEDGER COURT BENALLA 3672",
    "locID": "LOC000027078526",
    "tech": "FTTC",
    "upgrade": "NULL_NA",
    "gnaf_pid": "GAVIC410867661"
   }
  },
  {
   "type": "Feature",
   "geometry": {
    "type": "Point",
    "coordinates": [
     145.9964767,
     -36.56018466
    ]
   },
   "properties": {
    "name": "4 PLOVER PLACE BENALLA 3672",
    "locID": "LOC000084451871",
    "tech": "FTTC",
    "upgrade": "FTTP_SA",
    "gnaf_pid": "GAVIC410867663"
   }
  },
  {
   "type": "Feature",
   "geometry": {
    "type": "Point",
    "coordinates": [
     145.96241513,
     -36.5625957
    ]
   },
   "properties": {
    "name": "UNIT 2, 5 EXTON CRESCENT BENALLA 3672",
    "locID": "LOC000069069265",
    "tech": "FTTC",
    "upgrade": "FTTP_SA",
    "gnaf_pid": "GAVIC410867666"
   }
  },
  {
   "type": "Feature",
   "geometry": {
    "type": "Point",
    "coordinates": [
     145.9832634,
     -36.55078645
    ]
   },
   "properties": {
    "name": "71 NUNN STREET BENALLA 3672",
    "locID": "LOC000015153560",
    "tech": "FTTC",
    "upgrade": "FTTP_SA",
    "gnaf_pid": "GAVIC410867667"
   }
  },
  {
   "type": "Feature",
   "geometry": {
    "type": "Point",
    "coordinates": [
     145.97366645,
     -36.55519464
    ]
   },
   "properties": {
    "name": "58B GOOMALIBEE STREET BENALLA 3672",
    "locID": "LOC000025998239",
    "tech": "FTTN",
    "upgrade": "NULL_NA",
    "gnaf_pid": "GAVIC410867669"
   }
  },
  {
   "type": "Feature",
   "geometry": {
    "type": "Point",
    "coordinates": [
     145.97241266,
     -36.54808434
    ]
   },
   "properties": {
    "name": "UNIT 3, 14 GOODWIN STREET BENALLA 3672",
    "locID": "LOC000001920997",
    "tech": "FTTC",
    "upgrade": "FTTP_SA",
    "gnaf_pid": "GAVIC410867671"
   }
  },
  {
   "type": "Feature",
   "geometry": {
    "type": "Point",
    "coordinates": [
     145.96790788,
     -36.55614659
    ]
   },
   "properties": {
    "name": "59 CLARKE STREET BENALLA 3672",
    "locID": "LOC000034241153",
    "tech": "FTTC",
    "upgrade": "FTTP_SA",
    "gnaf_pid": "GAVIC410867672"
   }
  },
  {
   "type": "Feature",
   "geometry": {
    "type": "Point",
    "coordinates": [
     145.96270366,
     -36.54708163
    ]
   },
   "properties": {
    "name": "3 BOURKE DRIVE BENALLA 3672",
    "locID": "LOC000075494906",
    "tech": "FTTC",
    "upgrade": "FTTP_SA",
    "gnaf_pid": "GAVIC410867673"
   }
  },
  {
   "type": "Feature",
   "geometry": {
    "type": "Point",
    "coordinates": [
     145.9681099,
     -36.55552539
    ]
   },
   "properties": {
    "name": "70 BRIDGE STREET WEST BENALLA 3672",
    "locID": "LOC000057515441",
    "tech": "FTTC",
    "upgrade": "FTTP_SA",
    "gnaf_pid": "GAVIC410867698"
   }
  },
  {
   "type": "Feature",
   "geometry": {
    "type": "Point",
    "coordinates": [
     145.98752463,
     -36.54670595
    ]
   },
   "properties": {
    "name": "64 BENALLA STREET BENALLA 3672",
    "locID": "LOC000081313199",
    "tech": "FTTC",
    "upgrade": "FTTP_SA",
    "gnaf_pid": "GAVIC410867700"
   }
  },
  {
   "type": "Feature",
   "geometry": {
    "type": "Point",
    "coordinates": [
     145.97203476,
     -36.54162209
    ]
   },
   "properties": {
    "name": "32 ARUNDEL STREET NORTH BENALLA 3672",
    "locID": "LOC000085118369",
    "tech": "FTTC",
    "upgrade": "FTTP_SA",
    "gnaf_pid": "GAVIC410867712"
   }
  },
  {
   "type": "Feature",
   "geometry": {
    "type": "Point",
    "coordinates": [
     145.95915038,
     -36.55877306
    ]
   },
   "properties": {
    "name": "26 BALLINTINE STREET BENALLA 3672",
    "locID": "LOC000016942246",
    "tech": "FTTN",
    "upgrade": "NULL_NA",
    "gnaf_pid": "GAVIC410867727"
   }
  },
  {
   "type": "Feature",
   "geometry": {
    "type": "Point",
    "coordinates": [
     145.96042885,
     -36.55784387
    ]
   },
   "properties": {
    "name": "UNIT 2, 13 NICHOLSON COURT BENALLA 3672",
    "locID": "LOC000102730510",
    "tech": "FTTN",
    "upgrade": "NULL_NA",
    "gnaf_pid": "GAVIC410867729"
   }
  },
  {
   "type": "Feature",
   "geometry": {
    "type": "Point",
    "coordinates": [
     145.9673181,
     -36.56147424
    ]
   },
   "properties": {
    "name": "UNIT 9, 6 LEDGER COURT BENALLA 3672",
    "locID": "LOC000026963590",
    "tech": "FTTC",
    "upgrade": "NULL_NA",
    "gnaf_pid": "GAVIC410868063"
   }
  },
  {
   "type": "Feature",
   "geometry": {
    "type": "Point",
    "coordinates": [
     145.98870081,
     -36.54733778
    ]
   },
   "properties": {
    "name": "31A BYRNE STREET BENALLA 3672",
    "locID": "LOC000034944961",
    "tech": "FTTC",
    "upgrade": "FTTP_SA",
    "gnaf_pid": "GAVIC410868257"
   }
  },
  {
   "type": "Feature",
   "geometry": {
    "type": "Point",
    "coordinates": [
     145.9973703,
     -36.55894369
    ]
   },
   "properties": {
    "name": "12 KURRAJONG COURT BENALLA 3672",
    "locID": "LOC000015874557",
    "tech": "FTTC",
    "upgrade": "FTTP_SA",
    "gnaf_pid": "GAVIC410868356"
   }
  },
  {
   "type": "Feature",
   "geometry": {
    "type": "Point",
    "coordinates": [
     145.98446114,
     -36.54601333
    ]
   },
   "properties": {
    "name": "UNIT 5, 9 CARRIER STREET BENALLA 3672",
    "locID": "LOC000125060917",
    "tech": "FTTN",
    "upgrade": "NULL_NA",
    "gnaf_pid": "GAVIC410868415"
   }
  },
  {
   "type": "Feature",
   "geometry": {
    "type": "Point",
    "coordinates": [
     145.98228496,
     -36.54386822
    ]
   },
   "properties": {
    "name": "10 HANNAH STREET BENALLA 3672",
    "locID": "LOC000058288238",
    "tech": "FTTC",
    "upgrade": "FTTP_SA",
    "gnaf_pid": "GAVIC410868417"
   }
  },
  {
   "type": "Feature",
   "geometry": {
    "type": "Point",
    "coordinates": [
     145.95798789,
     -36.55744073
    ]
   },
   "properties": {
    "name": "UNIT 2, 5 JENSEN COURT BENALLA 3672",
    "locID": "LOC000074237500",
    "tech": "WIRELESS",
    "upgrade": "NULL_NA",
    "gnaf_pid": "GAVIC410868431"
   }
  },
  {
   "type": "Feature",
   "geometry": {
    "type": "Point",
    "coordinates": [
     145.95798789,
     -36.55744073
    ]
   },
   "properties": {
    "name": "UNIT 5, 5 JENSEN COURT BENALLA 3672",
    "locID": "LOC000074589681",
    "tech": "SATELLITE",
    "upgrade": "NULL_NA",
    "gnaf_pid": "GAVIC410868437"
   }
  },
  {
   "type": "Feature",
   "geometry": {
    "type": "Point",
    "coordinates": [
     145.98446114,
     -36.54601333
    ]
   },
   "properties": {
    "name": "UNIT 1, 9 CARRIER STREET BENALLA 3672",
    "locID": "LOC000125060870",
    "tech": "FTTN",
    "upgrade": "NULL_NA",
    "gnaf_pid": "GAVIC410869018"
   }
  },
  {
   "type": "Feature",
   "geometry": {
    "type": "Point",
    "coordinates": [
     145.99435036,
     -36.54171104
    ]
   },
   "properties": {
    "name": "2 GAY STREET BENALLA 3672",
    "locID": "LOC000114840121",
    "tech": "FTTC",
    "upgrade": "FTTP_SA",
    "gnaf_pid": "GAVIC410869173"
   }
  },
  {
   "type": "Feature",
   "geometry": {
    "type": "Point",
    "coordinates": [
     145.96968058,
     -36.5561764
    ]
   },
   "properties": {
    "name": "55 BRIDGE STREET WEST BENALLA 3672",
    "locID": "LOC000085613082",
    "tech": "FTTC",
    "upgrade": "FTTP_SA",
    "gnaf_pid": "GAVIC410869567"
   }
  },
  {
   "type": "Feature",
   "geometry": {
    "type": "Point",
    "coordinates": [
     145.9926835,
     -36.5498422
    ]
   },
   "properties": {
    "name": "170 BRIDGE STREET EAST BENALLA 3672",
    "locID": "LOC000030207702",
    "tech": "FTTN",
    "upgrade": "NULL_NA",
    "gnaf_pid": "GAVIC410869588"
   }
  },
  {
   "type": "Feature",
   "geometry": {
    "type": "Point",
    "coordinates": [
     145.96869605,
     -36.55714465
    ]
   },
   "properties": {
    "name": "UNIT 1, 21 CROFTON STREET BENALLA 3672",
    "locID": "LOC000036031443",
    "tech": "FTTC",
    "upgrade": "FTTP_SA",
    "gnaf_pid": "GAVIC410869595"
   }
  },
  {
   "type": "Feature",
   "geometry": {
    "type": "Point",
    "coordinates": [
     145.98029113,
     -36.56228075
    ]
   },
   "properties": {
    "name": "3A WALLER STREET BENALLA 3672",
    "locID": "LOC000026091697",
    "tech": "FTTN",
    "upgrade": "NULL_NA",
    "gnaf_pid": "GAVIC410869596"
   }
  },
  {
   "type": "Feature",
   "geometry": {
    "type": "Point",
    "coordinates": [
     145.99196265,
     -36.55409505
    ]
   },
   "properties": {
    "name": "2A STEWART STREET BENALLA 3672",
    "locID": "LOC000044231124",
    "tech": "FTTC",
    "upgrade": "FTTP_SA",
    "gnaf_pid": "GAVIC410869598"
   }
  },
  {
   "type": "Feature",
   "geometry": {
    "type": "Point",
    "coordinates": [
     145.98759688,
     -36.54622435
    ]
   },
   "properties": {
    "name": "UNIT 2, 65 BENALLA STREET BENALLA 3672",
    "locID": "LOC000092348779",
    "tech": "FTTC",
    "upgrade": "FTTP_SA",
    "gnaf_pid": "GAVIC410869599"
   }
  },
  {
   "type": "Feature",
   "geometry": {
    "type": "Point",
    "coordinates": [
     145.98016383,
     -36.56226226
    ]
   },
   "properties": {
    "name": "5 WALLER STREET BENALLA 3672",
    "locID": "LOC000015244543",
    "tech": "FTTN",
    "upgrade": "NULL_NA",
    "gnaf_pid": "GAVIC410869601"
   }
  },
  {
   "type": "Feature",
   "geometry": {
    "type": "Point",
    "coordinates": [
     145.95843761,
     -36.55764305
    ]
   },
   "properties": {
    "name": "UNIT 4, 10 JENSEN COURT BENALLA 3672",
    "locID": "LOC000025297482",
    "tech": "WIRELESS",
    "upgrade": "NULL_NA",
    "gnaf_pid": "GAVIC410869618"
   }
  },
  {
   "type": "Feature",
   "geometry": {
    "type": "Point",
    "coordinates": [
     145.99252315,
     -36.55588796
    ]
   },
   "properties": {
    "name": "1 SHORT STREET BENALLA 3672",
    "locID": "LOC000029346581",
    "tech": "FTTC",
    "upgrade": "FTTP_SA",
    "gnaf_pid": "GAVIC410869856"
   }
  },
  {
   "type": "Feature",
   "geometry": {
    "type": "Point",
    "coordinates": [
     145.99433712,
     -36.5443134
    ]
   },
   "properties": {
    "name": "4 ETHEL STREET BENALLA 3672",
    "locID": "LOC000105691607",
    "tech": "FTTC",
    "upgrade": "FTTP_SA",
    "gnaf_pid": "GAVIC410869896"
   }
  },
  {
   "type": "Feature",
   "geometry": {
    "type": "Point",
    "coordinates": [
     145.97048061,
     -36.5545334
    ]
   },
   "properties": {
    "name": "43 WEDGE STREET BENALLA 3672",
    "locID": "LOC000077087621",
    "tech": "FTTC",
    "upgrade": "FTTP_SA",
    "gnaf_pid": "GAVIC410869905"
   }
  },
  {
   "type": "Feature",
   "geometry": {
    "type": "Point",
    "coordinates": [
     145.97238268,
     -36.54835803
    ]
   },
   "properties": {
    "name": "UNIT 1, 14 GOODWIN STREET BENALLA 3672",
    "locID": "LOC000001958055",
    "tech": "FTTC",
    "upgrade": "FTTP_SA",
    "gnaf_pid": "GAVIC410869909"
   }
  },
  {
   "type": "Feature",
   "geometry": {
    "type": "Point",
    "coordinates": [
     145.97160057,
     -36.54752862
    ]
   },
   "properties": {
    "name": "UNIT 1, 3 SHADFORTH STREET BENALLA 3672",
    "locID": "LOC000033084133",
    "tech": "FTTC",
    "upgrade": "FTTP_SA",
    "gnaf_pid": "GAVIC410869913"
   }
  },
  {
   "type": "Feature",
   "geometry": {
    "type": "Point",
    "coordinates": [
     145.96902018,
     -36.54976782
    ]
   },
   "properties": {
    "name": "100 GOODWIN STREET BENALLA 3672",
    "locID": "ChIJuYugge8OJ2sRcCazchsoiNg",
    "tech": "FTTC",
    "upgrade": "UNKNOWN",
    "gnaf_pid": "GAVIC410869916"
   }
  },
  {
   "type": "Feature",
   "geometry": {
    "type": "Point",
    "coordinates": [
     145.9873661,
     -36.5467432
    ]
   },
   "properties": {
    "name": "62 BENALLA STREET BENALLA 3672",
    "locID": "LOC000064296112",
    "tech": "FTTC",
    "upgrade": "FTTP_SA",
    "gnaf_pid": "GAVIC410870133"
   }
  },
  {
   "type": "Feature",
   "geometry": {
    "type": "Point",
    "coordinates": [
     145.98833267,
     -36.55143162
    ]
   },
   "properties": {
    "name": "UNIT 1, 68 SMYTHE STREET BENALLA 3672",
    "locID": "LOC000071459117",
    "tech": "FTTC",
    "upgrade": "FTTP_SA",
    "gnaf_pid": "GAVIC410870139"
   }
  },
  {
   "type": "Feature",
   "geometry": {
    "type": "Point",
    "coordinates": [
     145.98047726,
     -36.54831068
    ]
   },
   "properties": {
    "name": "8 BENALLA STREET BENALLA 3672",
    "locID": "LOC000102447738",
    "tech": "FTTN",
    "upgrade": "NULL_NA",
    "gnaf_pid": "GAVIC410870207"
   }
  },
  {
   "type": "Feature",
   "geometry": {
    "type": "Point",
    "coordinates": [
     145.98689466,
     -36.54856234
    ]
   },
   "properties": {
    "name": "UNIT 2, 55 CHURCH STREET BENALLA 3672",
    "locID": "LOC000103615585",
    "tech": "FTTC",
    "upgrade": "FTTP_SA",
    "gnaf_pid": "GAVIC410870219"
   }
  },
  {
   "type": "Feature",
   "geometry": {
    "type": "Point",
    "coordinates": [
     145.98726319,
     -36.54847569
    ]
   },
   "properties": {
    "name": "59 CHURCH STREET BENALLA 3672",
    "locID": "LOC000100171037",
    "tech": "FTTC",
    "upgrade": "FTTP_SA",
    "gnaf_pid": "GAVIC410870228"
   }
  },
  {
   "type": "Feature",
   "geometry": {
    "type": "Point",
    "coordinates": [
     145.98679442,
     -36.55075728
    ]
   },
   "properties": {
    "name": "111 BRIDGE STREET EAST BENALLA 3672",
    "locID": "LOC000093447494",
    "tech": "FTTC",
    "upgrade": "FTTP_SA",
    "gnaf_pid": "GAVIC410870229"
   }
  },
  {
   "type": "Feature",
   "geometry": {
    "type": "Point",
    "coordinates": [
     145.99345645,
     -36.5430841
    ]
   },
   "properties": {
    "name": "6 SALISBURY STREET BENALLA 3672",
    "locID": "LOC000018510255",
    "tech": "FTTC",
    "upgrade": "FTTP_SA",
    "gnaf_pid": "GAVIC410870239"
   }
  },
  {
   "type": "Feature",
   "geometry": {
    "type": "Point",
    "coordinates": [
     145.98861261,
     -36.54709041
    ]
   },
   "properties": {
    "name": "27 BYRNE STREET BENALLA 3672",
    "locID": "LOC000092150158",
    "tech": "FTTC",
    "upgrade": "FTTP_SA",
    "gnaf_pid": "GAVIC410870243"
   }
  },
  {
   "type": "Feature",
   "geometry": {
    "type": "Point",
    "coordinates": [
     145.96816096,
     -36.55595656
    ]
   },
   "properties": {
    "name": "69 BRIDGE STREET WEST BENALLA 3672",
    "locID": "LOC000082343083",
    "tech": "FTTC",
    "upgrade": "FTTP_SA",
    "gnaf_pid": "GAVIC410870244"
   }
  },
  {
   "type": "Feature",
   "geometry": {
    "type": "Point",
    "coordinates": [
     145.9882552,
     -36.55121338
    ]
   },
   "properties": {
    "name": "66 SMYTHE STREET BENALLA 3672",
    "locID": "LOC000060064946",
    "tech": "FTTC",
    "upgrade": "FTTP_SA",
    "gnaf_pid": "GAVIC410870245"
   }
  },
  {
   "type": "Feature",
   "geometry": {
    "type": "Point",
    "coordinates": [
     145.98640945,
     -36.54782369
    ]
   },
   "properties": {
    "name": "UNIT 2, 31 NIXON STREET BENALLA 3672",
    "locID": "LOC000091371535",
    "tech": "FTTC",
    "upgrade": "FTTP_SA",
    "gnaf_pid": "GAVIC410870498"
   }
  },
  {
   "type": "Feature",
   "geometry": {
    "type": "Point",
    "coordinates": [
     145.99743815,
     -36.54691141
    ]
   },
   "properties": {
    "name": "UNIT 1, 17 WITT STREET BENALLA 3672",
    "locID": "LOC000020309693",
    "tech": "FTTN",
    "upgrade": "NULL_NA",
    "gnaf_pid": "GAVIC410870499"
   }
  },
  {
   "type": "Feature",
   "geometry": {
    "type": "Point",
    "coordinates": [
     145.98360608,
     -36.54909656
    ]
   },
   "properties": {
    "name": "38 WALKER STREET BENALLA 3672",
    "locID": "LOC000077430337",
    "tech": "FTTC",
    "upgrade": "FTTP_SA",
    "gnaf_pid": "GAVIC410870500"
   }
  },
  {
   "type": "Feature",
   "geometry": {
    "type": "Point",
    "coordinates": [
     145.97346476,
     -36.5555937
    ]
   },
   "properties": {
    "name": "UNIT 2, 26 BRIDGE STREET WEST BENALLA 3672",
    "locID": "LOC000016912142",
    "tech": "FTTN",
    "upgrade": "NULL_NA",
    "gnaf_pid": "GAVIC410870516"
   }
  },
  {
   "type": "Feature",
   "geometry": {
    "type": "Point",
    "coordinates": [
     145.9716233,
     -36.54949339
    ]
   },
   "properties": {
    "name": "20A KENT STREET BENALLA 3672",
    "locID": "ChIJ2bdsIuUOJ2sRgjS5jAS4uk8",
    "tech": "FTTN",
    "upgrade": "UNKNOWN",
    "gnaf_pid": "GAVIC410870526"
   }
  },
  {
   "type": "Feature",
   "geometry": {
    "type": "Point",
    "coordinates": [
     145.98030848,
     -36.54834918
    ]
   },
   "properties": {
    "name": "6 BENALLA STREET BENALLA 3672",
    "locID": "LOC000020261101",
    "tech": "FTTN",
    "upgrade": "NULL_NA",
    "gnaf_pid": "GAVIC410870914"
   }
  },
  {
   "type": "Feature",
   "geometry": {
    "type": "Point",
    "coordinates": [
     145.99246394,
     -36.54379068
    ]
   },
   "properties": {
    "name": "6 GORDON STREET BENALLA 3672",
    "locID": "LOC000103248315",
    "tech": "FTTC",
    "upgrade": "FTTP_SA",
    "gnaf_pid": "GAVIC410870977"
   }
  },
  {
   "type": "Feature",
   "geometry": {
    "type": "Point",
    "coordinates": [
     145.97575049,
     -36.55728998
    ]
   },
   "properties": {
    "name": "UNIT 1, 2 BENSON STREET BENALLA 3672",
    "locID": "LOC000089219317",
    "tech": "FTTC",
    "upgrade": "NULL_NA",
    "gnaf_pid": "GAVIC410871010"
   }
  },
  {
   "type": "Feature",
   "geometry": {
    "type": "Point",
    "coordinates": [
     145.98904113,
     -36.54586955
    ]
   },
   "properties": {
    "name": "20 BARKLY STREET BENALLA 3672",
    "locID": "LOC000069519348",
    "tech": "FTTC",
    "upgrade": "FTTP_SA",
    "gnaf_pid": "GAVIC410871012"
   }
  },
  {
   "type": "Feature",
   "geometry": {
    "type": "Point",
    "coordinates": [
     145.98446114,
     -36.54601333
    ]
   },
   "properties": {
    "name": "UNIT 4, 9 CARRIER STREET BENALLA 3672",
    "locID": "LOC000125060901",
    "tech": "FTTN",
    "upgrade": "NULL_NA",
    "gnaf_pid": "GAVIC410871013"
   }
  },
  {
   "type": "Feature",
   "geometry": {
    "type": "Point",
    "coordinates": [
     145.9859564,
     -36.54485983
    ]
   },
   "properties": {
    "name": "60 MACKELLAR STREET BENALLA 3672",
    "locID": "LOC000036671339",
    "tech": "FTTC",
    "upgrade": "FTTP_SA",
    "gnaf_pid": "GAVIC410871014"
   }
  },
  {
   "type": "Feature",
   "geometry": {
    "type": "Point",
    "coordinates": [
     145.96231843,
     -36.54703646
    ]
   },
   "properties": {
    "name": "4 BOURKE DRIVE BENALLA 3672",
    "locID": "LOC000006021845",
    "tech": "FTTC",
    "upgrade": "FTTP_SA",
    "gnaf_pid": "GAVIC410871016"
   }
  },
  {
   "type": "Feature",
   "geometry": {
    "type": "Point",
    "coordinates": [
     145.96224165,
     -36.54738209
    ]
   },
   "properties": {
    "name": "6 BOURKE DRIVE BENALLA 3672",
    "locID": "LOC000082462652",
    "tech": "FTTC",
    "upgrade": "FTTP_SA",
    "gnaf_pid": "GAVIC410871017"
   }
  },
  {
   "type": "Feature",
   "geometry": {
    "type": "Point",
    "coordinates": [
     145.9622152,
     -36.54750108
    ]
   },
   "properties": {
    "name": "8 BOURKE DRIVE BENALLA 3672",
    "locID": "LOC000038084430",
    "tech": "FTTC",
    "upgrade": "FTTP_SA",
    "gnaf_pid": "GAVIC410871019"
   }
  },
  {
   "type": "Feature",
   "geometry": {
    "type": "Point",
    "coordinates": [
     145.96902018,
     -36.54976782
    ]
   },
   "properties": {
    "name": "116 GOODWIN STREET BENALLA 3672",
    "locID": "ChIJuYugge8OJ2sR_CDeXPllUsM",
    "tech": "FTTC",
    "upgrade": "UNKNOWN",
    "gnaf_pid": "GAVIC410871023"
   }
  },
  {
   "type": "Feature",
   "geometry": {
    "type": "Point",
    "coordinates": [
     145.97210449,
     -36.55416425
    ]
   },
   "properties": {
    "name": "UNIT 1, 31 WEDGE STREET BENALLA 3672",
    "locID": "LOC000069879305",
    "tech": "FTTN",
    "upgrade": "NULL_NA",
    "gnaf_pid": "GAVIC410871026"
   }
  },
  {
   "type": "Feature",
   "geometry": {
    "type": "Point",
    "coordinates": [
     145.97224556,
     -36.54814699
    ]
   },
   "properties": {
    "name": "UNIT 2, 14 GOODWIN STREET BENALLA 3672",
    "locID": "LOC000002020921",
    "tech": "FTTC",
    "upgrade": "FTTP_SA",
    "gnaf_pid": "GAVIC410871028"
   }
  },
  {
   "type": "Feature",
   "geometry": {
    "type": "Point",
    "coordinates": [
     145.96332973,
     -36.55031649
    ]
   },
   "properties": {
    "name": "UNIT 2, 12 GEORGE SAY COURT BENALLA 3672",
    "locID": "LOC000087689663",
    "tech": "FTTC",
    "upgrade": "FTTP_SA",
    "gnaf_pid": "GAVIC410871029"
   }
  },
  {
   "type": "Feature",
   "geometry": {
    "type": "Point",
    "coordinates": [
     145.96748831,
     -36.5456485
    ]
   },
   "properties": {
    "name": "49 WILLIAM STREET NORTH BENALLA 3672",
    "locID": "LOC000081390736",
    "tech": "FTTN",
    "upgrade": "NULL_NA",
    "gnaf_pid": "GAVIC410871030"
   }
  },
  {
   "type": "Feature",
   "geometry": {
    "type": "Point",
    "coordinates": [
     145.96262181,
     -36.54738735
    ]
   },
   "properties": {
    "name": "5 BOURKE DRIVE BENALLA 3672",
    "locID": "LOC000081568357",
    "tech": "FTTC",
    "upgrade": "FTTP_SA",
    "gnaf_pid": "GAVIC410871031"
   }
  },
  {
   "type": "Feature",
   "geometry": {
    "type": "Point",
    "coordinates": [
     145.97642073,
     -36.5677587
    ]
   },
   "properties": {
    "name": "23 GRANT DRIVE BENALLA 3672",
    "locID": "LOC000035975863",
    "tech": "WIRELESS",
    "upgrade": "NULL_NA",
    "gnaf_pid": "GAVIC410871037"
   }
  },
  {
   "type": "Feature",
   "geometry": {
    "type": "Point",
    "coordinates": [
     145.9726524,
     -36.54478618
    ]
   },
   "properties": {
    "name": "29 ARUNDEL STREET NORTH BENALLA 3672",
    "locID": "LOC000037493028",
    "tech": "FTTC",
    "upgrade": "FTTP_SA",
    "gnaf_pid": "GAVIC410871052"
   }
  },
  {
   "type": "Feature",
   "geometry": {
    "type": "Point",
    "coordinates": [
     145.96252718,
     -36.56481509
    ]
   },
   "properties": {
    "name": "13 MONASH DRIVE BENALLA 3672",
    "locID": "LOC000051736413",
    "tech": "FTTC",
    "upgrade": "FTTP_SA",
    "gnaf_pid": "GAVIC410871229"
   }
  },
  {
   "type": "Feature",
   "geometry": {
    "type": "Point",
    "coordinates": [
     145.96216356,
     -36.56458651
    ]
   },
   "properties": {
    "name": "10 MONASH DRIVE BENALLA 3672",
    "locID": "LOC000056536609",
    "tech": "FTTC",
    "upgrade": "FTTP_SA",
    "gnaf_pid": "GAVIC410871230"
   }
  },
  {
   "type": "Feature",
   "geometry": {
    "type": "Point",
    "coordinates": [
     145.98441359,
     -36.54798211
    ]
   },
   "properties": {
    "name": "28C CARRIER STREET BENALLA 3672",
    "locID": "LOC000018592766",
    "tech": "FTTC",
    "upgrade": "FTTP_SA",
    "gnaf_pid": "GAVIC410871231"
   }
  },
  {
   "type": "Feature",
   "geometry": {
    "type": "Point",
    "coordinates": [
     145.98328566,
     -36.55084841
    ]
   },
   "properties": {
    "name": "73B NUNN STREET BENALLA 3672",
    "locID": "ChIJx8DqHwMPJ2sRhTZz0hOZPO0",
    "tech": "FTTC",
    "upgrade": "UNKNOWN",
    "gnaf_pid": "GAVIC410871233"
   }
  },
  {
   "type": "Feature",
   "geometry": {
    "type": "Point",
    "coordinates": [
     145.96042885,
     -36.55784387
    ]
   },
   "properties": {
    "name": "UNIT 3, 13 NICHOLSON COURT BENALLA 3672",
    "locID": "LOC000102733857",
    "tech": "FTTN",
    "upgrade": "NULL_NA",
    "gnaf_pid": "GAVIC410871249"
   }
  },
  {
   "type": "Feature",
   "geometry": {
    "type": "Point",
    "coordinates": [
     145.95915038,
     -36.55877306
    ]
   },
   "properties": {
    "name": "UNIT 1, 1 KELLY COURT BENALLA 3672",
    "locID": "LOC000102332119",
    "tech": "FTTN",
    "upgrade": "NULL_NA",
    "gnaf_pid": "GAVIC410871262"
   }
  },
  {
   "type": "Feature",
   "geometry": {
    "type": "Point",
    "coordinates": [
     145.95798789,
     -36.55744073
    ]
   },
   "properties": {
    "name": "UNIT 6, 5 JENSEN COURT BENALLA 3672",
    "locID": "LOC000074354111",
    "tech": "WIRELESS",
    "upgrade": "NULL_NA",
    "gnaf_pid": "GAVIC410871263"
   }
  },
  {
   "type": "Feature",
   "geometry": {
    "type": "Point",
    "coordinates": [
     145.96659068,
     -36.55847339
    ]
   },
   "properties": {
    "name": "UNIT 4, 21 LATIMER STREET BENALLA 3672",
    "locID": "LOC000105925287",
    "tech": "FTTC",
    "upgrade": "NULL_NA",
    "gnaf_pid": "GAVIC410871268"
   }
  },
  {
   "type": "Feature",
   "geometry": {
    "type": "Point",
    "coordinates": [
     145.96742271,
     -36.55640063
    ]
   },
   "properties": {
    "name": "UNIT 6, 62A CLARKE STREET BENALLA 3672",
    "locID": "LOC000082293327",
    "tech": "FTTC",
    "upgrade": "NULL_NA",
    "gnaf_pid": "GAVIC410871269"
   }
  },
  {
   "type": "Feature",
   "geometry": {
    "type": "Point",
    "coordinates": [
     145.96742271,
     -36.55640063
    ]
   },
   "properties": {
    "name": "UNIT 5, 62A CLARKE STREET BENALLA 3672",
    "locID": "LOC000082381924",
    "tech": "FTTC",
    "upgrade": "NULL_NA",
    "gnaf_pid": "GAVIC410871271"
   }
  },
  {
   "type": "Feature",
   "geometry": {
    "type": "Point",
    "coordinates": [
     145.95843761,
     -36.55764305
    ]
   },
   "properties": {
    "name": "UNIT 2, 10 JENSEN COURT BENALLA 3672",
    "locID": "LOC000025171084",
    "tech": "WIRELESS",
    "upgrade": "NULL_NA",
    "gnaf_pid": "GAVIC410871303"
   }
  },
  {
   "type": "Feature",
   "geometry": {
    "type": "Point",
    "coordinates": [
     145.96320585,
     -36.54912029
    ]
   },
   "properties": {
    "name": "1 FIRST AVENUE BENALLA 3672",
    "locID": "LOC000033020230",
    "tech": "FTTC",
    "upgrade": "FTTP_SA",
    "gnaf_pid": "GAVIC410871716"
   }
  },
  {
   "type": "Feature",
   "geometry": {
    "type": "Point",
    "coordinates": [
     145.96745176,
     -36.54581721
    ]
   },
   "properties": {
    "name": "47 WILLIAM STREET NORTH BENALLA 3672",
    "locID": "LOC000044762481",
    "tech": "FTTN",
    "upgrade": "NULL_NA",
    "gnaf_pid": "GAVIC410871728"
   }
  },
  {
   "type": "Feature",
   "geometry": {
    "type": "Point",
    "coordinates": [
     145.96618665,
     -36.5588605
    ]
   },
   "properties": {
    "name": "27 LATIMER STREET BENALLA 3672",
    "locID": "LOC000003612300",
    "tech": "FTTC",
    "upgrade": "FTTP_SA",
    "gnaf_pid": "GAVIC410871733"
   }
  },
  {
   "type": "Feature",
   "geometry": {
    "type": "Point",
    "coordinates": [
     145.99430456,
     -36.55047861
    ]
   },
   "properties": {
    "name": "UNIT 6, 17 CRAMMOND STREET BENALLA 3672",
    "locID": "LOC000023532710",
    "tech": "FTTN",
    "upgrade": "NULL_NA",
    "gnaf_pid": "GAVIC410871810"
   }
  },
  {
   "type": "Feature",
   "geometry": {
    "type": "Point",
    "coordinates": [
     145.99372895,
     -36.55309658
    ]
   },
   "properties": {
    "name": "UNIT 3, 13B MELROSE STREET BENALLA 3672",
    "locID": "LOC000102793514",
    "tech": "FTTC",
    "upgrade": "NULL_NA",
    "gnaf_pid": "GAVIC410871843"
   }
  },
  {
   "type": "Feature",
   "geometry": {
    "type": "Point",
    "coordinates": [
     145.97221294,
     -36.56081633
    ]
   },
   "properties": {
    "name": "29A DUNN STREET BENALLA 3672",
    "locID": "ChIJp7LTVdwOJ2sRlgCzltj2RY4",
    "tech": "FTTC",
    "upgrade": "UNKNOWN",
    "gnaf_pid": "GAVIC410871845"
   }
  },
  {
   "type": "Feature",
   "geometry": {
    "type": "Point",
    "coordinates": [
     145.97969195,
     -36.55682765
    ]
   },
   "properties": {
    "name": "4 MAUD STREET BENALLA 3672",
    "locID": "LOC000060598377",
    "tech": "FTTN",
    "upgrade": "NULL_NA",
    "gnaf_pid": "GAVIC410871848"
   }
  },
  {
   "type": "Feature",
   "geometry": {
    "type": "Point",
    "coordinates": [
     145.99131605,
     -36.55286912
    ]
   },
   "properties": {
    "name": "90 SALISBURY STREET BENALLA 3672",
    "locID": "LOC000023028708",
    "tech": "FTTC",
    "upgrade": "FTTP_SA",
    "gnaf_pid": "GAVIC410871852"
   }
  },
  {
   "type": "Feature",
   "geometry": {
    "type": "Point",
    "coordinates": [
     145.99229816,
     -36.55939581
    ]
   },
   "properties": {
    "name": "15 SOUTH STREET BENALLA 3672",
    "locID": "LOC000114788637",
    "tech": "FTTC",
    "upgrade": "FTTP_SA",
    "gnaf_pid": "GAVIC410871857"
   }
  },
  {
   "type": "Feature",
   "geometry": {
    "type": "Point",
    "coordinates": [
     145.99718239,
     -36.54686455
    ]
   },
   "properties": {
    "name": "UNIT 2, 17 WITT STREET BENALLA 3672",
    "locID": "LOC000020324514",
    "tech": "FTTN",
    "upgrade": "NULL_NA",
    "gnaf_pid": "GAVIC410871858"
   }
  },
  {
   "type": "Feature",
   "geometry": {
    "type": "Point",
    "coordinates": [
     145.97365329,
     -36.55555085
    ]
   },
   "properties": {
    "name": "24A BRIDGE STREET WEST BENALLA 3672",
    "locID": "LOC000074391233",
    "tech": "FTTN",
    "upgrade": "NULL_NA",
    "gnaf_pid": "GAVIC410871876"
   }
  },
  {
   "type": "Feature",
   "geometry": {
    "type": "Point",
    "coordinates": [
     145.97214419,
     -36.55431551
    ]
   },
   "properties": {
    "name": "UNIT 2, 31 WEDGE STREET BENALLA 3672",
    "locID": "LOC000069902475",
    "tech": "FTTN",
    "upgrade": "NULL_NA",
    "gnaf_pid": "GAVIC410871881"
   }
  },
  {
   "type": "Feature",
   "geometry": {
    "type": "Point",
    "coordinates": [
     145.9725876,
     -36.54827305
    ]
   },
   "properties": {
    "name": "UNIT 4, 14 GOODWIN STREET BENALLA 3672",
    "locID": "LOC000002022576",
    "tech": "FTTC",
    "upgrade": "FTTP_SA",
    "gnaf_pid": "GAVIC410871882"
   }
  },
  {
   "type": "Feature",
   "geometry": {
    "type": "Point",
    "coordinates": [
     145.97299534,
     -36.55329414
    ]
   },
   "properties": {
    "name": "40 GOOMALIBEE STREET BENALLA 3672",
    "locID": "LOC000029689734",
    "tech": "FTTN",
    "upgrade": "NULL_NA",
    "gnaf_pid": "GAVIC410871883"
   }
  },
  {
   "type": "Feature",
   "geometry": {
    "type": "Point",
    "coordinates": [
     145.97254706,
     -36.55048984
    ]
   },
   "properties": {
    "name": "9 GOOMALIBEE STREET BENALLA 3672",
    "locID": "LOC000058854654",
    "tech": "FTTN",
    "upgrade": "NULL_NA",
    "gnaf_pid": "GAVIC410871954"
   }
  },
  {
   "type": "Feature",
   "geometry": {
    "type": "Point",
    "coordinates": [
     145.98446114,
     -36.54601333
    ]
   },
   "properties": {
    "name": "UNIT 2, 9 CARRIER STREET BENALLA 3672",
    "locID": "LOC000125060889",
    "tech": "FTTN",
    "upgrade": "NULL_NA",
    "gnaf_pid": "GAVIC410871963"
   }
  },
  {
   "type": "Feature",
   "geometry": {
    "type": "Point",
    "coordinates": [
     145.98446114,
     -36.54601333
    ]
   },
   "properties": {
    "name": "UNIT 3, 9 CARRIER STREET BENALLA 3672",
    "locID": "LOC000125060891",
    "tech": "FTTN",
    "upgrade": "NULL_NA",
    "gnaf_pid": "GAVIC410871967"
   }
  },
  {
   "type": "Feature",
   "geometry": {
    "type": "Point",
    "coordinates": [
     145.98471119,
     -36.551242
    ]
   },
   "properties": {
    "name": "57 BRIDGE STREET EAST BENALLA 3672",
    "locID": "LOC000050525034",
    "tech": "FTTN",
    "upgrade": "NULL_NA",
    "gnaf_pid": "GAVIC410871973"
   }
  },
  {
   "type": "Feature",
   "geometry": {
    "type": "Point",
    "coordinates": [
     145.98701561,
     -36.55016299
    ]
   },
   "properties": {
    "name": "13 KILLENA AVENUE BENALLA 3672",
    "locID": "LOC000050231647",
    "tech": "FTTC",
    "upgrade": "FTTP_SA",
    "gnaf_pid": "GAVIC410871974"
   }
  },
  {
   "type": "Feature",
   "geometry": {
    "type": "Point",
    "coordinates": [
     145.9930871,
     -36.5514921
    ]
   },
   "properties": {
    "name": "UNIT 1, 10 PERTH STREET BENALLA 3672",
    "locID": "LOC000075774359",
    "tech": "FTTN",
    "upgrade": "NULL_NA",
    "gnaf_pid": "GAVIC410871987"
   }
  },
  {
   "type": "Feature",
   "geometry": {
    "type": "Point",
    "coordinates": [
     145.98873665,
     -36.54596388
    ]
   },
   "properties": {
    "name": "71 BENALLA STREET BENALLA 3672",
    "locID": "LOC000033682545",
    "tech": "FTTC",
    "upgrade": "FTTP_SA",
    "gnaf_pid": "GAVIC410871990"
   }
  },
  {
   "type": "Feature",
   "geometry": {
    "type": "Point",
    "coordinates": [
     145.9673181,
     -36.56147424
    ]
   },
   "properties": {
    "name": "UNIT 2, 6 LEDGER COURT BENALLA 3672",
    "locID": "LOC000027047470",
    "tech": "FTTC",
    "upgrade": "NULL_NA",
    "gnaf_pid": "GAVIC410872010"
   }
  },
  {
   "type": "Feature",
   "geometry": {
    "type": "Point",
    "coordinates": [
     145.97880007,
     -36.56090936
    ]
   },
   "properties": {
    "name": "UNIT 1, 43 MARKET STREET BENALLA 3672",
    "locID": "LOC000074670768",
    "tech": "FTTN",
    "upgrade": "NULL_NA",
    "gnaf_pid": "GAVIC410872018"
   }
  },
  {
   "type": "Feature",
   "geometry": {
    "type": "Point",
    "coordinates": [
     145.9725483,
     -36.556233
    ]
   },
   "properties": {
    "name": "33 BRIDGE STREET WEST BENALLA 3672",
    "locID": "LOC000104416268",
    "tech": "FTTC",
    "upgrade": "FTTP_SA",
    "gnaf_pid": "GAVIC410872022"
   }
  },
  {
   "type": "Feature",
   "geometry": {
    "type": "Point",
    "coordinates": [
     145.98625753,
     -36.5480136
    ]
   },
   "properties": {
    "name": "31 NIXON STREET BENALLA 3672",
    "locID": "LOC000091371535",
    "tech": "FTTC",
    "upgrade": "FTTP_SA",
    "gnaf_pid": "GAVIC410872027"
   }
  },
  {
   "type": "Feature",
   "geometry": {
    "type": "Point",
    "coordinates": [
     145.95843761,
     -36.55764305
    ]
   },
   "properties": {
    "name": "UNIT 3, 10 JENSEN COURT BENALLA 3672",
    "locID": "LOC000025027825",
    "tech": "WIRELESS",
    "upgrade": "NULL_NA",
    "gnaf_pid": "GAVIC410872144"
   }
  },
  {
   "type": "Feature",
   "geometry": {
    "type": "Point",
    "coordinates": [
     145.95915038,
     -36.55877306
    ]
   },
   "properties": {
    "name": "UNIT 1, 3 KELLY COURT BENALLA 3672",
    "locID": "LOC000102332119",
    "tech": "FTTN",
    "upgrade": "NULL_NA",
    "gnaf_pid": "GAVIC410872148"
   }
  },
  {
   "type": "Feature",
   "geometry": {
    "type": "Point",
    "coordinates": [
     145.95724408,
     -36.55710505
    ]
   },
   "properties": {
    "name": "UNIT 2, 55 ESPERANTO STREET BENALLA 3672",
    "locID": "LOC000038377274",
    "tech": "WIRELESS",
    "upgrade": "NULL_NA",
    "gnaf_pid": "GAVIC410872153"
   }
  },
  {
   "type": "Feature",
   "geometry": {
    "type": "Point",
    "coordinates": [
     145.95798789,
     -36.55744073
    ]
   },
   "properties": {
    "name": "UNIT 7, 5 JENSEN COURT BENALLA 3672",
    "locID": "LOC000073767369",
    "tech": "WIRELESS",
    "upgrade": "NULL_NA",
    "gnaf_pid": "GAVIC410872155"
   }
  },
  {
   "type": "Feature",
   "geometry": {
    "type": "Point",
    "coordinates": [
     145.97212843,
     -36.55078059
    ]
   },
   "properties": {
    "name": "10 GOOMALIBEE STREET BENALLA 3672",
    "locID": "LOC000050496043",
    "tech": "FTTN",
    "upgrade": "NULL_NA",
    "gnaf_pid": "GAVIC410872205"
   }
  },
  {
   "type": "Feature",
   "geometry": {
    "type": "Point",
    "coordinates": [
     145.95798789,
     -36.55744073
    ]
   },
   "properties": {
    "name": "UNIT 8, 5 JENSEN COURT BENALLA 3672",
    "locID": "LOC000074268269",
    "tech": "WIRELESS",
    "upgrade": "NULL_NA",
    "gnaf_pid": "GAVIC410872229"
   }
  },
  {
   "type": "Feature",
   "geometry": {
    "type": "Point",
    "coordinates": [
     145.97330006,
     -36.55563113
    ]
   },
   "properties": {
    "name": "26A BRIDGE STREET WEST BENALLA 3672",
    "locID": "LOC000016954602",
    "tech": "FTTN",
    "upgrade": "NULL_NA",
    "gnaf_pid": "GAVIC410872240"
   }
  },
  {
   "type": "Feature",
   "geometry": {
    "type": "Point",
    "coordinates": [
     145.98411711,
     -36.54964712
    ]
   },
   "properties": {
    "name": "32 CHURCH STREET BENALLA 3672",
    "locID": "LOC000079437879",
    "tech": "FTTC",
    "upgrade": "FTTP_SA",
    "gnaf_pid": "GAVIC410872725"
   }
  },
  {
   "type": "Feature",
   "geometry": {
    "type": "Point",
    "coordinates": [
     145.98228158,
     -36.5480551
    ]
   },
   "properties": {
    "name": "23 NUNN STREET BENALLA 3672",
    "locID": "LOC000038741932",
    "tech": "FTTN",
    "upgrade": "NULL_NA",
    "gnaf_pid": "GAVIC410872732"
   }
  },
  {
   "type": "Feature",
   "geometry": {
    "type": "Point",
    "coordinates": [
     145.99043366,
     -36.54977401
    ]
   },
   "properties": {
    "name": "147 BRIDGE STREET EAST BENALLA 3672",
    "locID": "ChIJrQBD2wUPJ2sR2OrlyMUzARQ",
    "tech": "FTTC",
    "upgrade": "UNKNOWN",
    "gnaf_pid": "GAVIC410872733"
   }
  },
  {
   "type": "Feature",
   "geometry": {
    "type": "Point",
    "coordinates": [
     145.98725265,
     -36.54676986
    ]
   },
   "properties": {
    "name": "21 SMYTHE STREET BENALLA 3672",
    "locID": "LOC000096934772",
    "tech": "FTTC",
    "upgrade": "FTTP_SA",
    "gnaf_pid": "GAVIC410872736"
   }
  },
  {
   "type": "Feature",
   "geometry": {
    "type": "Point",
    "coordinates": [
     145.98418693,
     -36.5458059
    ]
   },
   "properties": {
    "name": "7 CARRIER STREET BENALLA 3672",
    "locID": "LOC000035298421",
    "tech": "FTTN",
    "upgrade": "NULL_NA",
    "gnaf_pid": "GAVIC410872755"
   }
  },
  {
   "type": "Feature",
   "geometry": {
    "type": "Point",
    "coordinates": [
     145.96834688,
     -36.55081299
    ]
   },
   "properties": {
    "name": "UNIT 1, 45 KENT STREET BENALLA 3672",
    "locID": "LOC000097295790",
    "tech": "FTTC",
    "upgrade": "FTTP_SA",
    "gnaf_pid": "GAVIC410873146"
   }
  },
  {
   "type": "Feature",
   "geometry": {
    "type": "Point",
    "coordinates": [
     145.9624024,
     -36.56365904
    ]
   },
   "properties": {
    "name": "1 MONASH DRIVE BENALLA 3672",
    "locID": "LOC000095336387",
    "tech": "FTTC",
    "upgrade": "FTTP_SA",
    "gnaf_pid": "GAVIC410873682"
   }
  },
  {
   "type": "Feature",
   "geometry": {
    "type": "Point",
    "coordinates": [
     145.97049814,
     -36.55629466
    ]
   },
   "properties": {
    "name": "47 BRIDGE STREET WEST BENALLA 3672",
    "locID": "LOC000095161025",
    "tech": "FTTC",
    "upgrade": "FTTP_SA",
    "gnaf_pid": "GAVIC410873706"
   }
  },
  {
   "type": "Feature",
   "geometry": {
    "type": "Point",
    "coordinates": [
     145.97362166,
     -36.55931696
    ]
   },
   "properties": {
    "name": "UNIT 3, 48 THOMAS STREET BENALLA 3672",
    "locID": "LOC000010194620",
    "tech": "FTTC",
    "upgrade": "NULL_NA",
    "gnaf_pid": "GAVIC410873759"
   }
  },
  {
   "type": "Feature",
   "geometry": {
    "type": "Point",
    "coordinates": [
     145.96236615,
     -36.56382593
    ]
   },
   "properties": {
    "name": "3 MONASH DRIVE BENALLA 3672",
    "locID": "LOC000036880647",
    "tech": "FTTC",
    "upgrade": "FTTP_SA",
    "gnaf_pid": "GAVIC410873823"
   }
  },
  {
   "type": "Feature",
   "geometry": {
    "type": "Point",
    "coordinates": [
     145.98644491,
     -36.54963706
    ]
   },
   "properties": {
    "name": "8 KILLENA AVENUE BENALLA 3672",
    "locID": "LOC000024256789",
    "tech": "FTTC",
    "upgrade": "FTTP_SA",
    "gnaf_pid": "GAVIC410873844"
   }
  },
  {
   "type": "Feature",
   "geometry": {
    "type": "Point",
    "coordinates": [
     145.97929934,
     -36.56601404
    ]
   },
   "properties": {
    "name": "1 COWAN STREET BENALLA 3672",
    "locID": "LOC000033484435",
    "tech": "WIRELESS",
    "upgrade": "NULL_NA",
    "gnaf_pid": "GAVIC410873851"
   }
  },
  {
   "type": "Feature",
   "geometry": {
    "type": "Point",
    "coordinates": [
     145.97061569,
     -36.54840539
    ]
   },
   "properties": {
    "name": "9 MATHIESON COURT BENALLA 3672",
    "locID": "LOC000026018283",
    "tech": "FTTC",
    "upgrade": "FTTP_SA",
    "gnaf_pid": "GAVIC410873892"
   }
  },
  {
   "type": "Feature",
   "geometry": {
    "type": "Point",
    "coordinates": [
     145.97220179,
     -36.55904877
    ]
   },
   "properties": {
    "name": "UNIT 2, 12 DUNN STREET BENALLA 3672",
    "locID": "LOC000093291616",
    "tech": "FTTC",
    "upgrade": "NULL_NA",
    "gnaf_pid": "GAVIC410874064"
   }
  },
  {
   "type": "Feature",
   "geometry": {
    "type": "Point",
    "coordinates": [
     145.95798789,
     -36.55744073
    ]
   },
   "properties": {
    "name": "UNIT 9, 5 JENSEN COURT BENALLA 3672",
    "locID": "LOC000074513670",
    "tech": "WIRELESS",
    "upgrade": "NULL_NA",
    "gnaf_pid": "GAVIC410874125"
   }
  },
  {
   "type": "Feature",
   "geometry": {
    "type": "Point",
    "coordinates": [
     145.97981911,
     -36.54867263
    ]
   },
   "properties": {
    "name": "UNIT 2, 3A MITCHELL STREET BENALLA 3672",
    "locID": "LOC000042253495",
    "tech": "FTTN",
    "upgrade": "NULL_NA",
    "gnaf_pid": "GAVIC410874130"
   }
  },
  {
   "type": "Feature",
   "geometry": {
    "type": "Point",
    "coordinates": [
     145.99576466,
     -36.55372189
    ]
   },
   "properties": {
    "name": "38 MELROSE STREET BENALLA 3672",
    "locID": "LOC000101501173",
    "tech": "FTTC",
    "upgrade": "FTTP_SA",
    "gnaf_pid": "GAVIC410874136"
   }
  },
  {
   "type": "Feature",
   "geometry": {
    "type": "Point",
    "coordinates": [
     145.99682438,
     -36.56024763
    ]
   },
   "properties": {
    "name": "1 PLOVER PLACE BENALLA 3672",
    "locID": "LOC000087661949",
    "tech": "FTTC",
    "upgrade": "FTTP_SA",
    "gnaf_pid": "GAVIC410874142"
   }
  },
  {
   "type": "Feature",
   "geometry": {
    "type": "Point",
    "coordinates": [
     145.99430456,
     -36.55047861
    ]
   },
   "properties": {
    "name": "UNIT 3, 17 CRAMMOND STREET BENALLA 3672",
    "locID": "LOC000023915257",
    "tech": "FTTN",
    "upgrade": "NULL_NA",
    "gnaf_pid": "GAVIC410874143"
   }
  },
  {
   "type": "Feature",
   "geometry": {
    "type": "Point",
    "coordinates": [
     145.99430456,
     -36.55047861
    ]
   },
   "properties": {
    "name": "UNIT 4, 17 CRAMMOND STREET BENALLA 3672",
    "locID": "LOC000023380247",
    "tech": "FTTN",
    "upgrade": "NULL_NA",
    "gnaf_pid": "GAVIC410874404"
   }
  },
  {
   "type": "Feature",
   "geometry": {
    "type": "Point",
    "coordinates": [
     145.98833267,
     -36.55143162
    ]
   },
   "properties": {
    "name": "UNIT 2, 68 SMYTHE STREET BENALLA 3672",
    "locID": "LOC000071550440",
    "tech": "FTTC",
    "upgrade": "FTTP_SA",
    "gnaf_pid": "GAVIC410874412"
   }
  },
  {
   "type": "Feature",
   "geometry": {
    "type": "Point",
    "coordinates": [
     145.97362166,
     -36.55931696
    ]
   },
   "properties": {
    "name": "UNIT 2, 48 THOMAS STREET BENALLA 3672",
    "locID": "LOC000010223811",
    "tech": "FTTC",
    "upgrade": "NULL_NA",
    "gnaf_pid": "GAVIC410874730"
   }
  },
  {
   "type": "Feature",
   "geometry": {
    "type": "Point",
    "coordinates": [
     145.9727871,
     -36.55045091
    ]
   },
   "properties": {
    "name": "3 NOONAN STREET BENALLA 3672",
    "locID": "LOC000007131753",
    "tech": "FTTN",
    "upgrade": "NULL_NA",
    "gnaf_pid": "GAVIC410874734"
   }
  },
  {
   "type": "Feature",
   "geometry": {
    "type": "Point",
    "coordinates": [
     145.95798789,
     -36.55744073
    ]
   },
   "properties": {
    "name": "UNIT 4, 5 JENSEN COURT BENALLA 3672",
    "locID": "LOC000074153606",
    "tech": "WIRELESS",
    "upgrade": "NULL_NA",
    "gnaf_pid": "GAVIC410874814"
   }
  },
  {
   "type": "Feature",
   "geometry": {
    "type": "Point",
    "coordinates": [
     145.9777037,
     -36.56546285
    ]
   },
   "properties": {
    "name": "16 COWAN STREET BENALLA 3672",
    "locID": "LOC000082145014",
    "tech": "WIRELESS",
    "upgrade": "NULL_NA",
    "gnaf_pid": "GAVIC410875321"
   }
  },
  {
   "type": "Feature",
   "geometry": {
    "type": "Point",
    "coordinates": [
     145.98571334,
     -36.54491685
    ]
   },
   "properties": {
    "name": "58 MACKELLAR STREET BENALLA 3672",
    "locID": "LOC000105873159",
    "tech": "FTTC",
    "upgrade": "FTTP_SA",
    "gnaf_pid": "GAVIC410875331"
   }
  },
  {
   "type": "Feature",
   "geometry": {
    "type": "Point",
    "coordinates": [
     145.9635552,
     -36.56047005
    ]
   },
   "properties": {
    "name": "2 DIPLOMAT COURT BENALLA 3672",
    "locID": "LOC000034209706",
    "tech": "FTTC",
    "upgrade": "FTTP_SA",
    "gnaf_pid": "GAVIC410875332"
   }
  },
  {
   "type": "Feature",
   "geometry": {
    "type": "Point",
    "coordinates": [
     145.9782499,
     -36.56217315
    ]
   },
   "properties": {
    "name": "UNIT 2, 21 WALLER STREET BENALLA 3672",
    "locID": "LOC000056109186",
    "tech": "FTTN",
    "upgrade": "NULL_NA",
    "gnaf_pid": "GAVIC410875334"
   }
  },
  {
   "type": "Feature",
   "geometry": {
    "type": "Point",
    "coordinates": [
     145.97880007,
     -36.56090936
    ]
   },
   "properties": {
    "name": "43A MARKET STREET BENALLA 3672",
    "locID": "ChIJl8Hrwt8OJ2sRVVPEImHL980",
    "tech": "FTTN",
    "upgrade": "UNKNOWN",
    "gnaf_pid": "GAVIC410875435"
   }
  },
  {
   "type": "Feature",
   "geometry": {
    "type": "Point",
    "coordinates": [
     145.9673181,
     -36.56147424
    ]
   },
   "properties": {
    "name": "UNIT 7, 6 LEDGER COURT BENALLA 3672",
    "locID": "LOC000026828081",
    "tech": "FTTC",
    "upgrade": "NULL_NA",
    "gnaf_pid": "GAVIC410875448"
   }
  },
  {
   "type": "Feature",
   "geometry": {
    "type": "Point",
    "coordinates": [
     145.98517678,
     -36.55113441
    ]
   },
   "properties": {
    "name": "75 BRIDGE STREET EAST BENALLA 3672",
    "locID": "LOC000061910903",
    "tech": "FTTN",
    "upgrade": "NULL_NA",
    "gnaf_pid": "GAVIC410875449"
   }
  },
  {
   "type": "Feature",
   "geometry": {
    "type": "Point",
    "coordinates": [
     145.99754923,
     -36.62554416
    ]
   },
   "properties": {
    "name": "3 SAMARIA ROAD BENALLA 3672",
    "locID": "LOC000125043461",
    "tech": "FTTC",
    "upgrade": "NULL_NA",
    "gnaf_pid": "GAVIC410875450"
   }
  },
  {
   "type": "Feature",
   "geometry": {
    "type": "Point",
    "coordinates": [
     145.99035235,
     -36.54777204
    ]
   },
   "properties": {
    "name": "39 BARKLY STREET BENALLA 3672",
    "locID": "LOC000106532118",
    "tech": "FTTC",
    "upgrade": "FTTP_NA",
    "gnaf_pid": "GAVIC410875451"
   }
  },
  {
   "type": "Feature",
   "geometry": {
    "type": "Point",
    "coordinates": [
     145.98425296,
     -36.54961605
    ]
   },
   "properties": {
    "name": "34 CHURCH STREET BENALLA 3672",
    "locID": "LOC000050849278",
    "tech": "FTTC",
    "upgrade": "FTTP_SA",
    "gnaf_pid": "GAVIC410875455"
   }
  },
  {
   "type": "Feature",
   "geometry": {
    "type": "Point",
    "coordinates": [
     145.96861886,
     -36.55559894
    ]
   },
   "properties": {
    "name": "66 BRIDGE STREET WEST BENALLA 3672",
    "locID": "LOC000056651180",
    "tech": "FTTC",
    "upgrade": "FTTP_SA",
    "gnaf_pid": "GAVIC410875462"
   }
  },
  {
   "type": "Feature",
   "geometry": {
    "type": "Point",
    "coordinates": [
     145.99883813,
     -36.54289863
    ]
   },
   "properties": {
    "name": "66 WITT STREET BENALLA 3672",
    "locID": "LOC000033478486",
    "tech": "FTTN",
    "upgrade": "NULL_NA",
    "gnaf_pid": "GAVIC410875471"
   }
  },
  {
   "type": "Feature",
   "geometry": {
    "type": "Point",
    "coordinates": [
     145.99372895,
     -36.55309658
    ]
   },
   "properties": {
    "name": "UNIT 1, 13B MELROSE STREET BENALLA 3672",
    "locID": "LOC000102793514",
    "tech": "FTTC",
    "upgrade": "NULL_NA",
    "gnaf_pid": "GAVIC410875473"
   }
  },
  {
   "type": "Feature",
   "geometry": {
    "type": "Point",
    "coordinates": [
     145.97515413,
     -36.55518509
    ]
   },
   "properties": {
    "name": "12 BRIDGE STREET WEST BENALLA 3672",
    "locID": "LOC100026058877",
    "tech": "FTTN",
    "upgrade": "NULL_NA",
    "gnaf_pid": "GAVIC410875504"
   }
  },
  {
   "type": "Feature",
   "geometry": {
    "type": "Point",
    "coordinates": [
     145.9686973,
     -36.55747395
    ]
   },
   "properties": {
    "name": "UNIT 4, 21 CROFTON STREET BENALLA 3672",
    "locID": "LOC000036063105",
    "tech": "FTTC",
    "upgrade": "FTTP_SA",
    "gnaf_pid": "GAVIC410875524"
   }
  },
  {
   "type": "Feature",
   "geometry": {
    "type": "Point",
    "coordinates": [
     145.97834503,
     -36.56200324
    ]
   },
   "properties": {
    "name": "UNIT 1, 21 WALLER STREET BENALLA 3672",
    "locID": "LOC000056109186",
    "tech": "FTTN",
    "upgrade": "NULL_NA",
    "gnaf_pid": "GAVIC410875527"
   }
  },
  {
   "type": "Feature",
   "geometry": {
    "type": "Point",
    "coordinates": [
     145.98029113,
     -36.56228075
    ]
   },
   "properties": {
    "name": "3 WALLER STREET BENALLA 3672",
    "locID": "LOC000093794763",
    "tech": "FTTN",
    "upgrade": "NULL_NA",
    "gnaf_pid": "GAVIC410875529"
   }
  },
  {
   "type": "Feature",
   "geometry": {
    "type": "Point",
    "coordinates": [
     145.99238821,
     -36.54255487
    ]
   },
   "properties": {
    "name": "1 DUFFY STREET BENALLA 3672",
    "locID": "ChIJP8FlMKYPJ2sRhuBw2GLcCn4",
    "tech": "FTTC",
    "upgrade": "UNKNOWN",
    "gnaf_pid": "GAVIC410875560"
   }
  },
  {
   "type": "Feature",
   "geometry": {
    "type": "Point",
    "coordinates": [
     145.97346476,
     -36.5555937
    ]
   },
   "properties": {
    "name": "26 BRIDGE STREET WEST BENALLA 3672",
    "locID": "LOC000016912142",
    "tech": "FTTN",
    "upgrade": "NULL_NA",
    "gnaf_pid": "GAVIC410875667"
   }
  },
  {
   "type": "Feature",
   "geometry": {
    "type": "Point",
    "coordinates": [
     145.97022475,
     -36.55299069
    ]
   },
   "properties": {
    "name": "28 CHARLES STREET BENALLA 3672",
    "locID": "LOC000040266979",
    "tech": "FTTC",
    "upgrade": "FTTP_SA",
    "gnaf_pid": "GAVIC410875676"
   }
  },
  {
   "type": "Feature",
   "geometry": {
    "type": "Point",
    "coordinates": [
     145.9729077,
     -36.54816271
    ]
   },
   "properties": {
    "name": "10 GOODWIN STREET BENALLA 3672",
    "locID": "LOC000011828871",
    "tech": "FTTC",
    "upgrade": "FTTP_SA",
    "gnaf_pid": "GAVIC410875685"
   }
  },
  {
   "type": "Feature",
   "geometry": {
    "type": "Point",
    "coordinates": [
     145.97219195,
     -36.55413448
    ]
   },
   "properties": {
    "name": "31 WEDGE STREET BENALLA 3672",
    "locID": "LOC000069512551",
    "tech": "FTTN",
    "upgrade": "NULL_NA",
    "gnaf_pid": "GAVIC410875699"
   }
  },
  {
   "type": "Feature",
   "geometry": {
    "type": "Point",
    "coordinates": [
     145.97846884,
     -36.55558164
    ]
   },
   "properties": {
    "name": "69 ARUNDEL STREET BENALLA 3672",
    "locID": "LOC000125043643",
    "tech": "FTTN",
    "upgrade": "NULL_NA",
    "gnaf_pid": "GAVIC410875706"
   }
  },
  {
   "type": "Feature",
   "geometry": {
    "type": "Point",
    "coordinates": [
     145.97663453,
     -36.55662794
    ]
   },
   "properties": {
    "name": "UNIT 1, 16 HARRISON AVENUE BENALLA 3672",
    "locID": "LOC000103092527",
    "tech": "FTTN",
    "upgrade": "NULL_NA",
    "gnaf_pid": "GAVIC410875707"
   }
  },
  {
   "type": "Feature",
   "geometry": {
    "type": "Point",
    "coordinates": [
     145.9847537,
     -36.55167185
    ]
   },
   "properties": {
    "name": "54 BRIDGE STREET EAST BENALLA 3672",
    "locID": "LOC000125103373",
    "tech": "FTTN",
    "upgrade": "NULL_NA",
    "gnaf_pid": "GAVIC410875724"
   }
  },
  {
   "type": "Feature",
   "geometry": {
    "type": "Point",
    "coordinates": [
     145.99359511,
     -36.54421915
    ]
   },
   "properties": {
    "name": "11 SALISBURY STREET BENALLA 3672",
    "locID": "LOC000086558782",
    "tech": "FTTP",
    "upgrade": "UNKNOWN",
    "gnaf_pid": "GAVIC410875737"
   }
  },
  {
   "type": "Feature",
   "geometry": {
    "type": "Point",
    "coordinates": [
     145.99197396,
     -36.54738335
    ]
   },
   "properties": {
    "name": "97 CHURCH STREET BENALLA 3672",
    "locID": "LOC000080952016",
    "tech": "FTTC",
    "upgrade": "FTTP_SA",
    "gnaf_pid": "GAVIC410875745"
   }
  },
  {
   "type": "Feature",
   "geometry": {
    "type": "Point",
    "coordinates": [
     145.96831509,
     -36.55504209
    ]
   },
   "properties": {
    "name": "UNIT 1, 59 WEDGE STREET BENALLA 3672",
    "locID": "LOC000016816471",
    "tech": "FTTC",
    "upgrade": "FTTP_SA",
    "gnaf_pid": "GAVIC410875766"
   }
  },