{
 "type": "FeatureCollection",
 "generated": "2024-07-05T07:29:35.971734",
 "suburb": "BLACKBURN",
 "features": [
  {
   "type": "Feature",
   "geometry": {
    "type": "Point",
    "coordinates": [
     145.14633857,
     -37.81852095
    ]
   },
   "properties": {
    "name": "UNIT 1, 5 LITHGOW AVENUE BLACKBURN 3130",
    "locID": "LOC000037063088",
    "tech": "HFC",
    "upgrade": "NULL_NA",
    "gnaf_pid": "GAVIC410893034"
   }
  },
  {
   "type": "Feature",
   "geometry": {
    "type": "Point",
    "coordinates": [
     145.14237131,
     -37.81828842
    ]
   },
   "properties": {
    "name": "23A WHITEHORSE ROAD BLACKBURN 3130",
    "locID": "LOC000030608047",
    "tech": "HFC",
    "upgrade": "NULL_NA",
    "gnaf_pid": "GAVIC410893171"
   }
  },
  {
   "type": "Feature",
   "geometry": {
    "type": "Point",
    "coordinates": [
     145.14266195,
     -37.81568733
    ]
   },
   "properties": {
    "name": "2 SERVICE ROAD BLACKBURN 3130",
    "locID": "LOC000056433588",
    "tech": "HFC",
    "upgrade": "NULL_NA",
    "gnaf_pid": "GAVIC410893225"
   }
  },
  {
   "type": "Feature",
   "geometry": {
    "type": "Point",
    "coordinates": [
     145.162384,
     -37.817381
    ]
   },
   "properties": {
    "name": "UNIT 2, 31 LINDEN STREET BLACKBURN 3130",
    "locID": "LOC000021034309",
    "tech": "FTTC",
    "upgrade": "FTTP_SA",
    "gnaf_pid": "GAVIC410893926",
    "tech_change_status": "Eligible To Order"
   }
  },
  {
   "type": "Feature",
   "geometry": {
    "type": "Point",
    "coordinates": [
     145.161849,
     -37.812332
    ]
   },
   "properties": {
    "name": "UNIT 2, 3 ESDALE STREET BLACKBURN 3130",
    "locID": "LOC000090608569",
    "tech": "FTTC",
    "upgrade": "FTTP_SA",
    "gnaf_pid": "GAVIC410893944",
    "tech_change_status": "Eligible To Order"
   }
  },
  {
   "type": "Feature",
   "geometry": {
    "type": "Point",
    "coordinates": [
     145.14227,
     -37.812534
    ]
   },
   "properties": {
    "name": "18 DIXON GROVE BLACKBURN 3130",
    "locID": "LOC000060695890",
    "tech": "HFC",
    "upgrade": "NULL_NA",
    "gnaf_pid": "GAVIC410897356"
   }
  },
  {
   "type": "Feature",
   "geometry": {
    "type": "Point",
    "coordinates": [
     145.15205309,
     -37.81509658
    ]
   },
   "properties": {
    "name": "UNIT 17, 12 JOHN STREET BLACKBURN 3130",
    "locID": "LOC000071896849",
    "tech": "HFC",
    "upgrade": "NULL_NA",
    "gnaf_pid": "GAVIC410897398"
   }
  },
  {
   "type": "Feature",
   "geometry": {
    "type": "Point",
    "coordinates": [
     145.15211875,
     -37.81510381
    ]
   },
   "properties": {
    "name": "UNIT 18, 12 JOHN STREET BLACKBURN 3130",
    "locID": "LOC000071878420",
    "tech": "HFC",
    "upgrade": "NULL_NA",
    "gnaf_pid": "GAVIC410897412"
   }
  },
  {
   "type": "Feature",
   "geometry": {
    "type": "Point",
    "coordinates": [
     145.153821,
     -37.816898
    ]
   },
   "properties": {
    "name": "55A POPE ROAD BLACKBURN 3130",
    "locID": "LOC000107133131",
    "tech": "HFC",
    "upgrade": "NULL_NA",
    "gnaf_pid": "GAVIC410897413"
   }
  },
  {
   "type": "Feature",
   "geometry": {
    "type": "Point",
    "coordinates": [
     145.16286404,
     -37.82364036
    ]
   },
   "properties": {
    "name": "10 FULVIEW COURT BLACKBURN 3130",
    "locID": "LOC000047352891",
    "tech": "HFC",
    "upgrade": "NULL_NA",
    "gnaf_pid": "GAVIC410898254"
   }
  },
  {
   "type": "Feature",
   "geometry": {
    "type": "Point",
    "coordinates": [
     145.1406932,
     -37.82443979
    ]
   },
   "properties": {
    "name": "8A DERBY STREET BLACKBURN 3130",
    "locID": "LOC000013430839",
    "tech": "HFC",
    "upgrade": "NULL_NA",
    "gnaf_pid": "GAVIC410898271"
   }
  },
  {
   "type": "Feature",
   "geometry": {
    "type": "Point",
    "coordinates": [
     145.161463,
     -37.823321
    ]
   },
   "properties": {
    "name": "UNIT 3, 9 GWENDA AVENUE BLACKBURN 3130",
    "locID": "LOC000175459433",
    "tech": "HFC",
    "upgrade": "NULL_NA",
    "gnaf_pid": "GAVIC410898281"
   }
  },
  {
   "type": "Feature",
   "geometry": {
    "type": "Point",
    "coordinates": [
     145.15035532,
     -37.83098833
    ]
   },
   "properties": {
    "name": "17 LALWA STREET BLACKBURN 3130",
    "locID": "LOC000029658213",
    "tech": "HFC",
    "upgrade": "NULL_NA",
    "gnaf_pid": "GAVIC410898288"
   }
  },
  {
   "type": "Feature",
   "geometry": {
    "type": "Point",
    "coordinates": [
     145.13968544,
     -37.81527624
    ]
   },
   "properties": {
    "name": "442 MIDDLEBOROUGH ROAD BLACKBURN 3130",
    "locID": "LOC000080662772",
    "tech": "HFC",
    "upgrade": "NULL_NA",
    "gnaf_pid": "GAVIC410898387"
   }
  },
  {
   "type": "Feature",
   "geometry": {
    "type": "Point",
    "coordinates": [
     145.15173329,
     -37.82406129
    ]
   },
   "properties": {
    "name": "UNIT 2, 56 BLACKBURN ROAD BLACKBURN 3130",
    "locID": "LOC000038674199",
    "tech": "HFC",
    "upgrade": "NULL_NA",
    "gnaf_pid": "GAVIC410899244"
   }
  },
  {
   "type": "Feature",
   "geometry": {
    "type": "Point",
    "coordinates": [
     145.15669291,
     -37.8138148
    ]
   },
   "properties": {
    "name": "UNIT 1, 160-162 SURREY ROAD BLACKBURN 3130",
    "locID": "LOC000027680857",
    "tech": "HFC",
    "upgrade": "NULL_NA",
    "gnaf_pid": "GAVIC410900163"
   }
  },
  {
   "type": "Feature",
   "geometry": {
    "type": "Point",
    "coordinates": [
     145.14457965,
     -37.81674471
    ]
   },
   "properties": {
    "name": "18 BROOMHILL AVENUE BLACKBURN 3130",
    "locID": "LOC000182572583",
    "tech": "HFC",
    "upgrade": "NULL_NA",
    "gnaf_pid": "GAVIC410900203"
   }
  },
  {
   "type": "Feature",
   "geometry": {
    "type": "Point",
    "coordinates": [
     145.143898,
     -37.818997
    ]
   },
   "properties": {
    "name": "UNIT 2, 8 FRANKCOM STREET BLACKBURN 3130",
    "locID": "LOC000077433547",
    "tech": "HFC",
    "upgrade": "NULL_NA",
    "gnaf_pid": "GAVIC410900215"
   }
  },
  {
   "type": "Feature",
   "geometry": {
    "type": "Point",
    "coordinates": [
     145.14363376,
     -37.81675466
    ]
   },
   "properties": {
    "name": "5A BROOMHILL AVENUE BLACKBURN 3130",
    "locID": "LOC000069955562",
    "tech": "HFC",
    "upgrade": "NULL_NA",
    "gnaf_pid": "GAVIC410900254"
   }
  },
  {
   "type": "Feature",
   "geometry": {
    "type": "Point",
    "coordinates": [
     145.14363376,
     -37.81675466
    ]
   },
   "properties": {
    "name": "5 BROOMHILL AVENUE BLACKBURN 3130",
    "locID": "LOC000069640679",
    "tech": "HFC",
    "upgrade": "NULL_NA",
    "gnaf_pid": "GAVIC410901145"
   }
  },
  {
   "type": "Feature",
   "geometry": {
    "type": "Point",
    "coordinates": [
     145.16050531,
     -37.82207097
    ]
   },
   "properties": {
    "name": "20 GLEN EBOR AVENUE BLACKBURN 3130",
    "locID": "LOC000054120157",
    "tech": "HFC",
    "upgrade": "NULL_NA",
    "gnaf_pid": "GAVIC410901873"
   }
  },
  {
   "type": "Feature",
   "geometry": {
    "type": "Point",
    "coordinates": [
     145.153983,
     -37.830257
    ]
   },
   "properties": {
    "name": "20 EUSTACE STREET BLACKBURN 3130",
    "locID": "LOC000014334203",
    "tech": "HFC",
    "upgrade": "NULL_NA",
    "gnaf_pid": "GAVIC410902822"
   }
  },
  {
   "type": "Feature",
   "geometry": {
    "type": "Point",
    "coordinates": [
     145.14902021,
     -37.82916018
    ]
   },
   "properties": {
    "name": "101 MAIN STREET BLACKBURN 3130",
    "locID": "LOC000004303270",
    "tech": "HFC",
    "upgrade": "NULL_NA",
    "gnaf_pid": "GAVIC410902824"
   }
  },
  {
   "type": "Feature",
   "geometry": {
    "type": "Point",
    "coordinates": [
     145.15271214,
     -37.81461735
    ]
   },
   "properties": {
    "name": "UNIT 1, 12 JOHN STREET BLACKBURN 3130",
    "locID": "LOC000071880921",
    "tech": "HFC",
    "upgrade": "NULL_NA",
    "gnaf_pid": "GAVIC410902848"
   }
  },
  {
   "type": "Feature",
   "geometry": {
    "type": "Point",
    "coordinates": [
     145.14154314,
     -37.81086113
    ]
   },
   "properties": {
    "name": "14 DOULTON ROAD BLACKBURN 3130",
    "locID": "LOC000005156963",
    "tech": "HFC",
    "upgrade": "NULL_NA",
    "gnaf_pid": "GAVIC410902946"
   }
  },
  {
   "type": "Feature",
   "geometry": {
    "type": "Point",
    "coordinates": [
     145.15552886,
     -37.81306995
    ]
   },
   "properties": {
    "name": "UNIT 3, 30 COOTAMUNDRA CRESCENT BLACKBURN 3130",
    "locID": "LOC000089668321",
    "tech": "HFC",
    "upgrade": "NULL_NA",
    "gnaf_pid": "GAVIC410903764"
   }
  },
  {
   "type": "Feature",
   "geometry": {
    "type": "Point",
    "coordinates": [
     145.148525,
     -37.817278
    ]
   },
   "properties": {
    "name": "75A WHITEHORSE ROAD BLACKBURN 3130",
    "locID": "LOC000054259377",
    "tech": "HFC",
    "upgrade": "NULL_NA",
    "gnaf_pid": "GAVIC410904617"
   }
  },
  {
   "type": "Feature",
   "geometry": {
    "type": "Point",
    "coordinates": [
     145.14357346,
     -37.81317223
    ]
   },
   "properties": {
    "name": "1A HAMILTON AVENUE BLACKBURN 3130",
    "locID": "LOC000039843875",
    "tech": "HFC",
    "upgrade": "NULL_NA",
    "gnaf_pid": "GAVIC410905679"
   }
  },
  {
   "type": "Feature",
   "geometry": {
    "type": "Point",
    "coordinates": [
     145.13996474,
     -37.82008784
    ]
   },
   "properties": {
    "name": "UNIT 2, 22-24 WHITEHORSE ROAD BLACKBURN 3130",
    "locID": "LOC000107484055",
    "tech": "HFC",
    "upgrade": "NULL_NA",
    "gnaf_pid": "GAVIC410905694"
   }
  },
  {
   "type": "Feature",
   "geometry": {
    "type": "Point",
    "coordinates": [
     145.14796475,
     -37.82592296
    ]
   },
   "properties": {
    "name": "4A HILL STREET BLACKBURN 3130",
    "locID": "LOC000104633087",
    "tech": "HFC",
    "upgrade": "NULL_NA",
    "gnaf_pid": "GAVIC410906186"
   }
  },
  {
   "type": "Feature",
   "geometry": {
    "type": "Point",
    "coordinates": [
     145.14671575,
     -37.82665985
    ]
   },
   "properties": {
    "name": "20 BOONGARRY AVENUE BLACKBURN 3130",
    "locID": "LOC000073685395",
    "tech": "HFC",
    "upgrade": "NULL_NA",
    "gnaf_pid": "GAVIC410906203"
   }
  },
  {
   "type": "Feature",
   "geometry": {
    "type": "Point",
    "coordinates": [
     145.144225,
     -37.815705
    ]
   },
   "properties": {
    "name": "46A ELMHURST ROAD BLACKBURN 3130",
    "locID": "LOC000088623402",
    "tech": "HFC",
    "upgrade": "NULL_NA",
    "gnaf_pid": "GAVIC410906521"
   }
  },
  {
   "type": "Feature",
   "geometry": {
    "type": "Point",
    "coordinates": [
     145.13961145,
     -37.81578629
    ]
   },
   "properties": {
    "name": "438 MIDDLEBOROUGH ROAD BLACKBURN 3130",
    "locID": "LOC000028417889",
    "tech": "HFC",
    "upgrade": "NULL_NA",
    "gnaf_pid": "GAVIC410906581"
   }
  },
  {
   "type": "Feature",
   "geometry": {
    "type": "Point",
    "coordinates": [
     145.139311,
     -37.820945
    ]
   },
   "properties": {
    "name": "8 DORA AVENUE BLACKBURN 3130",
    "locID": "LOC000012619794",
    "tech": "HFC",
    "upgrade": "NULL_NA",
    "gnaf_pid": "GAVIC410906591"
   }
  },
  {
   "type": "Feature",
   "geometry": {
    "type": "Point",
    "coordinates": [
     145.16513799,
     -37.81770354
    ]
   },
   "properties": {
    "name": "UNIT 1, 15 BADENOCH STREET BLACKBURN 3130",
    "locID": "LOC000074564268",
    "tech": "FTTC",
    "upgrade": "FTTP_SA",
    "gnaf_pid": "GAVIC410907662",
    "tech_change_status": "Eligible To Order"
   }
  },
  {
   "type": "Feature",
   "geometry": {
    "type": "Point",
    "coordinates": [
     145.158357,
     -37.830788
    ]
   },
   "properties": {
    "name": "18 THE RIDGE BLACKBURN 3130",
    "locID": "LOC000123551134",
    "tech": "HFC",
    "upgrade": "NULL_NA",
    "gnaf_pid": "GAVIC410907711"
   }
  },
  {
   "type": "Feature",
   "geometry": {
    "type": "Point",
    "coordinates": [
     145.16553714,
     -37.83062351
    ]
   },
   "properties": {
    "name": "108A LAKE ROAD BLACKBURN 3130",
    "locID": "LOC000011826668",
    "tech": "HFC",
    "upgrade": "NULL_NA",
    "gnaf_pid": "GAVIC410908062"
   }
  },
  {
   "type": "Feature",
   "geometry": {
    "type": "Point",
    "coordinates": [
     145.15365243,
     -37.8233771
    ]
   },
   "properties": {
    "name": "6 GORDON CRESCENT BLACKBURN 3130",
    "locID": "LOC000103496523",
    "tech": "HFC",
    "upgrade": "NULL_NA",
    "gnaf_pid": "GAVIC410908218"
   }
  },
  {
   "type": "Feature",
   "geometry": {
    "type": "Point",
    "coordinates": [
     145.13705548,
     -37.82863899
    ]
   },
   "properties": {
    "name": "320 MIDDLEBOROUGH ROAD BLACKBURN 3130",
    "locID": "LOC000011869751",
    "tech": "HFC",
    "upgrade": "NULL_NA",
    "gnaf_pid": "GAVIC410908308"
   }
  },
  {
   "type": "Feature",
   "geometry": {
    "type": "Point",
    "coordinates": [
     145.1499133,
     -37.83146756
    ]
   },
   "properties": {
    "name": "UNIT 2, 18 LALWA STREET BLACKBURN 3130",
    "locID": "LOC000077320463",
    "tech": "HFC",
    "upgrade": "NULL_NA",
    "gnaf_pid": "GAVIC410908345"
   }
  },
  {
   "type": "Feature",
   "geometry": {
    "type": "Point",
    "coordinates": [
     145.1499133,
     -37.83146756
    ]
   },
   "properties": {
    "name": "UNIT 1, 18 LALWA STREET BLACKBURN 3130",
    "locID": "LOC000076929265",
    "tech": "HFC",
    "upgrade": "NULL_NA",
    "gnaf_pid": "GAVIC410908346"
   }
  },
  {
   "type": "Feature",
   "geometry": {
    "type": "Point",
    "coordinates": [
     145.14867153,
     -37.82875368
    ]
   },
   "properties": {
    "name": "78 MAIN STREET BLACKBURN 3130",
    "locID": "LOC000101022670",
    "tech": "HFC",
    "upgrade": "NULL_NA",
    "gnaf_pid": "GAVIC410908415"
   }
  },
  {
   "type": "Feature",
   "geometry": {
    "type": "Point",
    "coordinates": [
     145.14321235,
     -37.81879164
    ]
   },
   "properties": {
    "name": "UNIT 2, 46 WHITEHORSE ROAD BLACKBURN 3130",
    "locID": "LOC000004351953",
    "tech": "HFC",
    "upgrade": "NULL_NA",
    "gnaf_pid": "GAVIC410909183"
   }
  },
  {
   "type": "Feature",
   "geometry": {
    "type": "Point",
    "coordinates": [
     145.13949186,
     -37.81689895
    ]
   },
   "properties": {
    "name": "UNIT 3, 2A ATTUNGA STREET BLACKBURN 3130",
    "locID": "LOC000047261264",
    "tech": "HFC",
    "upgrade": "NULL_NA",
    "gnaf_pid": "GAVIC410909191"
   }
  },
  {
   "type": "Feature",
   "geometry": {
    "type": "Point",
    "coordinates": [
     145.14200965,
     -37.81661958
    ]
   },
   "properties": {
    "name": "UNIT 2, 5 DEWRANG CRESCENT BLACKBURN 3130",
    "locID": "LOC000010146152",
    "tech": "HFC",
    "upgrade": "NULL_NA",
    "gnaf_pid": "GAVIC410909194"
   }
  },
  {
   "type": "Feature",
   "geometry": {
    "type": "Point",
    "coordinates": [
     145.1421444,
     -37.81655844
    ]
   },
   "properties": {
    "name": "UNIT 3, 5 DEWRANG CRESCENT BLACKBURN 3130",
    "locID": "LOC000010148423",
    "tech": "HFC",
    "upgrade": "NULL_NA",
    "gnaf_pid": "GAVIC410909198"
   }
  },
  {
   "type": "Feature",
   "geometry": {
    "type": "Point",
    "coordinates": [
     145.159694,
     -37.81356
    ]
   },
   "properties": {
    "name": "1 HARTIGAN STREET BLACKBURN 3130",
    "locID": "LOC000026973777",
    "tech": "HFC",
    "upgrade": "NULL_NA",
    "gnaf_pid": "GAVIC410909200"
   }
  },
  {
   "type": "Feature",
   "geometry": {
    "type": "Point",
    "coordinates": [
     145.14395535,
     -37.82075863
    ]
   },
   "properties": {
    "name": "UNIT 1, 27 LABURNUM STREET BLACKBURN 3130",
    "locID": "LOC000103489509",
    "tech": "HFC",
    "upgrade": "NULL_NA",
    "gnaf_pid": "GAVIC410909221"
   }
  },
  {
   "type": "Feature",
   "geometry": {
    "type": "Point",
    "coordinates": [
     145.14223804,
     -37.81275024
    ]
   },
   "properties": {
    "name": "2A ERNEST STREET BLACKBURN 3130",
    "locID": "LOC000069644398",
    "tech": "HFC",
    "upgrade": "NULL_NA",
    "gnaf_pid": "GAVIC410909967"
   }
  },
  {
   "type": "Feature",
   "geometry": {
    "type": "Point",
    "coordinates": [
     145.141568,
     -37.812456
    ]
   },
   "properties": {
    "name": "10 DIXON GROVE BLACKBURN 3130",
    "locID": "LOC000023876734",
    "tech": "HFC",
    "upgrade": "NULL_NA",
    "gnaf_pid": "GAVIC410909980"
   }
  },
  {
   "type": "Feature",
   "geometry": {
    "type": "Point",
    "coordinates": [
     145.14190016,
     -37.82187206
    ]
   },
   "properties": {
    "name": "2E PAKENHAM STREET BLACKBURN 3130",
    "locID": "LOC000101354470",
    "tech": "HFC",
    "upgrade": "NULL_NA",
    "gnaf_pid": "GAVIC410910098"
   }
  },
  {
   "type": "Feature",
   "geometry": {
    "type": "Point",
    "coordinates": [
     145.13804153,
     -37.82265569
    ]
   },
   "properties": {
    "name": "5 PARK STREET BLACKBURN 3130",
    "locID": "LOC000084286243",
    "tech": "HFC",
    "upgrade": "NULL_NA",
    "gnaf_pid": "GAVIC410910100"
   }
  },
  {
   "type": "Feature",
   "geometry": {
    "type": "Point",
    "coordinates": [
     145.14137438,
     -37.8213136
    ]
   },
   "properties": {
    "name": "UNIT 1, 4 SALISBURY AVENUE BLACKBURN 3130",
    "locID": "LOC000050024136",
    "tech": "HFC",
    "upgrade": "NULL_NA",
    "gnaf_pid": "GAVIC410910101"
   }
  },
  {
   "type": "Feature",
   "geometry": {
    "type": "Point",
    "coordinates": [
     145.1418722,
     -37.81670635
    ]
   },
   "properties": {
    "name": "UNIT 1, 5 DEWRANG CRESCENT BLACKBURN 3130",
    "locID": "LOC000010305957",
    "tech": "HFC",
    "upgrade": "NULL_NA",
    "gnaf_pid": "GAVIC410910147"
   }
  },
  {
   "type": "Feature",
   "geometry": {
    "type": "Point",
    "coordinates": [
     145.14602369,
     -37.8208075
    ]
   },
   "properties": {
    "name": "41B LABURNUM STREET BLACKBURN 3130",
    "locID": "LOC000066635369",
    "tech": "HFC",
    "upgrade": "NULL_NA",
    "gnaf_pid": "GAVIC410910250"
   }
  },
  {
   "type": "Feature",
   "geometry": {
    "type": "Point",
    "coordinates": [
     145.1417678,
     -37.82163344
    ]
   },
   "properties": {
    "name": "2B PAKENHAM STREET BLACKBURN 3130",
    "locID": "LOC000101663244",
    "tech": "HFC",
    "upgrade": "NULL_NA",
    "gnaf_pid": "GAVIC410910265"
   }
  },
  {
   "type": "Feature",
   "geometry": {
    "type": "Point",
    "coordinates": [
     145.14870607,
     -37.82362742
    ]
   },
   "properties": {
    "name": "39A FUCHSIA STREET BLACKBURN 3130",
    "locID": "LOC000046235526",
    "tech": "HFC",
    "upgrade": "NULL_NA",
    "gnaf_pid": "GAVIC410910271"
   }
  },
  {
   "type": "Feature",
   "geometry": {
    "type": "Point",
    "coordinates": [
     145.14993401,
     -37.82297231
    ]
   },
   "properties": {
    "name": "46 THE AVENUE BLACKBURN 3130",
    "locID": "LOC000056074133",
    "tech": "HFC",
    "upgrade": "NULL_NA",
    "gnaf_pid": "GAVIC410910769"
   }
  },
  {
   "type": "Feature",
   "geometry": {
    "type": "Point",
    "coordinates": [
     145.16109341,
     -37.81694749
    ]
   },
   "properties": {
    "name": "45A ELDER STREET BLACKBURN 3130",
    "locID": "LOC000088063397",
    "tech": "FTTC",
    "upgrade": "FTTP_NA",
    "gnaf_pid": "GAVIC410910926",
    "tech_change_status": "MDU Complex Eligible To Apply"
   }
  },
  {
   "type": "Feature",
   "geometry": {
    "type": "Point",
    "coordinates": [
     145.15519227,
     -37.81645495
    ]
   },
   "properties": {
    "name": "10 CLARE STREET BLACKBURN 3130",
    "locID": "LOC000032024324",
    "tech": "HFC",
    "upgrade": "NULL_NA",
    "gnaf_pid": "GAVIC410910950"
   }
  },
  {
   "type": "Feature",
   "geometry": {
    "type": "Point",
    "coordinates": [
     145.1526403,
     -37.8141669
    ]
   },
   "properties": {
    "name": "UNIT 1, 11 JOHN STREET BLACKBURN 3130",
    "locID": "LOC000097032730",
    "tech": "HFC",
    "upgrade": "NULL_NA",
    "gnaf_pid": "GAVIC410910951"
   }
  },
  {
   "type": "Feature",
   "geometry": {
    "type": "Point",
    "coordinates": [
     145.14986003,
     -37.81886715
    ]
   },
   "properties": {
    "name": "14A STATION STREET BLACKBURN 3130",
    "locID": "LOC000027150517",
    "tech": "HFC",
    "upgrade": "NULL_NA",
    "gnaf_pid": "GAVIC410910977"
   }
  },
  {
   "type": "Feature",
   "geometry": {
    "type": "Point",
    "coordinates": [
     145.15072013,
     -37.8208548
    ]
   },
   "properties": {
    "name": "80C SOUTH PARADE BLACKBURN 3130",
    "locID": "LOC000182552898",
    "tech": "HFC",
    "upgrade": "NULL_NA",
    "gnaf_pid": "GAVIC410910988"
   }
  },
  {
   "type": "Feature",
   "geometry": {
    "type": "Point",
    "coordinates": [
     145.140908,
     -37.821289
    ]
   },
   "properties": {
    "name": "UNIT 2, 4 SALISBURY AVENUE BLACKBURN 3130",
    "locID": "LOC000049867598",
    "tech": "HFC",
    "upgrade": "NULL_NA",
    "gnaf_pid": "GAVIC410910996"
   }
  },
  {
   "type": "Feature",
   "geometry": {
    "type": "Point",
    "coordinates": [
     145.14191445,
     -37.82177934
    ]
   },
   "properties": {
    "name": "2D PAKENHAM STREET BLACKBURN 3130",
    "locID": "LOC000101229639",
    "tech": "HFC",
    "upgrade": "NULL_NA",
    "gnaf_pid": "GAVIC410911002"
   }
  },
  {
   "type": "Feature",
   "geometry": {
    "type": "Point",
    "coordinates": [
     145.15291645,
     -37.81418201
    ]
   },
   "properties": {
    "name": "UNIT 1, 13 JOHN STREET BLACKBURN 3130",
    "locID": "LOC000060825747",
    "tech": "HFC",
    "upgrade": "NULL_NA",
    "gnaf_pid": "GAVIC410911013"
   }
  },
  {
   "type": "Feature",
   "geometry": {
    "type": "Point",
    "coordinates": [
     145.15262706,
     -37.82668701
    ]
   },
   "properties": {
    "name": "55 BLACKBURN ROAD BLACKBURN 3130",
    "locID": "LOC000106294561",
    "tech": "HFC",
    "upgrade": "NULL_NA",
    "gnaf_pid": "GAVIC410911179"
   }
  },
  {
   "type": "Feature",
   "geometry": {
    "type": "Point",
    "coordinates": [
     145.161463,
     -37.823321
    ]
   },
   "properties": {
    "name": "UNIT 2, 9 GWENDA AVENUE BLACKBURN 3130",
    "locID": "LOC000175459433",
    "tech": "HFC",
    "upgrade": "NULL_NA",
    "gnaf_pid": "GAVIC410911884"
   }
  },
  {
   "type": "Feature",
   "geometry": {
    "type": "Point",
    "coordinates": [
     145.163945,
     -37.816262
    ]
   },
   "properties": {
    "name": "45A GOODWIN STREET BLACKBURN 3130",
    "locID": "LOC000031126603",
    "tech": "FTTP",
    "upgrade": "NULL_NA",
    "gnaf_pid": "GAVIC410912152"
   }
  },
  {
   "type": "Feature",
   "geometry": {
    "type": "Point",
    "coordinates": [
     145.1540137,
     -37.82229175
    ]
   },
   "properties": {
    "name": "1A CLARKE STREET BLACKBURN 3130",
    "locID": "LOC000080254012",
    "tech": "HFC",
    "upgrade": "NULL_NA",
    "gnaf_pid": "GAVIC410912215"
   }
  },
  {
   "type": "Feature",
   "geometry": {
    "type": "Point",
    "coordinates": [
     145.13849106,
     -37.82059003
    ]
   },
   "properties": {
    "name": "390A MIDDLEBOROUGH ROAD BLACKBURN 3130",
    "locID": "LOC000109197589",
    "tech": "HFC",
    "upgrade": "NULL_NA",
    "gnaf_pid": "GAVIC410912531"
   }
  },
  {
   "type": "Feature",
   "geometry": {
    "type": "Point",
    "coordinates": [
     145.14051273,
     -37.81065466
    ]
   },
   "properties": {
    "name": "UNIT 1, 494 MIDDLEBOROUGH ROAD BLACKBURN 3130",
    "locID": "LOC000095557061",
    "tech": "HFC",
    "upgrade": "NULL_NA",
    "gnaf_pid": "GAVIC410912547"
   }
  },
  {
   "type": "Feature",
   "geometry": {
    "type": "Point",
    "coordinates": [
     145.15886579,
     -37.81560588
    ]
   },
   "properties": {
    "name": "48 MAPLE STREET BLACKBURN 3130",
    "locID": "LOC000071997855",
    "tech": "FTTP",
    "upgrade": "NULL_NA",
    "gnaf_pid": "GAVIC410912551"
   }
  },
  {
   "type": "Feature",
   "geometry": {
    "type": "Point",
    "coordinates": [
     145.1401083,
     -37.815063
    ]
   },
   "properties": {
    "name": "2A PATRICIA ROAD BLACKBURN 3130",
    "locID": "LOC000013003677",
    "tech": "HFC",
    "upgrade": "NULL_NA",
    "gnaf_pid": "GAVIC410912729"
   }
  },
  {
   "type": "Feature",
   "geometry": {
    "type": "Point",
    "coordinates": [
     145.162227,
     -37.817384
    ]
   },
   "properties": {
    "name": "UNIT 1, 31 LINDEN STREET BLACKBURN 3130",
    "locID": "LOC000021028431",
    "tech": "FTTP",
    "upgrade": "NULL_NA",
    "gnaf_pid": "GAVIC410912741"
   }
  },
  {
   "type": "Feature",
   "geometry": {
    "type": "Point",
    "coordinates": [
     145.162517,
     -37.817419
    ]
   },
   "properties": {
    "name": "UNIT 3, 31 LINDEN STREET BLACKBURN 3130",
    "locID": "LOC000021078621",
    "tech": "FTTP",
    "upgrade": "NULL_NA",
    "gnaf_pid": "GAVIC410912742"
   }
  },
  {
   "type": "Feature",
   "geometry": {
    "type": "Point",
    "coordinates": [
     145.15584621,
     -37.8160963
    ]
   },
   "properties": {
    "name": "UNIT 2, 11 CLARE STREET BLACKBURN 3130",
    "locID": "LOC000079206470",
    "tech": "HFC",
    "upgrade": "NULL_NA",
    "gnaf_pid": "GAVIC410912755"
   }
  },
  {
   "type": "Feature",
   "geometry": {
    "type": "Point",
    "coordinates": [
     145.155227,
     -37.816325
    ]
   },
   "properties": {
    "name": "12 CLARE STREET BLACKBURN 3130",
    "locID": "LOC000054150890",
    "tech": "HFC",
    "upgrade": "NULL_NA",
    "gnaf_pid": "GAVIC410912757"
   }
  },
  {
   "type": "Feature",
   "geometry": {
    "type": "Point",
    "coordinates": [
     145.14803137,
     -37.82052539
    ]
   },
   "properties": {
    "name": "52 SOUTH PARADE BLACKBURN 3130",
    "locID": "LOC000076020173",
    "tech": "HFC",
    "upgrade": "NULL_NA",
    "gnaf_pid": "GAVIC410912779"
   }
  },
  {
   "type": "Feature",
   "geometry": {
    "type": "Point",
    "coordinates": [
     145.1416482,
     -37.82155134
    ]
   },
   "properties": {
    "name": "2A PAKENHAM STREET BLACKBURN 3130",
    "locID": "LOC000101629257",
    "tech": "HFC",
    "upgrade": "NULL_NA",
    "gnaf_pid": "GAVIC410912833"
   }
  },
  {
   "type": "Feature",
   "geometry": {
    "type": "Point",
    "coordinates": [
     145.1415891,
     -37.82175166
    ]
   },
   "properties": {
    "name": "2C PAKENHAM STREET BLACKBURN 3130",
    "locID": "LOC000101744515",
    "tech": "HFC",
    "upgrade": "NULL_NA",
    "gnaf_pid": "GAVIC410913096"
   }
  },
  {
   "type": "Feature",
   "geometry": {
    "type": "Point",
    "coordinates": [
     145.15892509,
     -37.81543988
    ]
   },
   "properties": {
    "name": "46 MAPLE STREET BLACKBURN 3130",
    "locID": "LOC000026736569",
    "tech": "FTTC",
    "upgrade": "FTTP_SA",
    "gnaf_pid": "GAVIC410913188",
    "tech_change_status": "Eligible To Order"
   }
  },
  {
   "type": "Feature",
   "geometry": {
    "type": "Point",
    "coordinates": [
     145.158197,
     -37.831943
    ]
   },
   "properties": {
    "name": "22 MASONS ROAD BLACKBURN 3130",
    "locID": "LOC000108216480",
    "tech": "HFC",
    "upgrade": "NULL_NA",
    "gnaf_pid": "GAVIC410913409"
   }
  },
  {
   "type": "Feature",
   "geometry": {
    "type": "Point",
    "coordinates": [
     145.140777,
     -37.820022
    ]
   },
   "properties": {
    "name": "10A LABURNUM STREET BLACKBURN 3130",
    "locID": "LOC000079004148",
    "tech": "HFC",
    "upgrade": "NULL_NA",
    "gnaf_pid": "GAVIC410913689"
   }
  },
  {
   "type": "Feature",
   "geometry": {
    "type": "Point",
    "coordinates": [
     145.1414,
     -37.817364
    ]
   },
   "properties": {
    "name": "UNIT 2, 6 DEWRANG CRESCENT BLACKBURN 3130",
    "locID": "LOC000123525197",
    "tech": "HFC",
    "upgrade": "NULL_NA",
    "gnaf_pid": "GAVIC410913692"
   }
  },
  {
   "type": "Feature",
   "geometry": {
    "type": "Point",
    "coordinates": [
     145.1414,
     -37.817364
    ]
   },
   "properties": {
    "name": "UNIT 1, 6 DEWRANG CRESCENT BLACKBURN 3130",
    "locID": "LOC000027605436",
    "tech": "HFC",
    "upgrade": "NULL_NA",
    "gnaf_pid": "GAVIC410913706"
   }
  },
  {
   "type": "Feature",
   "geometry": {
    "type": "Point",
    "coordinates": [
     145.166882,
     -37.828848
    ]
   },
   "properties": {
    "name": "12 GERALD STREET BLACKBURN 3130",
    "locID": "LOC000001925889",
    "tech": "HFC",
    "upgrade": "NULL_NA",
    "gnaf_pid": "GAVIC410913855"
   }
  },
  {
   "type": "Feature",
   "geometry": {
    "type": "Point",
    "coordinates": [
     145.14439915,
     -37.81129001
    ]
   },
   "properties": {
    "name": "UNIT 2, 16 BEVERLEY CRESCENT BLACKBURN 3130",
    "locID": "LOC000061901500",
    "tech": "HFC",
    "upgrade": "NULL_NA",
    "gnaf_pid": "GAVIC410913892"
   }
  },
  {
   "type": "Feature",
   "geometry": {
    "type": "Point",
    "coordinates": [
     145.16429896,
     -37.83356595
    ]
   },
   "properties": {
    "name": "UNIT 1, 231-239 CANTERBURY ROAD BLACKBURN 3130",
    "locID": "LOC000082482888",
    "tech": "HFC",
    "upgrade": "NULL_NA",
    "gnaf_pid": "GAVIC410913909"
   }
  },
  {
   "type": "Feature",
   "geometry": {
    "type": "Point",
    "coordinates": [
     145.15816557,
     -37.82825302
    ]
   },
   "properties": {
    "name": "9 NAUGHTON GROVE BLACKBURN 3130",
    "locID": "LOC000081915274",
    "tech": "HFC",
    "upgrade": "NULL_NA",
    "gnaf_pid": "GAVIC410913926"
   }
  },
  {
   "type": "Feature",
   "geometry": {
    "type": "Point",
    "coordinates": [
     145.141816,
     -37.813462
    ]
   },
   "properties": {
    "name": "10B ERNEST STREET BLACKBURN 3130",
    "locID": "LOC000082718754",
    "tech": "HFC",
    "upgrade": "NULL_NA",
    "gnaf_pid": "GAVIC410914465"
   }
  },
  {
   "type": "Feature",
   "geometry": {
    "type": "Point",
    "coordinates": [
     145.13907528,
     -37.8183836
    ]
   },
   "properties": {
    "name": "408 MIDDLEBOROUGH ROAD BLACKBURN 3130",
    "locID": "LOC000123582649",
    "tech": "HFC",
    "upgrade": "NULL_NA",
    "gnaf_pid": "GAVIC410914475"
   }
  },
  {
   "type": "Feature",
   "geometry": {
    "type": "Point",
    "coordinates": [
     145.14001543,
     -37.82012836
    ]
   },
   "properties": {
    "name": "UNIT 1, 22-24 WHITEHORSE ROAD BLACKBURN 3130",
    "locID": "LOC000109873596",
    "tech": "HFC",
    "upgrade": "NULL_NA",
    "gnaf_pid": "GAVIC410914582"
   }
  },
  {
   "type": "Feature",
   "geometry": {
    "type": "Point",
    "coordinates": [
     145.14051273,
     -37.81065466
    ]
   },
   "properties": {
    "name": "UNIT 2, 494 MIDDLEBOROUGH ROAD BLACKBURN 3130",
    "locID": "LOC000095230487",
    "tech": "HFC",
    "upgrade": "NULL_NA",
    "gnaf_pid": "GAVIC410914599"
   }
  },
  {
   "type": "Feature",
   "geometry": {
    "type": "Point",
    "coordinates": [
     145.146187,
     -37.81884985
    ]
   },
   "properties": {
    "name": "UNIT 1, 4 LITHGOW AVENUE BLACKBURN 3130",
    "locID": "LOC000072039763",
    "tech": "HFC",
    "upgrade": "NULL_NA",
    "gnaf_pid": "GAVIC410914655"
   }
  },
  {
   "type": "Feature",
   "geometry": {
    "type": "Point",
    "coordinates": [
     145.15127106,
     -37.8133446
    ]
   },
   "properties": {
    "name": "UNIT 1, 37 WILLIAMS ROAD BLACKBURN 3130",
    "locID": "LOC000005245968",
    "tech": "HFC",
    "upgrade": "NULL_NA",
    "gnaf_pid": "GAVIC410914783"
   }
  },
  {
   "type": "Feature",
   "geometry": {
    "type": "Point",
    "coordinates": [
     145.15556895,
     -37.82290315
    ]
   },
   "properties": {
    "name": "24 CENTRAL ROAD BLACKBURN 3130",
    "locID": "LOC000172364564",
    "tech": "HFC",
    "upgrade": "NULL_NA",
    "gnaf_pid": "GAVIC410915268"
   }
  },
  {
   "type": "Feature",
   "geometry": {
    "type": "Point",
    "coordinates": [
     145.14151409,
     -37.81267831
    ]
   },
   "properties": {
    "name": "1A WRIGHT STREET BLACKBURN 3130",
    "locID": "LOC000013668458",
    "tech": "HFC",
    "upgrade": "NULL_NA",
    "gnaf_pid": "GAVIC410915533"
   }
  },
  {
   "type": "Feature",
   "geometry": {
    "type": "Point",
    "coordinates": [
     145.161463,
     -37.823321
    ]
   },
   "properties": {
    "name": "UNIT 1, 9 GWENDA AVENUE BLACKBURN 3130",
    "locID": "LOC000175459433",
    "tech": "HFC",
    "upgrade": "NULL_NA",
    "gnaf_pid": "GAVIC410915928"
   }
  },
  {
   "type": "Feature",
   "geometry": {
    "type": "Point",
    "coordinates": [
     145.14840494,
     -37.82870234
    ]
   },
   "properties": {
    "name": "2A MOLLETON STREET BLACKBURN 3130",
    "locID": "LOC000001946436",
    "tech": "HFC",
    "upgrade": "NULL_NA",
    "gnaf_pid": "GAVIC410916224"
   }
  },
  {
   "type": "Feature",
   "geometry": {
    "type": "Point",
    "coordinates": [
     145.14795,
     -37.821624
    ]
   },
   "properties": {
    "name": "56A LABURNUM STREET BLACKBURN 3130",
    "locID": "LOC000123525052",
    "tech": "HFC",
    "upgrade": "NULL_NA",
    "gnaf_pid": "GAVIC410916252"
   }
  },
  {
   "type": "Feature",
   "geometry": {
    "type": "Point",
    "coordinates": [
     145.14744661,
     -37.81332475
    ]
   },
   "properties": {
    "name": "41 STANLEY GROVE BLACKBURN 3130",
    "locID": "LOC000016858674",
    "tech": "HFC",
    "upgrade": "NULL_NA",
    "gnaf_pid": "GAVIC410916510"
   }
  },
  {
   "type": "Feature",
   "geometry": {
    "type": "Point",
    "coordinates": [
     145.15337133,
     -37.82734439
    ]
   },
   "properties": {
    "name": "49 ALANDALE ROAD BLACKBURN 3130",
    "locID": "LOC000016519784",
    "tech": "HFC",
    "upgrade": "NULL_NA",
    "gnaf_pid": "GAVIC410916592"
   }
  },
  {
   "type": "Feature",
   "geometry": {
    "type": "Point",
    "coordinates": [
     145.15906,
     -37.832606
    ]
   },
   "properties": {
    "name": "4 LAGOONA COURT BLACKBURN 3130",
    "locID": "LOC000175460558",
    "tech": "HFC",
    "upgrade": "NULL_NA",
    "gnaf_pid": "GAVIC410916625"
   }
  },
  {
   "type": "Feature",
   "geometry": {
    "type": "Point",
    "coordinates": [
     145.15269839,
     -37.8147716
    ]
   },
   "properties": {
    "name": "UNIT 2, 12 JOHN STREET BLACKBURN 3130",
    "locID": "LOC000071599977",
    "tech": "HFC",
    "upgrade": "NULL_NA",
    "gnaf_pid": "GAVIC410917343"
   }
  },
  {
   "type": "Feature",
   "geometry": {
    "type": "Point",
    "coordinates": [
     145.15626408,
     -37.82633995
    ]
   },
   "properties": {
    "name": "20 ALANDALE ROAD BLACKBURN 3130",
    "locID": "LOC000006948563",
    "tech": "HFC",
    "upgrade": "NULL_NA",
    "gnaf_pid": "GAVIC410917987"
   }
  },
  {
   "type": "Feature",
   "geometry": {
    "type": "Point",
    "coordinates": [
     145.14746797,
     -37.82460677
    ]
   },
   "properties": {
    "name": "23 LINUM STREET BLACKBURN 3130",
    "locID": "LOC000021896211",
    "tech": "HFC",
    "upgrade": "NULL_NA",
    "gnaf_pid": "GAVIC410918042"
   }
  },
  {
   "type": "Feature",
   "geometry": {
    "type": "Point",
    "coordinates": [
     145.1408064,
     -37.8241797
    ]
   },
   "properties": {
    "name": "8 DERBY STREET BLACKBURN 3130",
    "locID": "LOC000013659543",
    "tech": "HFC",
    "upgrade": "NULL_NA",
    "gnaf_pid": "GAVIC410918062"
   }
  },
  {
   "type": "Feature",
   "geometry": {
    "type": "Point",
    "coordinates": [
     145.16626262,
     -37.83038284
    ]
   },
   "properties": {
    "name": "115 LAKE ROAD BLACKBURN 3130",
    "locID": "LOC000021288832",
    "tech": "HFC",
    "upgrade": "NULL_NA",
    "gnaf_pid": "GAVIC410918377"
   }
  },
  {
   "type": "Feature",
   "geometry": {
    "type": "Point",
    "coordinates": [
     145.14156731,
     -37.81071448
    ]
   },
   "properties": {
    "name": "12 DOULTON ROAD BLACKBURN 3130",
    "locID": "LOC000048857728",
    "tech": "HFC",
    "upgrade": "NULL_NA",
    "gnaf_pid": "GAVIC410918547"
   }
  },
  {
   "type": "Feature",
   "geometry": {
    "type": "Point",
    "coordinates": [
     145.148422,
     -37.815412
    ]
   },
   "properties": {
    "name": "19A HAROLD STREET BLACKBURN 3130",
    "locID": "LOC000100889191",
    "tech": "HFC",
    "upgrade": "NULL_NA",
    "gnaf_pid": "GAVIC410918999"
   }
  },
  {
   "type": "Feature",
   "geometry": {
    "type": "Point",
    "coordinates": [
     145.161849,
     -37.812332
    ]
   },
   "properties": {
    "name": "UNIT 1, 3 ESDALE STREET BLACKBURN 3130",
    "locID": "LOC000090665358",
    "tech": "FTTC",
    "upgrade": "FTTP_SA",
    "gnaf_pid": "GAVIC410919006",
    "tech_change_status": "Eligible To Order"
   }
  },
  {
   "type": "Feature",
   "geometry": {
    "type": "Point",
    "coordinates": [
     145.15921205,
     -37.8312752
    ]
   },
   "properties": {
    "name": "9 THE RIDGE BLACKBURN 3130",
    "locID": "LOC000024353922",
    "tech": "HFC",
    "upgrade": "NULL_NA",
    "gnaf_pid": "GAVIC410919045"
   }
  },
  {
   "type": "Feature",
   "geometry": {
    "type": "Point",
    "coordinates": [
     145.163945,
     -37.816262
    ]
   },
   "properties": {
    "name": "45 GOODWIN STREET BLACKBURN 3130",
    "locID": "LOC000031139691",
    "tech": "FTTC",
    "upgrade": "FTTP_SA",
    "gnaf_pid": "GAVIC410919059",
    "tech_change_status": "Eligible To Order"
   }
  },
  {
   "type": "Feature",
   "geometry": {
    "type": "Point",
    "coordinates": [
     145.140281,
     -37.812028
    ]
   },
   "properties": {
    "name": "UNIT 1, 478 MIDDLEBOROUGH ROAD BLACKBURN 3130",
    "locID": "LOC000057470172",
    "tech": "HFC",
    "upgrade": "NULL_NA",
    "gnaf_pid": "GAVIC410919165"
   }
  },
  {
   "type": "Feature",
   "geometry": {
    "type": "Point",
    "coordinates": [
     145.1448242,
     -37.81529285
    ]
   },
   "properties": {
    "name": "18 KINKORA ROAD BLACKBURN 3130",
    "locID": "LOC000004469479",
    "tech": "HFC",
    "upgrade": "NULL_NA",
    "gnaf_pid": "GAVIC410919176"
   }
  },
  {
   "type": "Feature",
   "geometry": {
    "type": "Point",
    "coordinates": [
     145.15268012,
     -37.82289526
    ]
   },
   "properties": {
    "name": "41 BLACKBURN ROAD BLACKBURN 3130",
    "locID": "LOC000001953623",
    "tech": "HFC",
    "upgrade": "NULL_NA",
    "gnaf_pid": "GAVIC410919199"
   }
  },
  {
   "type": "Feature",
   "geometry": {
    "type": "Point",
    "coordinates": [
     145.1492169,
     -37.81368616
    ]
   },
   "properties": {
    "name": "40A STANLEY GROVE BLACKBURN 3130",
    "locID": "LOC000106819601",
    "tech": "HFC",
    "upgrade": "NULL_NA",
    "gnaf_pid": "GAVIC410919844"
   }
  },
  {
   "type": "Feature",
   "geometry": {
    "type": "Point",
    "coordinates": [
     145.14119915,
     -37.81070005
    ]
   },
   "properties": {
    "name": "12A DOULTON ROAD BLACKBURN 3130",
    "locID": "LOC000049035294",
    "tech": "HFC",
    "upgrade": "NULL_NA",
    "gnaf_pid": "GAVIC410919850"
   }
  },
  {
   "type": "Feature",
   "geometry": {
    "type": "Point",
    "coordinates": [
     145.15490732,
     -37.81740576
    ]
   },
   "properties": {
    "name": "161A WHITEHORSE ROAD BLACKBURN 3130",
    "locID": "LOC000047952644",
    "tech": "HFC",
    "upgrade": "NULL_NA",
    "gnaf_pid": "GAVIC410919869"
   }
  },
  {
   "type": "Feature",
   "geometry": {
    "type": "Point",
    "coordinates": [
     145.154975,
     -37.817406
    ]
   },
   "properties": {
    "name": "UNIT 1, 163 WHITEHORSE ROAD BLACKBURN 3130",
    "locID": "LOC000044761617",
    "tech": "HFC",
    "upgrade": "NULL_NA",
    "gnaf_pid": "GAVIC410919887"
   }
  },
  {
   "type": "Feature",
   "geometry": {
    "type": "Point",
    "coordinates": [
     145.14410329,
     -37.82081397
    ]
   },
   "properties": {
    "name": "UNIT 1, 27A LABURNUM STREET BLACKBURN 3130",
    "locID": "LOC000103166678",
    "tech": "HFC",
    "upgrade": "NULL_NA",
    "gnaf_pid": "GAVIC410920093"
   }
  },
  {
   "type": "Feature",
   "geometry": {
    "type": "Point",
    "coordinates": [
     145.154978,
     -37.816301
    ]
   },
   "properties": {
    "name": "41 FRANCIS STREET BLACKBURN 3130",
    "locID": "LOC000063427280",
    "tech": "HFC",
    "upgrade": "NULL_NA",
    "gnaf_pid": "GAVIC410920762"
   }
  },
  {
   "type": "Feature",
   "geometry": {
    "type": "Point",
    "coordinates": [
     145.145982,
     -37.821044
    ]
   },
   "properties": {
    "name": "41A LABURNUM STREET BLACKBURN 3130",
    "locID": "LOC000066883616",
    "tech": "HFC",
    "upgrade": "NULL_NA",
    "gnaf_pid": "GAVIC410920789"
   }
  },
  {
   "type": "Feature",
   "geometry": {
    "type": "Point",
    "coordinates": [
     145.13937418,
     -37.82806615
    ]
   },
   "properties": {
    "name": "9 AMERY AVENUE BLACKBURN 3130",
    "locID": "LOC000033626606",
    "tech": "HFC",
    "upgrade": "NULL_NA",
    "gnaf_pid": "GAVIC410920861"
   }
  },
  {
   "type": "Feature",
   "geometry": {
    "type": "Point",
    "coordinates": [
     145.16608172,
     -37.81280655
    ]
   },
   "properties": {
    "name": "37 ESDALE STREET BLACKBURN 3130",
    "locID": "LOC000041324225",
    "tech": "FTTC",
    "upgrade": "FTTP_SA",
    "gnaf_pid": "GAVIC410921061",
    "tech_change_status": "Eligible To Order"
   }
  },
  {
   "type": "Feature",
   "geometry": {
    "type": "Point",
    "coordinates": [
     145.15398185,
     -37.82453454
    ]
   },
   "properties": {
    "name": "UNIT 1, 12 WOLSELEY CRESCENT BLACKBURN 3130",
    "locID": "LOC000081994498",
    "tech": "HFC",
    "upgrade": "NULL_NA",
    "gnaf_pid": "GAVIC410921336"
   }
  },
  {
   "type": "Feature",
   "geometry": {
    "type": "Point",
    "coordinates": [
     145.15202,
     -37.824101
    ]
   },
   "properties": {
    "name": "UNIT 1, 56 BLACKBURN ROAD BLACKBURN 3130",
    "locID": "LOC000038445856",
    "tech": "HFC",
    "upgrade": "NULL_NA",
    "gnaf_pid": "GAVIC413386683"
   }
  },
  {
   "type": "Feature",
   "geometry": {
    "type": "Point",
    "coordinates": [
     145.153249,
     -37.819891
    ]
   },
   "properties": {
    "name": "3 BLACKBURN ROAD BLACKBURN 3130",
    "locID": "LOC000114204104",
    "tech": "HFC",
    "upgrade": "NULL_NA",
    "gnaf_pid": "GAVIC413391225"
   }
  },
  {
   "type": "Feature",
   "geometry": {
    "type": "Point",
    "coordinates": [
     145.15324,
     -37.819948
    ]
   },
   "properties": {
    "name": "7 BLACKBURN ROAD BLACKBURN 3130",
    "locID": "LOC000039126443",
    "tech": "HFC",
    "upgrade": "NULL_NA",
    "gnaf_pid": "GAVIC413391226"
   }
  },
  {
   "type": "Feature",
   "geometry": {
    "type": "Point",
    "coordinates": [
     145.15262706,
     -37.82668701
    ]
   },
   "properties": {
    "name": "19 BLACKBURN ROAD BLACKBURN 3130",
    "locID": "LOC000055921495",
    "tech": "HFC",
    "upgrade": "NULL_NA",
    "gnaf_pid": "GAVIC413391227"
   }
  },
  {
   "type": "Feature",
   "geometry": {
    "type": "Point",
    "coordinates": [
     145.15256989,
     -37.8209379
    ]
   },
   "properties": {
    "name": "UNIT 5, 20 BLACKBURN ROAD BLACKBURN 3130",
    "locID": "LOC000084774475",
    "tech": "HFC",
    "upgrade": "NULL_NA",
    "gnaf_pid": "GAVIC413391229"
   }
  },
  {
   "type": "Feature",
   "geometry": {
    "type": "Point",
    "coordinates": [
     145.15463925,
     -37.83026048
    ]
   },
   "properties": {
    "name": "131 BLACKBURN ROAD BLACKBURN 3130",
    "locID": "LOC000060493993",
    "tech": "HFC",
    "upgrade": "NULL_NA",
    "gnaf_pid": "GAVIC413391239"
   }
  },
  {
   "type": "Feature",
   "geometry": {
    "type": "Point",
    "coordinates": [
     145.15404878,
     -37.83022107
    ]
   },
   "properties": {
    "name": "118 BLACKBURN ROAD BLACKBURN 3130",
    "locID": "LOC000123543521",
    "tech": "HFC",
    "upgrade": "NULL_NA",
    "gnaf_pid": "GAVIC413391240"
   }
  },
  {
   "type": "Feature",
   "geometry": {
    "type": "Point",
    "coordinates": [
     145.15215921,
     -37.82333574
    ]
   },
   "properties": {
    "name": "48 BLACKBURN ROAD BLACKBURN 3130",
    "locID": "LOC000004373513",
    "tech": "HFC",
    "upgrade": "NULL_NA",
    "gnaf_pid": "GAVIC413395790"
   }
  },
  {
   "type": "Feature",
   "geometry": {
    "type": "Point",
    "coordinates": [
     145.14214071,
     -37.8164046
    ]
   },
   "properties": {
    "name": "UNIT 4, 5 DEWRANG CRESCENT BLACKBURN 3130",
    "locID": "LOC000010100031",
    "tech": "HFC",
    "upgrade": "NULL_NA",
    "gnaf_pid": "GAVIC413403214"
   }
  },
  {
   "type": "Feature",
   "geometry": {
    "type": "Point",
    "coordinates": [
     145.16195581,
     -37.82363709
    ]
   },
   "properties": {
    "name": "101 CENTRAL ROAD BLACKBURN 3130",
    "locID": "LOC000016173282",
    "tech": "HFC",
    "upgrade": "NULL_NA",
    "gnaf_pid": "GAVIC413404357"
   }
  },
  {
   "type": "Feature",
   "geometry": {
    "type": "Point",
    "coordinates": [
     145.15499774,
     -37.822085
    ]
   },
   "properties": {
    "name": "9 CENTRAL ROAD BLACKBURN 3130",
    "locID": "LOC000184379868",
    "tech": "FTTB",
    "upgrade": "NULL_NA",
    "gnaf_pid": "GAVIC413404365"
   }
  },
  {
   "type": "Feature",
   "geometry": {
    "type": "Point",
    "coordinates": [
     145.15780256,
     -37.82357284
    ]
   },
   "properties": {
    "name": "67 CENTRAL ROAD BLACKBURN 3130",
    "locID": "LOC000039035726",
    "tech": "HFC",
    "upgrade": "NULL_NA",
    "gnaf_pid": "GAVIC413404370"
   }
  },
  {
   "type": "Feature",
   "geometry": {
    "type": "Point",
    "coordinates": [
     145.15364174,
     -37.81911648
    ]
   },
   "properties": {
    "name": "14A CHAPEL STREET BLACKBURN 3130",
    "locID": "LOC000114065302",
    "tech": "HFC",
    "upgrade": "NULL_NA",
    "gnaf_pid": "GAVIC413404376"
   }
  },
  {
   "type": "Feature",
   "geometry": {
    "type": "Point",
    "coordinates": [
     145.15364174,
     -37.81911648
    ]
   },
   "properties": {
    "name": "14B CHAPEL STREET BLACKBURN 3130",
    "locID": "LOC000114191551",
    "tech": "HFC",
    "upgrade": "NULL_NA",
    "gnaf_pid": "GAVIC413404386"
   }
  },
  {
   "type": "Feature",
   "geometry": {
    "type": "Point",
    "coordinates": [
     145.15587355,
     -37.81136723
    ]
   },
   "properties": {
    "name": "UNIT 2, 12 COOTAMUNDRA CRESCENT BLACKBURN 3130",
    "locID": "LOC000006987350",
    "tech": "HFC",
    "upgrade": "NULL_NA",
    "gnaf_pid": "GAVIC413404412"
   }
  },
  {
   "type": "Feature",
   "geometry": {
    "type": "Point",
    "coordinates": [
     145.1535017,
     -37.81990169
    ]
   },
   "properties": {
    "name": "5 BLACKBURN ROAD BLACKBURN 3130",
    "locID": "LOC000114615018",
    "tech": "HFC",
    "upgrade": "NULL_NA",
    "gnaf_pid": "GAVIC413404589"
   }
  },
  {
   "type": "Feature",
   "geometry": {
    "type": "Point",
    "coordinates": [
     145.16192971,
     -37.81825456
    ]
   },
   "properties": {
    "name": "SHOP 2, 208 WHITEHORSE ROAD BLACKBURN 3130",
    "locID": "LOC000010975365",
    "tech": "FTTC",
    "upgrade": "FTTP_NA",
    "gnaf_pid": "GAVIC413414471",
    "tech_change_status": "MDU Complex Eligible To Apply"
   }
  },
  {
   "type": "Feature",
   "geometry": {
    "type": "Point",
    "coordinates": [
     145.14325,
     -37.818475
    ]
   },
   "properties": {
    "name": "UNIT 1, 46 WHITEHORSE ROAD BLACKBURN 3130",
    "locID": "LOC000004356524",
    "tech": "HFC",
    "upgrade": "NULL_NA",
    "gnaf_pid": "GAVIC413414476"
   }
  },
  {
   "type": "Feature",
   "geometry": {
    "type": "Point",
    "coordinates": [
     145.14475,
     -37.811241
    ]
   },
   "properties": {
    "name": "UNIT 1, 16 BEVERLEY CRESCENT BLACKBURN 3130",
    "locID": "LOC000061901500",
    "tech": "HFC",
    "upgrade": "NULL_NA",
    "gnaf_pid": "GAVIC413417228"
   }
  },
  {
   "type": "Feature",
   "geometry": {
    "type": "Point",
    "coordinates": [
     145.13661024,
     -37.82978207
    ]
   },
   "properties": {
    "name": "300 MIDDLEBOROUGH ROAD BLACKBURN 3130",
    "locID": "LOC100064324853",
    "tech": "FTTB",
    "upgrade": "NULL_NA",
    "gnaf_pid": "GAVIC413417971"
   }
  },
  {
   "type": "Feature",
   "geometry": {
    "type": "Point",
    "coordinates": [
     145.14348011,
     -37.82233384
    ]
   },
   "properties": {
    "name": "7 MYRTLE GROVE BLACKBURN 3130",
    "locID": "LOC000062708629",
    "tech": "HFC",
    "upgrade": "NULL_NA",
    "gnaf_pid": "GAVIC413418022"
   }
  },
  {
   "type": "Feature",
   "geometry": {
    "type": "Point",
    "coordinates": [
     145.1641,
     -37.820045
    ]
   },
   "properties": {
    "name": "16A KING STREET BLACKBURN 3130",
    "locID": "LOC000036862323",
    "tech": "FTTC",
    "upgrade": "FTTP_SA",
    "gnaf_pid": "GAVIC413422439",
    "tech_change_status": "Eligible To Order"
   }
  },
  {
   "type": "Feature",
   "geometry": {
    "type": "Point",
    "coordinates": [
     145.157777,
     -37.811628
    ]
   },
   "properties": {
    "name": "UNIT 1, 121 SURREY ROAD BLACKBURN 3130",
    "locID": "LOC000044958988",
    "tech": "HFC",
    "upgrade": "NULL_NA",
    "gnaf_pid": "GAVIC413422545"
   }
  },
  {
   "type": "Feature",
   "geometry": {
    "type": "Point",
    "coordinates": [
     145.151942,
     -37.810555
    ]
   },
   "properties": {
    "name": "64-104 SPRINGFIELD ROAD BLACKBURN 3130",
    "locID": "LOC000192653723",
    "tech": "FTTB",
    "upgrade": "NULL_NA",
    "gnaf_pid": "GAVIC413423320"
   }
  },
  {
   "type": "Feature",
   "geometry": {
    "type": "Point",
    "coordinates": [
     145.14149761,
     -37.80940156
    ]
   },
   "properties": {
    "name": "4 SPRINGFIELD ROAD BLACKBURN 3130",
    "locID": "LOC000046209100",
    "tech": "HFC",
    "upgrade": "NULL_NA",
    "gnaf_pid": "GAVIC413423337"
   }
  },
  {
   "type": "Feature",
   "geometry": {
    "type": "Point",
    "coordinates": [
     145.141749,
     -37.80943
    ]
   },
   "properties": {
    "name": "6 SPRINGFIELD ROAD BLACKBURN 3130",
    "locID": "LOC000070349829",
    "tech": "HFC",
    "upgrade": "NULL_NA",
    "gnaf_pid": "GAVIC413423338"
   }
  },
  {
   "type": "Feature",
   "geometry": {
    "type": "Point",
    "coordinates": [
     145.14438648,
     -37.80971714
    ]
   },
   "properties": {
    "name": "26 SPRINGFIELD ROAD BLACKBURN 3130",
    "locID": "LOC000052981708",
    "tech": "HFC",
    "upgrade": "NULL_NA",
    "gnaf_pid": "GAVIC413423339"
   }
  },
  {
   "type": "Feature",
   "geometry": {
    "type": "Point",
    "coordinates": [
     145.15969553,
     -37.81141914
    ]
   },
   "properties": {
    "name": "164 SPRINGFIELD ROAD BLACKBURN 3130",
    "locID": "LOC000059309757",
    "tech": "HFC",
    "upgrade": "NULL_NA",
    "gnaf_pid": "GAVIC413423340"
   }
  },
  {
   "type": "Feature",
   "geometry": {
    "type": "Point",
    "coordinates": [
     145.16043784,
     -37.81150083
    ]
   },
   "properties": {
    "name": "172 SPRINGFIELD ROAD BLACKBURN 3130",
    "locID": "LOC000011874606",
    "tech": "HFC",
    "upgrade": "NULL_NA",
    "gnaf_pid": "GAVIC413423341"
   }
  },
  {
   "type": "Feature",
   "geometry": {
    "type": "Point",
    "coordinates": [
     145.158396,
     -37.825601
    ]
   },
   "properties": {
    "name": "UNIT 2, 20 LAKE ROAD BLACKBURN 3130",
    "locID": "LOC000030109968",
    "tech": "HFC",
    "upgrade": "NULL_NA",
    "gnaf_pid": "GAVIC413423999"
   }
  },
  {
   "type": "Feature",
   "geometry": {
    "type": "Point",
    "coordinates": [
     145.15476945,
     -37.8288952
    ]
   },
   "properties": {
    "name": "44 NAUGHTON GROVE BLACKBURN 3130",
    "locID": "LOC000007701089",
    "tech": "HFC",
    "upgrade": "NULL_NA",
    "gnaf_pid": "GAVIC413424015"
   }
  },
  {
   "type": "Feature",
   "geometry": {
    "type": "Point",
    "coordinates": [
     145.1439561,
     -37.81119606
    ]
   },
   "properties": {
    "name": "13 NORWAY AVENUE BLACKBURN 3130",
    "locID": "LOC000056147764",
    "tech": "HFC",
    "upgrade": "NULL_NA",
    "gnaf_pid": "GAVIC413424049"
   }
  },
  {
   "type": "Feature",
   "geometry": {
    "type": "Point",
    "coordinates": [
     145.15035532,
     -37.83098833
    ]
   },
   "properties": {
    "name": "UNIT 1, 17 LALWA STREET BLACKBURN 3130",
    "locID": "LOC000029658213",
    "tech": "HFC",
    "upgrade": "NULL_NA",
    "gnaf_pid": "GAVIC413424212"
   }
  },
  {
   "type": "Feature",
   "geometry": {
    "type": "Point",
    "coordinates": [
     145.15038229,
     -37.83083917
    ]
   },
   "properties": {
    "name": "15 LALWA STREET BLACKBURN 3130",
    "locID": "LOC000021870297",
    "tech": "HFC",
    "upgrade": "NULL_NA",
    "gnaf_pid": "GAVIC413424214"
   }
  },
  {
   "type": "Feature",
   "geometry": {
    "type": "Point",
    "coordinates": [
     145.15278109,
     -37.82638253
    ]
   },
   "properties": {
    "name": "UNIT 2, 73 BLACKBURN ROAD BLACKBURN 3130",
    "locID": "LOC000052364311",
    "tech": "HFC",
    "upgrade": "NULL_NA",
    "gnaf_pid": "GAVIC413425426"
   }
  },
  {
   "type": "Feature",
   "geometry": {
    "type": "Point",
    "coordinates": [
     145.13702455,
     -37.82763164
    ]
   },
   "properties": {
    "name": "334 MIDDLEBOROUGH ROAD BLACKBURN 3130",
    "locID": "LOC000073344541",
    "tech": "HFC",
    "upgrade": "NULL_NA",
    "gnaf_pid": "GAVIC413427011"
   }
  },
  {
   "type": "Feature",
   "geometry": {
    "type": "Point",
    "coordinates": [
     145.14850197,
     -37.82838919
    ]
   },
   "properties": {
    "name": "1A MOLLETON STREET BLACKBURN 3130",
    "locID": "LOC000063381644",
    "tech": "HFC",
    "upgrade": "NULL_NA",
    "gnaf_pid": "GAVIC413427031"
   }
  },
  {
   "type": "Feature",
   "geometry": {
    "type": "Point",
    "coordinates": [
     145.157762,
     -37.811772
    ]
   },
   "properties": {
    "name": "UNIT 2, 123 SURREY ROAD BLACKBURN 3130",
    "locID": "LOC000181951311",
    "tech": "HFC",
    "upgrade": "NULL_NA",
    "gnaf_pid": "GAVIC413427066"
   }
  },
  {
   "type": "Feature",
   "geometry": {
    "type": "Point",
    "coordinates": [
     145.14671519,
     -37.83031334
    ]
   },
   "properties": {
    "name": "17 BALDWIN ROAD BLACKBURN 3130",
    "locID": "LOC000104606404",
    "tech": "HFC",
    "upgrade": "NULL_NA",
    "gnaf_pid": "GAVIC413427099"
   }
  },
  {
   "type": "Feature",
   "geometry": {
    "type": "Point",
    "coordinates": [
     145.14627989,
     -37.83048586
    ]
   },
   "properties": {
    "name": "22 BALDWIN ROAD BLACKBURN 3130",
    "locID": "LOC000067977885",
    "tech": "HFC",
    "upgrade": "NULL_NA",
    "gnaf_pid": "GAVIC413427100"
   }
  },
  {
   "type": "Feature",
   "geometry": {
    "type": "Point",
    "coordinates": [
     145.14646543,
     -37.82967135
    ]
   },
   "properties": {
    "name": "12 BALDWIN ROAD BLACKBURN 3130",
    "locID": "LOC000102643026",
    "tech": "HFC",
    "upgrade": "NULL_NA",
    "gnaf_pid": "GAVIC413427102"
   }
  },
  {
   "type": "Feature",
   "geometry": {
    "type": "Point",
    "coordinates": [
     145.1463555,
     -37.830154
    ]
   },
   "properties": {
    "name": "18 BALDWIN ROAD BLACKBURN 3130",
    "locID": "LOC000008576052",
    "tech": "HFC",
    "upgrade": "NULL_NA",
    "gnaf_pid": "GAVIC413427103"
   }
  },
  {
   "type": "Feature",
   "geometry": {
    "type": "Point",
    "coordinates": [
     145.15533817,
     -37.81743955
    ]
   },
   "properties": {
    "name": "UNIT 5, 167 WHITEHORSE ROAD BLACKBURN 3130",
    "locID": "LOC000074119719",
    "tech": "HFC",
    "upgrade": "NULL_NA",
    "gnaf_pid": "GAVIC413428741"
   }
  },
  {
   "type": "Feature",
   "geometry": {
    "type": "Point",
    "coordinates": [
     145.13875278,
     -37.82708305
    ]
   },
   "properties": {
    "name": "1-31 JANET STREET BLACKBURN 3130",
    "locID": "LOC000173702410",
    "tech": "HFC",
    "upgrade": "NULL_NA",
    "gnaf_pid": "GAVIC413429509"
   }
  },
  {
   "type": "Feature",
   "geometry": {
    "type": "Point",
    "coordinates": [
     145.15439164,
     -37.8198274
    ]
   },
   "properties": {
    "name": "UNIT 2, 4 SOLWOOD LANE BLACKBURN 3130",
    "locID": "LOC000087682046",
    "tech": "FTTC",
    "upgrade": "FTTP_NA",
    "gnaf_pid": "GAVIC413429915",
    "tech_change_status": "MDU Complex Eligible To Apply"
   }
  },
  {
   "type": "Feature",
   "geometry": {
    "type": "Point",
    "coordinates": [
     145.15218885,
     -37.81839865
    ]
   },
   "properties": {
    "name": "UNIT 5, 8-10 ALBERT STREET BLACKBURN 3130",
    "locID": "LOC000089675440",
    "tech": "HFC",
    "upgrade": "NULL_NA",
    "gnaf_pid": "GAVIC413429935"
   }
  },
  {
   "type": "Feature",
   "geometry": {
    "type": "Point",
    "coordinates": [
     145.15252273,
     -37.81819429
    ]
   },
   "properties": {
    "name": "2 ALBERT STREET BLACKBURN 3130",
    "locID": "LOC000046357581",
    "tech": "HFC",
    "upgrade": "NULL_NA",
    "gnaf_pid": "GAVIC413429936"
   }
  },
  {
   "type": "Feature",
   "geometry": {
    "type": "Point",
    "coordinates": [
     145.15216019,
     -37.81854523
    ]
   },
   "properties": {
    "name": "UNIT 6, 8-10 ALBERT STREET BLACKBURN 3130",
    "locID": "LOC000087275437",
    "tech": "HFC",
    "upgrade": "NULL_NA",
    "gnaf_pid": "GAVIC413429945"
   }
  },
  {
   "type": "Feature",
   "geometry": {
    "type": "Point",
    "coordinates": [
     145.15233075,
     -37.81920431
    ]
   },
   "properties": {
    "name": "UNIT 2, 20 ALBERT STREET BLACKBURN 3130",
    "locID": "LOC000016481509",
    "tech": "HFC",
    "upgrade": "NULL_NA",
    "gnaf_pid": "GAVIC413430643"
   }
  },
  {
   "type": "Feature",
   "geometry": {
    "type": "Point",
    "coordinates": [
     145.15233075,
     -37.81920431
    ]
   },
   "properties": {
    "name": "UNIT 3, 20 ALBERT STREET BLACKBURN 3130",
    "locID": "LOC000015989699",
    "tech": "HFC",
    "upgrade": "NULL_NA",
    "gnaf_pid": "GAVIC413430645"
   }
  },
  {
   "type": "Feature",
   "geometry": {
    "type": "Point",
    "coordinates": [
     145.15810591,
     -37.82064054
    ]
   },
   "properties": {
    "name": "40 ALFRED STREET BLACKBURN 3130",
    "locID": "LOC000031812964",
    "tech": "FTTC",
    "upgrade": "FTTP_SA",
    "gnaf_pid": "GAVIC413430665",
    "tech_change_status": "Eligible To Order"
   }
  },
  {
   "type": "Feature",
   "geometry": {
    "type": "Point",
    "coordinates": [
     145.15813418,
     -37.82045364
    ]
   },
   "properties": {
    "name": "34 ALFRED STREET BLACKBURN 3130",
    "locID": "LOC000123570706",
    "tech": "FTTP",
    "upgrade": "NULL_NA",
    "gnaf_pid": "GAVIC413430672"
   }
  },
  {
   "type": "Feature",
   "geometry": {
    "type": "Point",
    "coordinates": [
     145.14903005,
     -37.81937165
    ]
   },
   "properties": {
    "name": "15 VINE STREET BLACKBURN 3130",
    "locID": "LOC000060512427",
    "tech": "HFC",
    "upgrade": "NULL_NA",
    "gnaf_pid": "GAVIC413430954"
   }
  },
  {
   "type": "Feature",
   "geometry": {
    "type": "Point",
    "coordinates": [
     145.14867895,
     -37.81915034
    ]
   },
   "properties": {
    "name": "16 VINE STREET BLACKBURN 3130",
    "locID": "LOC000013546638",
    "tech": "HFC",
    "upgrade": "NULL_NA",
    "gnaf_pid": "GAVIC413432373"
   }
  },
  {
   "type": "Feature",
   "geometry": {
    "type": "Point",
    "coordinates": [
     145.141793,
     -37.824307
    ]
   },
   "properties": {
    "name": "39 PAKENHAM STREET BLACKBURN 3130",
    "locID": "LOC000114912348",
    "tech": "HFC",
    "upgrade": "NULL_NA",
    "gnaf_pid": "GAVIC413432413"
   }
  },
  {
   "type": "Feature",
   "geometry": {
    "type": "Point",
    "coordinates": [
     145.154553,
     -37.819301
    ]
   },
   "properties": {
    "name": "UNIT 101, 66-70 RAILWAY ROAD BLACKBURN 3130",
    "locID": "LOC000038620463",
    "tech": "HFC",
    "upgrade": "NULL_NA",
    "gnaf_pid": "GAVIC413432541"
   }
  },
  {
   "type": "Feature",
   "geometry": {
    "type": "Point",
    "coordinates": [
     145.15321,
     -37.819388
    ]
   },
   "properties": {
    "name": "71A RAILWAY ROAD BLACKBURN 3130",
    "locID": "LOC000012105717",
    "tech": "HFC",
    "upgrade": "NULL_NA",
    "gnaf_pid": "GAVIC413432543"
   }
  },
  {
   "type": "Feature",
   "geometry": {
    "type": "Point",
    "coordinates": [
     145.15526283,
     -37.8191747
    ]
   },
   "properties": {
    "name": "72 RAILWAY ROAD BLACKBURN 3130",
    "locID": "LOC000114175451",
    "tech": "FTTC",
    "upgrade": "FTTP_SA",
    "gnaf_pid": "GAVIC413432544",
    "tech_change_status": "Eligible To Order"
   }
  },
  {
   "type": "Feature",
   "geometry": {
    "type": "Point",
    "coordinates": [
     145.155421,
     -37.819095
    ]
   },
   "properties": {
    "name": "74 RAILWAY ROAD BLACKBURN 3130",
    "locID": "LOC000112821573",
    "tech": "FTTC",
    "upgrade": "FTTP_SA",
    "gnaf_pid": "GAVIC413432546",
    "tech_change_status": "Eligible To Order"
   }
  },
  {
   "type": "Feature",
   "geometry": {
    "type": "Point",
    "coordinates": [
     145.156695,
     -37.818596
    ]
   },
   "properties": {
    "name": "88-90 RAILWAY ROAD BLACKBURN 3130",
    "locID": "LOC000044944843",
    "tech": "FTTP",
    "upgrade": "NULL_NA",
    "gnaf_pid": "GAVIC413432556"
   }
  },
  {
   "type": "Feature",
   "geometry": {
    "type": "Point",
    "coordinates": [
     145.15029074,
     -37.81966063
    ]
   },
   "properties": {
    "name": "35 RAILWAY ROAD BLACKBURN 3130",
    "locID": "LOC000009430155",
    "tech": "HFC",
    "upgrade": "NULL_NA",
    "gnaf_pid": "GAVIC413432564"
   }
  },
  {
   "type": "Feature",
   "geometry": {
    "type": "Point",
    "coordinates": [
     145.15273,
     -37.817236
    ]
   },
   "properties": {
    "name": "131 WHITEHORSE ROAD BLACKBURN 3130",
    "locID": "LOC000088636460",
    "tech": "HFC",
    "upgrade": "NULL_NA",
    "gnaf_pid": "GAVIC413432586"
   }
  },
  {
   "type": "Feature",
   "geometry": {
    "type": "Point",
    "coordinates": [
     145.15396756,
     -37.81996951
    ]
   },
   "properties": {
    "name": "UNIT 2, 54 RAILWAY ROAD BLACKBURN 3130",
    "locID": "LOC000172365730",
    "tech": "HFC",
    "upgrade": "NULL_NA",
    "gnaf_pid": "GAVIC413433396"
   }
  },
  {
   "type": "Feature",
   "geometry": {
    "type": "Point",
    "coordinates": [
     145.13914548,
     -37.82925755
    ]
   },
   "properties": {
    "name": "25 AMERY AVENUE BLACKBURN 3130",
    "locID": "LOC000031993660",
    "tech": "HFC",
    "upgrade": "NULL_NA",
    "gnaf_pid": "GAVIC413435893"
   }
  },
  {
   "type": "Feature",
   "geometry": {
    "type": "Point",
    "coordinates": [
     145.15893083,
     -37.83287037
    ]
   },
   "properties": {
    "name": "2 LAGOONA COURT BLACKBURN 3130",
    "locID": "LOC000114423864",
    "tech": "HFC",
    "upgrade": "NULL_NA",
    "gnaf_pid": "GAVIC413436673"
   }
  },
  {
   "type": "Feature",
   "geometry": {
    "type": "Point",
    "coordinates": [
     145.1601799,
     -37.82174965
    ]
   },
   "properties": {
    "name": "23 GLEN EBOR AVENUE BLACKBURN 3130",
    "locID": "LOC000096127735",
    "tech": "HFC",
    "upgrade": "NULL_NA",
    "gnaf_pid": "GAVIC413436874"
   }
  },
  {
   "type": "Feature",
   "geometry": {
    "type": "Point",
    "coordinates": [
     145.15897748,
     -37.82160225
    ]
   },
   "properties": {
    "name": "13 GLEN EBOR AVENUE BLACKBURN 3130",
    "locID": "LOC000086320266",
    "tech": "HFC",
    "upgrade": "NULL_NA",
    "gnaf_pid": "GAVIC413436876"
   }
  },
  {
   "type": "Feature",
   "geometry": {
    "type": "Point",
    "coordinates": [
     145.16069045,
     -37.82181168
    ]
   },
   "properties": {
    "name": "27 GLEN EBOR AVENUE BLACKBURN 3130",
    "locID": "LOC000106535602",
    "tech": "HFC",
    "upgrade": "NULL_NA",
    "gnaf_pid": "GAVIC413436878"
   }
  },
  {
   "type": "Feature",
   "geometry": {
    "type": "Point",
    "coordinates": [
     145.16101266,
     -37.82185106
    ]
   },
   "properties": {
    "name": "31 GLEN EBOR AVENUE BLACKBURN 3130",
    "locID": "LOC000036678797",
    "tech": "HFC",
    "upgrade": "NULL_NA",
    "gnaf_pid": "GAVIC413436880"
   }
  },
  {
   "type": "Feature",
   "geometry": {
    "type": "Point",
    "coordinates": [
     145.14185745,
     -37.8217118
    ]
   },
   "properties": {
    "name": "2 PAKENHAM STREET BLACKBURN 3130",
    "locID": "LOC000022171808",
    "tech": "HFC",
    "upgrade": "NULL_NA",
    "gnaf_pid": "GAVIC413436939"
   }
  },
  {
   "type": "Feature",
   "geometry": {
    "type": "Point",
    "coordinates": [
     145.141475,
     -37.823989
    ]
   },
   "properties": {
    "name": "UNIT 2, 30 PAKENHAM STREET BLACKBURN 3130",
    "locID": "LOC000060570616",
    "tech": "HFC",
    "upgrade": "NULL_NA",
    "gnaf_pid": "GAVIC413436947"
   }
  },
  {
   "type": "Feature",
   "geometry": {
    "type": "Point",
    "coordinates": [
     145.15876753,
     -37.82253585
    ]
   },
   "properties": {
    "name": "10 PARKSIDE STREET BLACKBURN 3130",
    "locID": "LOC000077163894",
    "tech": "HFC",
    "upgrade": "NULL_NA",
    "gnaf_pid": "GAVIC413437004"
   }
  },
  {
   "type": "Feature",
   "geometry": {
    "type": "Point",
    "coordinates": [
     145.1538766,
     -37.82340486
    ]
   },
   "properties": {
    "name": "6A GORDON CRESCENT BLACKBURN 3130",
    "locID": "LOC000102976157",
    "tech": "HFC",
    "upgrade": "NULL_NA",
    "gnaf_pid": "GAVIC413437625"
   }
  },
  {
   "type": "Feature",
   "geometry": {
    "type": "Point",
    "coordinates": [
     145.157125,
     -37.818447
    ]
   },
   "properties": {
    "name": "92B RAILWAY ROAD BLACKBURN 3130",
    "locID": "LOC000027056066",
    "tech": "FTTC",
    "upgrade": "FTTP_SA",
    "gnaf_pid": "GAVIC413437753",
    "tech_change_status": "Eligible To Order"
   }
  },
  {
   "type": "Feature",
   "geometry": {
    "type": "Point",
    "coordinates": [
     145.14825709,
     -37.83008518
    ]
   },
   "properties": {
    "name": "UNIT 1, 92-94 MAIN STREET BLACKBURN 3130",
    "locID": "LOC000013036728",
    "tech": "HFC",
    "upgrade": "NULL_NA",
    "gnaf_pid": "GAVIC413438168"
   }
  },
  {
   "type": "Feature",
   "geometry": {
    "type": "Point",
    "coordinates": [
     145.15189659,
     -37.82060291
    ]
   },
   "properties": {
    "name": "110 SOUTH PARADE BLACKBURN 3130",
    "locID": "LOC000112997235",
    "tech": "HFC",
    "upgrade": "NULL_NA",
    "gnaf_pid": "GAVIC413440117"
   }
  },
  {
   "type": "Feature",
   "geometry": {
    "type": "Point",
    "coordinates": [
     145.151395,
     -37.820652
    ]
   },
   "properties": {
    "name": "UNIT 1, 98 SOUTH PARADE BLACKBURN 3130",
    "locID": "LOC000013874140",
    "tech": "HFC",
    "upgrade": "NULL_NA",
    "gnaf_pid": "GAVIC413440120"
   }
  },
  {
   "type": "Feature",
   "geometry": {
    "type": "Point",
    "coordinates": [
     145.151395,
     -37.820652
    ]
   },
   "properties": {
    "name": "UNIT 2, 98 SOUTH PARADE BLACKBURN 3130",
    "locID": "LOC000013829258",
    "tech": "HFC",
    "upgrade": "NULL_NA",
    "gnaf_pid": "GAVIC413440121"
   }
  },
  {
   "type": "Feature",
   "geometry": {
    "type": "Point",
    "coordinates": [
     145.151395,
     -37.820652
    ]
   },
   "properties": {
    "name": "UNIT 3, 98 SOUTH PARADE BLACKBURN 3130",
    "locID": "LOC000013832928",
    "tech": "HFC",
    "upgrade": "NULL_NA",
    "gnaf_pid": "GAVIC413440122"
   }
  },
  {
   "type": "Feature",
   "geometry": {
    "type": "Point",
    "coordinates": [
     145.151395,
     -37.820652
    ]
   },
   "properties": {
    "name": "UNIT 4, 98 SOUTH PARADE BLACKBURN 3130",
    "locID": "LOC000013858084",
    "tech": "HFC",
    "upgrade": "NULL_NA",
    "gnaf_pid": "GAVIC413440123"
   }
  },
  {
   "type": "Feature",
   "geometry": {
    "type": "Point",
    "coordinates": [
     145.151395,
     -37.820652
    ]
   },
   "properties": {
    "name": "UNIT 5, 98 SOUTH PARADE BLACKBURN 3130",
    "locID": "LOC000013598997",
    "tech": "HFC",
    "upgrade": "NULL_NA",
    "gnaf_pid": "GAVIC413440124"
   }
  },
  {
   "type": "Feature",
   "geometry": {
    "type": "Point",
    "coordinates": [
     145.15254363,
     -37.82061356
    ]
   },
   "properties": {
    "name": "128A SOUTH PARADE BLACKBURN 3130",
    "locID": "LOC000180407598",
    "tech": "HFC",
    "upgrade": "NULL_NA",
    "gnaf_pid": "GAVIC413440125"
   }
  },
  {
   "type": "Feature",
   "geometry": {
    "type": "Point",
    "coordinates": [
     145.14992476,
     -37.81855689
    ]
   },
   "properties": {
    "name": "UNIT 1, 6-10 STATION STREET BLACKBURN 3130",
    "locID": "LOC000050193712",
    "tech": "HFC",
    "upgrade": "NULL_NA",
    "gnaf_pid": "GAVIC413440159"
   }
  },
  {
   "type": "Feature",
   "geometry": {
    "type": "Point",
    "coordinates": [
     145.14969163,
     -37.81838988
    ]
   },
   "properties": {
    "name": "UNIT 4, 6-10 STATION STREET BLACKBURN 3130",
    "locID": "LOC000050193932",
    "tech": "HFC",
    "upgrade": "NULL_NA",
    "gnaf_pid": "GAVIC413440162"
   }
  },
  {
   "type": "Feature",
   "geometry": {
    "type": "Point",
    "coordinates": [
     145.14977308,
     -37.81839965
    ]
   },
   "properties": {
    "name": "UNIT 5, 6-10 STATION STREET BLACKBURN 3130",
    "locID": "LOC000050445470",
    "tech": "HFC",
    "upgrade": "NULL_NA",
    "gnaf_pid": "GAVIC413440163"
   }
  },
  {
   "type": "Feature",
   "geometry": {
    "type": "Point",
    "coordinates": [
     145.14986065,
     -37.81841114
    ]
   },
   "properties": {
    "name": "UNIT 6, 6-10 STATION STREET BLACKBURN 3130",
    "locID": "LOC000050193712",
    "tech": "HFC",
    "upgrade": "NULL_NA",
    "gnaf_pid": "GAVIC413440164"
   }
  },
  {
   "type": "Feature",
   "geometry": {
    "type": "Point",
    "coordinates": [
     145.14996101,
     -37.81838323
    ]
   },
   "properties": {
    "name": "UNIT 7, 6-10 STATION STREET BLACKBURN 3130",
    "locID": "LOC000050004922",
    "tech": "HFC",
    "upgrade": "NULL_NA",
    "gnaf_pid": "GAVIC413440165"
   }
  },
  {
   "type": "Feature",
   "geometry": {
    "type": "Point",
    "coordinates": [
     145.14988816,
     -37.81818825
    ]
   },
   "properties": {
    "name": "UNIT 10, 6-10 STATION STREET BLACKBURN 3130",
    "locID": "LOC000050193712",
    "tech": "HFC",
    "upgrade": "NULL_NA",
    "gnaf_pid": "GAVIC413440168"
   }
  },
  {
   "type": "Feature",
   "geometry": {
    "type": "Point",
    "coordinates": [
     145.16366828,
     -37.81473623
    ]
   },
   "properties": {
    "name": "34 GOODWIN STREET BLACKBURN 3130",
    "locID": "LOC000066910522",
    "tech": "FTTC",
    "upgrade": "FTTP_SA",
    "gnaf_pid": "GAVIC413442161",
    "tech_change_status": "Eligible To Order"
   }
  },
  {
   "type": "Feature",
   "geometry": {
    "type": "Point",
    "coordinates": [
     145.14850951,
     -37.82976753
    ]
   },
   "properties": {
    "name": "UNIT 1, 88-90 MAIN STREET BLACKBURN 3130",
    "locID": "LOC000056181618",
    "tech": "HFC",
    "upgrade": "NULL_NA",
    "gnaf_pid": "GAVIC413442244"
   }
  },
  {
   "type": "Feature",
   "geometry": {
    "type": "Point",
    "coordinates": [
     145.154553,
     -37.819301
    ]
   },
   "properties": {
    "name": "UNIT 102, 66-70 RAILWAY ROAD BLACKBURN 3130",
    "locID": "LOC000038620463",
    "tech": "HFC",
    "upgrade": "NULL_NA",
    "gnaf_pid": "GAVIC413442275"
   }
  },
  {
   "type": "Feature",
   "geometry": {
    "type": "Point",
    "coordinates": [
     145.14968322,
     -37.81961287
    ]
   },
   "properties": {
    "name": "25 RAILWAY ROAD BLACKBURN 3130",
    "locID": "LOC000113065560",
    "tech": "HFC",
    "upgrade": "NULL_NA",
    "gnaf_pid": "GAVIC413442289"
   }
  },
  {
   "type": "Feature",
   "geometry": {
    "type": "Point",
    "coordinates": [
     145.15039901,
     -37.8196618
    ]
   },
   "properties": {
    "name": "35A RAILWAY ROAD BLACKBURN 3130",
    "locID": "LOC000009754566",
    "tech": "HFC",
    "upgrade": "NULL_NA",
    "gnaf_pid": "GAVIC413442292"
   }
  },
  {
   "type": "Feature",
   "geometry": {
    "type": "Point",
    "coordinates": [
     145.150522,
     -37.819671
    ]
   },
   "properties": {
    "name": "37 RAILWAY ROAD BLACKBURN 3130",
    "locID": "LOC000048779927",
    "tech": "HFC",
    "upgrade": "NULL_NA",
    "gnaf_pid": "GAVIC413442293"
   }
  },
  {
   "type": "Feature",
   "geometry": {
    "type": "Point",
    "coordinates": [
     145.15700949,
     -37.81848644
    ]
   },
   "properties": {
    "name": "92A RAILWAY ROAD BLACKBURN 3130",
    "locID": "LOC000026800037",
    "tech": "FTTC",
    "upgrade": "FTTP_SA",
    "gnaf_pid": "GAVIC413442298",
    "tech_change_status": "Eligible To Order"
   }
  },
  {
   "type": "Feature",
   "geometry": {
    "type": "Point",
    "coordinates": [
     145.15095378,
     -37.8196869
    ]
   },
   "properties": {
    "name": "41 RAILWAY ROAD BLACKBURN 3130",
    "locID": "LOC000039465855",
    "tech": "HFC",
    "upgrade": "NULL_NA",
    "gnaf_pid": "GAVIC413442301"
   }
  },
  {
   "type": "Feature",
   "geometry": {
    "type": "Point",
    "coordinates": [
     145.137203,
     -37.829338
    ]
   },
   "properties": {
    "name": "1A HIRST STREET BLACKBURN 3130",
    "locID": "LOC000089092412",
    "tech": "HFC",
    "upgrade": "NULL_NA",
    "gnaf_pid": "GAVIC413443321"
   }
  },
  {
   "type": "Feature",
   "geometry": {
    "type": "Point",
    "coordinates": [
     145.156574,
     -37.820138
    ]
   },
   "properties": {
    "name": "UNIT 6, 17-21 GEORGE STREET BLACKBURN 3130",
    "locID": "LOC000175315978",
    "tech": "FTTC",
    "upgrade": "FTTP_SA",
    "gnaf_pid": "GAVIC413444239",
    "tech_change_status": "Eligible To Order"
   }
  },
  {
   "type": "Feature",
   "geometry": {
    "type": "Point",
    "coordinates": [
     145.156574,
     -37.820138
    ]
   },
   "properties": {
    "name": "UNIT 8, 17-21 GEORGE STREET BLACKBURN 3130",
    "locID": "LOC000175315932",
    "tech": "FTTC",
    "upgrade": "FTTP_SA",
    "gnaf_pid": "GAVIC413444241",
    "tech_change_status": "Eligible To Order"
   }
  },
  {
   "type": "Feature",
   "geometry": {
    "type": "Point",
    "coordinates": [
     145.1656971,
     -37.81457914
    ]
   },
   "properties": {
    "name": "18 ELLISON STREET BLACKBURN 3130",
    "locID": "LOC000088836922",
    "tech": "FTTC",
    "upgrade": "FTTP_SA",
    "gnaf_pid": "GAVIC413444453",
    "tech_change_status": "Eligible To Order"
   }
  },
  {
   "type": "Feature",
   "geometry": {
    "type": "Point",
    "coordinates": [
     145.14883503,
     -37.82733278
    ]
   },
   "properties": {
    "name": "68 MAIN STREET BLACKBURN 3130",
    "locID": "LOC000073351226",
    "tech": "HFC",
    "upgrade": "NULL_NA",
    "gnaf_pid": "GAVIC413447864"
   }
  },
  {
   "type": "Feature",
   "geometry": {
    "type": "Point",
    "coordinates": [
     145.15025573,
     -37.82101126
    ]
   },
   "properties": {
    "name": "3 MAIN STREET BLACKBURN 3130",
    "locID": "LOC000172365690",
    "tech": "HFC",
    "upgrade": "NULL_NA",
    "gnaf_pid": "GAVIC413447869"
   }
  },
  {
   "type": "Feature",
   "geometry": {
    "type": "Point",
    "coordinates": [
     145.14117263,
     -37.82991943
    ]
   },
   "properties": {
    "name": "7 DWYER STREET BLACKBURN 3130",
    "locID": "LOC000062376403",
    "tech": "HFC",
    "upgrade": "NULL_NA",
    "gnaf_pid": "GAVIC413448258"
   }
  },
  {
   "type": "Feature",
   "geometry": {
    "type": "Point",
    "coordinates": [
     145.1531736,
     -37.82411806
    ]
   },
   "properties": {
    "name": "3A WOLSELEY CRESCENT BLACKBURN 3130",
    "locID": "LOC000079499619",
    "tech": "HFC",
    "upgrade": "NULL_NA",
    "gnaf_pid": "GAVIC413448714"
   }
  },
  {
   "type": "Feature",
   "geometry": {
    "type": "Point",
    "coordinates": [
     145.15189659,
     -37.82060291
    ]
   },
   "properties": {
    "name": "108 SOUTH PARADE BLACKBURN 3130",
    "locID": "LOC000113176795",
    "tech": "HFC",
    "upgrade": "NULL_NA",
    "gnaf_pid": "GAVIC413449432"
   }
  },
  {
   "type": "Feature",
   "geometry": {
    "type": "Point",
    "coordinates": [
     145.15236965,
     -37.82059251
    ]
   },
   "properties": {
    "name": "126 SOUTH PARADE BLACKBURN 3130",
    "locID": "LOC000014427959",
    "tech": "HFC",
    "upgrade": "NULL_NA",
    "gnaf_pid": "GAVIC413449436"
   }
  },
  {
   "type": "Feature",
   "geometry": {
    "type": "Point",
    "coordinates": [
     145.15028015,
     -37.82073071
    ]
   },
   "properties": {
    "name": "70 SOUTH PARADE BLACKBURN 3130",
    "locID": "LOC000104284804",
    "tech": "HFC",
    "upgrade": "NULL_NA",
    "gnaf_pid": "GAVIC413449443"
   }
  },
  {
   "type": "Feature",
   "geometry": {
    "type": "Point",
    "coordinates": [
     145.1559935,
     -37.81999792
    ]
   },
   "properties": {
    "name": "14 GEORGE STREET BLACKBURN 3130",
    "locID": "LOC000073361019",
    "tech": "FTTC",
    "upgrade": "FTTP_SA",
    "gnaf_pid": "GAVIC413449458",
    "tech_change_status": "Eligible To Order"
   }
  },
  {
   "type": "Feature",
   "geometry": {
    "type": "Point",
    "coordinates": [
     145.156043,
     -37.819676
    ]
   },
   "properties": {
    "name": "8 GEORGE STREET BLACKBURN 3130",
    "locID": "LOC000175316036",
    "tech": "FTTC",
    "upgrade": "FTTP_SA",
    "gnaf_pid": "GAVIC413449463",
    "tech_change_status": "Eligible To Order"
   }
  },
  {
   "type": "Feature",
   "geometry": {
    "type": "Point",
    "coordinates": [
     145.156043,
     -37.819676
    ]
   },
   "properties": {
    "name": "10 GEORGE STREET BLACKBURN 3130",
    "locID": "LOC000033579772",
    "tech": "FTTC",
    "upgrade": "FTTP_SA",
    "gnaf_pid": "GAVIC413449465",
    "tech_change_status": "Eligible To Order"
   }
  },
  {
   "type": "Feature",
   "geometry": {
    "type": "Point",
    "coordinates": [
     145.15495791,
     -37.81990069
    ]
   },
   "properties": {
    "name": "OFFICE 1, 11 MARY STREET BLACKBURN 3130",
    "locID": "LOC000058376679",
    "tech": "FTTC",
    "upgrade": "FTTP_SA",
    "gnaf_pid": "GAVIC413449472",
    "tech_change_status": "Eligible To Order"
   }
  },
  {
   "type": "Feature",
   "geometry": {
    "type": "Point",
    "coordinates": [
     145.13834631,
     -37.82882936
    ]
   },
   "properties": {
    "name": "12 DUCKHAM STREET BLACKBURN 3130",
    "locID": "LOC000026982774",
    "tech": "HFC",
    "upgrade": "NULL_NA",
    "gnaf_pid": "GAVIC413453489"
   }
  },
  {
   "type": "Feature",
   "geometry": {
    "type": "Point",
    "coordinates": [
     145.14116216,
     -37.8126412
    ]
   },
   "properties": {
    "name": "2A WRIGHT STREET BLACKBURN 3130",
    "locID": "LOC000048558532",
    "tech": "HFC",
    "upgrade": "NULL_NA",
    "gnaf_pid": "GAVIC413453952"
   }
  },
  {
   "type": "Feature",
   "geometry": {
    "type": "Point",
    "coordinates": [
     145.16191054,
     -37.82085876
    ]
   },
   "properties": {
    "name": "16 APOLLO COURT BLACKBURN 3130",
    "locID": "LOC000086574928",
    "tech": "FTTC",
    "upgrade": "FTTP_SA",
    "gnaf_pid": "GAVIC413453980",
    "tech_change_status": "Eligible To Order"
   }
  },
  {
   "type": "Feature",
   "geometry": {
    "type": "Point",
    "coordinates": [
     145.161826,
     -37.818889
    ]
   },
   "properties": {
    "name": "UNIT 3, 5 ASHBURN PLACE BLACKBURN 3130",
    "locID": "LOC000175355660",
    "tech": "FTTC",
    "upgrade": "FTTP_NA",
    "gnaf_pid": "GAVIC413453995",
    "tech_change_status": "MDU Complex Eligible To Apply"
   }
  },
  {
   "type": "Feature",
   "geometry": {
    "type": "Point",
    "coordinates": [
     145.161899,
     -37.819135
    ]
   },
   "properties": {
    "name": "7 ASHBURN PLACE BLACKBURN 3130",
    "locID": "LOC000154414645",
    "tech": "FTTC",
    "upgrade": "FTTP_SA",
    "gnaf_pid": "GAVIC413453996",
    "tech_change_status": "Eligible To Order"
   }
  },
  {
   "type": "Feature",
   "geometry": {
    "type": "Point",
    "coordinates": [
     145.16145446,
     -37.8194368
    ]
   },
   "properties": {
    "name": "9 ASHBURN PLACE BLACKBURN 3130",
    "locID": "LOC000113225317",
    "tech": "FTTP",
    "upgrade": "NULL_NA",
    "gnaf_pid": "GAVIC413453998"
   }
  },
  {
   "type": "Feature",
   "geometry": {
    "type": "Point",
    "coordinates": [
     145.15712984,
     -37.82042455
    ]
   },
   "properties": {
    "name": "28 COTTAGE STREET BLACKBURN 3130",
    "locID": "LOC000066020559",
    "tech": "FTTC",
    "upgrade": "FTTP_SA",
    "gnaf_pid": "GAVIC413454023",
    "tech_change_status": "Eligible To Order"
   }
  },
  {
   "type": "Feature",
   "geometry": {
    "type": "Point",
    "coordinates": [
     145.15732295,
     -37.81911431
    ]
   },
   "properties": {
    "name": "4 COTTAGE STREET BLACKBURN 3130",
    "locID": "LOC000095294837",
    "tech": "FTTC",
    "upgrade": "FTTP_SA",
    "gnaf_pid": "GAVIC413454039",
    "tech_change_status": "Eligible To Order"
   }
  },
  {
   "type": "Feature",
   "geometry": {
    "type": "Point",
    "coordinates": [
     145.157443,
     -37.820509
    ]
   },
   "properties": {
    "name": "31 COTTAGE STREET BLACKBURN 3130",
    "locID": "LOC000115092453",
    "tech": "FTTC",
    "upgrade": "FTTP_SA",
    "gnaf_pid": "GAVIC413454041",
    "tech_change_status": "Eligible To Order"
   }
  },
  {
   "type": "Feature",
   "geometry": {
    "type": "Point",
    "coordinates": [
     145.1497661,
     -37.81920699
    ]
   },
   "properties": {
    "name": "18 STATION STREET BLACKBURN 3130",
    "locID": "LOC000032869339",
    "tech": "HFC",
    "upgrade": "NULL_NA",
    "gnaf_pid": "GAVIC413470031"
   }
  },
  {
   "type": "Feature",
   "geometry": {
    "type": "Point",
    "coordinates": [
     145.154796,
     -37.810888
    ]
   },
   "properties": {
    "name": "1 JOHN HOLLAND COURT BLACKBURN 3130",
    "locID": "LOC000013667301",
    "tech": "HFC",
    "upgrade": "NULL_NA",
    "gnaf_pid": "GAVIC419564633"
   }
  },
  {
   "type": "Feature",
   "geometry": {
    "type": "Point",
    "coordinates": [
     145.154428,
     -37.812459
    ]
   },
   "properties": {
    "name": "17 JOHN HOLLAND COURT BLACKBURN 3130",
    "locID": "LOC000024289484",
    "tech": "HFC",
    "upgrade": "NULL_NA",
    "gnaf_pid": "GAVIC419564634"
   }
  },
  {
   "type": "Feature",
   "geometry": {
    "type": "Point",
    "coordinates": [
     145.15421053,
     -37.81245355
    ]
   },
   "properties": {
    "name": "20 JOHN HOLLAND COURT BLACKBURN 3130",
    "locID": "LOC000063682589",
    "tech": "HFC",
    "upgrade": "NULL_NA",
    "gnaf_pid": "GAVIC419564635"
   }
  },
  {
   "type": "Feature",
   "geometry": {
    "type": "Point",
    "coordinates": [
     145.143549,
     -37.824112
    ]
   },
   "properties": {
    "name": "1 LINUM STREET BLACKBURN 3130",
    "locID": "LOC000097223370",
    "tech": "HFC",
    "upgrade": "NULL_NA",
    "gnaf_pid": "GAVIC419564639"
   }
  },
  {
   "type": "Feature",
   "geometry": {
    "type": "Point",
    "coordinates": [
     145.143438,
     -37.824444
    ]
   },
   "properties": {
    "name": "2 LINUM STREET BLACKBURN 3130",
    "locID": "LOC000090830742",
    "tech": "HFC",
    "upgrade": "NULL_NA",
    "gnaf_pid": "GAVIC419564640"
   }
  },
  {
   "type": "Feature",
   "geometry": {
    "type": "Point",
    "coordinates": [
     145.143752,
     -37.824151
    ]
   },
   "properties": {
    "name": "3 LINUM STREET BLACKBURN 3130",
    "locID": "LOC000056431380",
    "tech": "HFC",
    "upgrade": "NULL_NA",
    "gnaf_pid": "GAVIC419564641"
   }
  },
  {
   "type": "Feature",
   "geometry": {
    "type": "Point",
    "coordinates": [
     145.144141,
     -37.824527
    ]
   },
   "properties": {
    "name": "6 LINUM STREET BLACKBURN 3130",
    "locID": "LOC000103938193",
    "tech": "HFC",
    "upgrade": "NULL_NA",
    "gnaf_pid": "GAVIC419564642"
   }
  },
  {
   "type": "Feature",
   "geometry": {
    "type": "Point",
    "coordinates": [
     145.144636,
     -37.824264
    ]
   },
   "properties": {
    "name": "11 LINUM STREET BLACKBURN 3130",
    "locID": "LOC000083585254",
    "tech": "HFC",
    "upgrade": "NULL_NA",
    "gnaf_pid": "GAVIC419564643"
   }
  },
  {
   "type": "Feature",
   "geometry": {
    "type": "Point",
    "coordinates": [
     145.145069,
     -37.82465
    ]
   },
   "properties": {
    "name": "14 LINUM STREET BLACKBURN 3130",
    "locID": "LOC000021094709",
    "tech": "HFC",
    "upgrade": "NULL_NA",
    "gnaf_pid": "GAVIC419564644"
   }
  },
  {
   "type": "Feature",
   "geometry": {
    "type": "Point",
    "coordinates": [
     145.145466,
     -37.824683
    ]
   },
   "properties": {
    "name": "16 LINUM STREET BLACKBURN 3130",
    "locID": "LOC000028612943",
    "tech": "HFC",
    "upgrade": "NULL_NA",
    "gnaf_pid": "GAVIC419564645"
   }
  },
  {
   "type": "Feature",
   "geometry": {
    "type": "Point",
    "coordinates": [
     145.147694,
     -37.824637
    ]
   },
   "properties": {
    "name": "25 LINUM STREET BLACKBURN 3130",
    "locID": "LOC000075960695",
    "tech": "HFC",
    "upgrade": "NULL_NA",
    "gnaf_pid": "GAVIC419564646"
   }
  },
  {
   "type": "Feature",
   "geometry": {
    "type": "Point",
    "coordinates": [
     145.148532,
     -37.82474
    ]
   },
   "properties": {
    "name": "33 LINUM STREET BLACKBURN 3130",
    "locID": "LOC000023831809",
    "tech": "HFC",
    "upgrade": "NULL_NA",
    "gnaf_pid": "GAVIC419564647"
   }
  },
  {
   "type": "Feature",
   "geometry": {
    "type": "Point",
    "coordinates": [
     145.147806,
     -37.818772
    ]
   },
   "properties": {
    "name": "12 LITHGOW AVENUE BLACKBURN 3130",
    "locID": "LOC000093196749",
    "tech": "HFC",
    "upgrade": "NULL_NA",
    "gnaf_pid": "GAVIC419564648"
   }
  },
  {
   "type": "Feature",
   "geometry": {
    "type": "Point",
    "coordinates": [
     145.15777,
     -37.818748
    ]
   },
   "properties": {
    "name": "5 COTTAGE STREET BLACKBURN 3130",
    "locID": "LOC000037549982",
    "tech": "FTTC",
    "upgrade": "FTTP_SA",
    "gnaf_pid": "GAVIC419565611",
    "tech_change_status": "Eligible To Order"
   }
  },
  {
   "type": "Feature",
   "geometry": {
    "type": "Point",
    "coordinates": [
     145.1405227,
     -37.81055265
    ]
   },
   "properties": {
    "name": "496 MIDDLEBOROUGH ROAD BLACKBURN 3130",
    "locID": "LOC000154518195",
    "tech": "HFC",
    "upgrade": "NULL_NA",
    "gnaf_pid": "GAVIC419565698"
   }
  },
  {
   "type": "Feature",
   "geometry": {
    "type": "Point",
    "coordinates": [
     145.160374,
     -37.813634
    ]
   },
   "properties": {
    "name": "9 HARTIGAN STREET BLACKBURN 3130",
    "locID": "LOC000069213691",
    "tech": "HFC",
    "upgrade": "NULL_NA",
    "gnaf_pid": "GAVIC419565710"
   }
  },
  {
   "type": "Feature",
   "geometry": {
    "type": "Point",
    "coordinates": [
     145.161059,
     -37.813951
    ]
   },
   "properties": {
    "name": "12 HARTIGAN STREET BLACKBURN 3130",
    "locID": "LOC000039148198",
    "tech": "FTTC",
    "upgrade": "FTTP_SA",
    "gnaf_pid": "GAVIC419565711",
    "tech_change_status": "Eligible To Order"
   }
  },
  {
   "type": "Feature",
   "geometry": {
    "type": "Point",
    "coordinates": [
     145.15731961,
     -37.82730557
    ]
   },
   "properties": {
    "name": "34 JEFFERY STREET BLACKBURN 3130",
    "locID": "LOC000058520162",
    "tech": "HFC",
    "upgrade": "NULL_NA",
    "gnaf_pid": "GAVIC419566559"
   }
  },
  {
   "type": "Feature",
   "geometry": {
    "type": "Point",
    "coordinates": [
     145.157533,
     -37.826927
    ]
   },
   "properties": {
    "name": "35 JEFFERY STREET BLACKBURN 3130",
    "locID": "LOC000044818892",
    "tech": "HFC",
    "upgrade": "NULL_NA",
    "gnaf_pid": "GAVIC419566560"
   }
  },
  {
   "type": "Feature",
   "geometry": {
    "type": "Point",
    "coordinates": [
     145.157693,
     -37.826876
    ]
   },
   "properties": {
    "name": "37 JEFFERY STREET BLACKBURN 3130",
    "locID": "LOC000107603724",
    "tech": "HFC",
    "upgrade": "NULL_NA",
    "gnaf_pid": "GAVIC419566561"
   }
  },
  {
   "type": "Feature",
   "geometry": {
    "type": "Point",
    "coordinates": [
     145.166361,
     -37.828309
    ]
   },
   "properties": {
    "name": "2 GERALD STREET BLACKBURN 3130",
    "locID": "LOC000073792268",
    "tech": "HFC",
    "upgrade": "NULL_NA",
    "gnaf_pid": "GAVIC419566578"
   }
  },
  {
   "type": "Feature",
   "geometry": {
    "type": "Point",
    "coordinates": [
     145.166934,
     -37.82811
    ]
   },
   "properties": {
    "name": "7 GERALD STREET BLACKBURN 3130",
    "locID": "LOC000021064581",
    "tech": "HFC",
    "upgrade": "NULL_NA",
    "gnaf_pid": "GAVIC419566579"
   }
  },
  {
   "type": "Feature",
   "geometry": {
    "type": "Point",
    "coordinates": [
     145.167321,
     -37.828531
    ]
   },
   "properties": {
    "name": "15 GERALD STREET BLACKBURN 3130",
    "locID": "LOC000075878519",
    "tech": "HFC",
    "upgrade": "NULL_NA",
    "gnaf_pid": "GAVIC419566580"
   }
  },
  {
   "type": "Feature",
   "geometry": {
    "type": "Point",
    "coordinates": [
     145.153996,
     -37.822483
    ]
   },
   "properties": {
    "name": "1 CLARKE STREET BLACKBURN 3130",
    "locID": "LOC000123540240",
    "tech": "HFC",
    "upgrade": "NULL_NA",
    "gnaf_pid": "GAVIC419566594"
   }
  },
  {
   "type": "Feature",
   "geometry": {
    "type": "Point",
    "coordinates": [
     145.147787,
     -37.828631
    ]
   },
   "properties": {
    "name": "4 MOLLETON STREET BLACKBURN 3130",
    "locID": "LOC000063740167",
    "tech": "HFC",
    "upgrade": "NULL_NA",
    "gnaf_pid": "GAVIC419566636"
   }
  },
  {
   "type": "Feature",
   "geometry": {
    "type": "Point",
    "coordinates": [
     145.145737,
     -37.828382
    ]
   },
   "properties": {
    "name": "22 MOLLETON STREET BLACKBURN 3130",
    "locID": "LOC000011960851",
    "tech": "HFC",
    "upgrade": "NULL_NA",
    "gnaf_pid": "GAVIC419566637"
   }
  },
  {
   "type": "Feature",
   "geometry": {
    "type": "Point",
    "coordinates": [
     145.159103,
     -37.822734
    ]
   },
   "properties": {
    "name": "11 PARKSIDE STREET BLACKBURN 3130",
    "locID": "LOC000034040834",
    "tech": "HFC",
    "upgrade": "NULL_NA",
    "gnaf_pid": "GAVIC419566677"
   }
  },
  {
   "type": "Feature",
   "geometry": {
    "type": "Point",
    "coordinates": [
     145.15806,
     -37.826746
    ]
   },
   "properties": {
    "name": "41 JEFFERY STREET BLACKBURN 3130",
    "locID": "LOC000063552137",
    "tech": "HFC",
    "upgrade": "NULL_NA",
    "gnaf_pid": "GAVIC419566713"
   }
  },
  {
   "type": "Feature",
   "geometry": {
    "type": "Point",
    "coordinates": [
     145.156393,
     -37.826612
    ]
   },
   "properties": {
    "name": "19 ALANDALE ROAD BLACKBURN 3130",
    "locID": "LOC000073311704",
    "tech": "HFC",
    "upgrade": "NULL_NA",
    "gnaf_pid": "GAVIC419567222"
   }
  },
  {
   "type": "Feature",
   "geometry": {
    "type": "Point",
    "coordinates": [
     145.155196,
     -37.826341
    ]
   },
   "properties": {
    "name": "30 ALANDALE COURT BLACKBURN 3130",
    "locID": "LOC000021211880",
    "tech": "HFC",
    "upgrade": "NULL_NA",
    "gnaf_pid": "GAVIC419567223"
   }
  },
  {
   "type": "Feature",
   "geometry": {
    "type": "Point",
    "coordinates": [
     145.154872,
     -37.827003
    ]
   },
   "properties": {
    "name": "33 ALANDALE ROAD BLACKBURN 3130",
    "locID": "LOC000013546416",
    "tech": "HFC",
    "upgrade": "NULL_NA",
    "gnaf_pid": "GAVIC419567224"
   }
  },
  {
   "type": "Feature",
   "geometry": {
    "type": "Point",
    "coordinates": [
     145.154834,
     -37.826714
    ]
   },
   "properties": {
    "name": "36 ALANDALE ROAD BLACKBURN 3130",
    "locID": "LOC000069842976",
    "tech": "HFC",
    "upgrade": "NULL_NA",
    "gnaf_pid": "GAVIC419567225"
   }
  },
  {
   "type": "Feature",
   "geometry": {
    "type": "Point",
    "coordinates": [
     145.154348,
     -37.827057
    ]
   },
   "properties": {
    "name": "39 ALANDALE ROAD BLACKBURN 3130",
    "locID": "LOC000018632887",
    "tech": "HFC",
    "upgrade": "NULL_NA",
    "gnaf_pid": "GAVIC419567226"
   }
  },
  {
   "type": "Feature",
   "geometry": {
    "type": "Point",
    "coordinates": [
     145.152815,
     -37.818823
    ]
   },
   "properties": {
    "name": "11 ALBERT STREET BLACKBURN 3130",
    "locID": "LOC000089715933",
    "tech": "HFC",
    "upgrade": "NULL_NA",
    "gnaf_pid": "GAVIC419567228"
   }
  },
  {
   "type": "Feature",
   "geometry": {
    "type": "Point",
    "coordinates": [
     145.163649,
     -37.831375
    ]
   },
   "properties": {
    "name": "4 ANJAYA COURT BLACKBURN 3130",
    "locID": "LOC000079188704",
    "tech": "HFC",
    "upgrade": "NULL_NA",
    "gnaf_pid": "GAVIC419570133"
   }
  },
  {
   "type": "Feature",
   "geometry": {
    "type": "Point",
    "coordinates": [
     145.163201,
     -37.831576
    ]
   },
   "properties": {
    "name": "10 ANJAYA COURT BLACKBURN 3130",
    "locID": "LOC000106435381",
    "tech": "HFC",
    "upgrade": "NULL_NA",
    "gnaf_pid": "GAVIC419570134"
   }
  },
  {
   "type": "Feature",
   "geometry": {
    "type": "Point",
    "coordinates": [
     145.159659,
     -37.816813
    ]
   },
   "properties": {
    "name": "3 MUSK STREET BLACKBURN 3130",
    "locID": "LOC000002077851",
    "tech": "FTTP",
    "upgrade": "NULL_NA",
    "gnaf_pid": "GAVIC419570844"
   }
  },
  {
   "type": "Feature",
   "geometry": {
    "type": "Point",
    "coordinates": [
     145.158714,
     -37.812337
    ]
   },
   "properties": {
    "name": "9 LARCH STREET BLACKBURN 3130",
    "locID": "LOC000002049106",
    "tech": "HFC",
    "upgrade": "NULL_NA",
    "gnaf_pid": "GAVIC419570862"
   }
  },
  {
   "type": "Feature",
   "geometry": {
    "type": "Point",
    "coordinates": [
     145.158056,
     -37.813651
    ]
   },
   "properties": {
    "name": "26 LARCH STREET BLACKBURN 3130",
    "locID": "LOC000043103224",
    "tech": "HFC",
    "upgrade": "NULL_NA",
    "gnaf_pid": "GAVIC419570863"
   }
  },
  {
   "type": "Feature",
   "geometry": {
    "type": "Point",
    "coordinates": [
     145.158377,
     -37.81399
    ]
   },
   "properties": {
    "name": "29 LARCH STREET BLACKBURN 3130",
    "locID": "LOC000020447236",
    "tech": "HFC",
    "upgrade": "NULL_NA",
    "gnaf_pid": "GAVIC419570864"
   }
  },
  {
   "type": "Feature",
   "geometry": {
    "type": "Point",
    "coordinates": [
     145.138258,
     -37.827597
    ]
   },
   "properties": {
    "name": "1 MARIAN COURT BLACKBURN 3130",
    "locID": "LOC000048480870",
    "tech": "HFC",
    "upgrade": "NULL_NA",
    "gnaf_pid": "GAVIC419570874"
   }
  },
  {
   "type": "Feature",
   "geometry": {
    "type": "Point",
    "coordinates": [
     145.143316,
     -37.821161
    ]
   },
   "properties": {
    "name": "2 MYRTLE GROVE BLACKBURN 3130",
    "locID": "LOC000029289358",
    "tech": "HFC",
    "upgrade": "NULL_NA",
    "gnaf_pid": "GAVIC419571043"
   }
  },
  {
   "type": "Feature",
   "geometry": {
    "type": "Point",
    "coordinates": [
     145.14321184,
     -37.82168235
    ]
   },
   "properties": {
    "name": "4 MYRTLE GROVE BLACKBURN 3130",
    "locID": "LOC000019344916",
    "tech": "HFC",
    "upgrade": "NULL_NA",
    "gnaf_pid": "GAVIC419571044"
   }
  },
  {
   "type": "Feature",
   "geometry": {
    "type": "Point",
    "coordinates": [
     145.143415,
     -37.82265
    ]
   },
   "properties": {
    "name": "11 MYRTLE GROVE BLACKBURN 3130",
    "locID": "LOC000034389349",
    "tech": "HFC",
    "upgrade": "NULL_NA",
    "gnaf_pid": "GAVIC419571045"
   }
  },
  {
   "type": "Feature",
   "geometry": {
    "type": "Point",
    "coordinates": [
     145.143388,
     -37.822812
    ]
   },
   "properties": {
    "name": "13 MYRTLE GROVE BLACKBURN 3130",
    "locID": "LOC000003572075",
    "tech": "HFC",
    "upgrade": "NULL_NA",
    "gnaf_pid": "GAVIC419571046"
   }
  },
  {
   "type": "Feature",
   "geometry": {
    "type": "Point",
    "coordinates": [
     145.143017,
     -37.82268
    ]
   },
   "properties": {
    "name": "16 MYRTLE GROVE BLACKBURN 3130",
    "locID": "LOC000088675012",
    "tech": "HFC",
    "upgrade": "NULL_NA",
    "gnaf_pid": "GAVIC419571047"
   }
  },
  {
   "type": "Feature",
   "geometry": {
    "type": "Point",
    "coordinates": [
     145.142846,
     -37.823605
    ]
   },
   "properties": {
    "name": "22 MYRTLE GROVE BLACKBURN 3130",
    "locID": "LOC000090925915",
    "tech": "HFC",
    "upgrade": "NULL_NA",
    "gnaf_pid": "GAVIC419571729"
   }
  },
  {
   "type": "Feature",
   "geometry": {
    "type": "Point",
    "coordinates": [
     145.142747,
     -37.823928
    ]
   },
   "properties": {
    "name": "26 MYRTLE GROVE BLACKBURN 3130",
    "locID": "LOC000071815617",
    "tech": "HFC",
    "upgrade": "NULL_NA",
    "gnaf_pid": "GAVIC419571730"
   }
  },
  {
   "type": "Feature",
   "geometry": {
    "type": "Point",
    "coordinates": [
     145.142742,
     -37.824126
    ]
   },
   "properties": {
    "name": "28 MYRTLE GROVE BLACKBURN 3130",
    "locID": "LOC000102272318",
    "tech": "HFC",
    "upgrade": "NULL_NA",
    "gnaf_pid": "GAVIC419571731"
   }
  },
  {
   "type": "Feature",
   "geometry": {
    "type": "Point",
    "coordinates": [
     145.143086,
     -37.824429
    ]
   },
   "properties": {
    "name": "29 MYRTLE GROVE BLACKBURN 3130",
    "locID": "LOC000003653266",
    "tech": "HFC",
    "upgrade": "NULL_NA",
    "gnaf_pid": "GAVIC419571732"
   }
  },
  {
   "type": "Feature",
   "geometry": {
    "type": "Point",
    "coordinates": [
     145.142884,
     -37.825697
    ]
   },
   "properties": {
    "name": "39 MYRTLE GROVE BLACKBURN 3130",
    "locID": "LOC000067597081",
    "tech": "HFC",
    "upgrade": "NULL_NA",
    "gnaf_pid": "GAVIC419571733"
   }
  },
  {
   "type": "Feature",
   "geometry": {
    "type": "Point",
    "coordinates": [
     145.142676,
     -37.825829
    ]
   },
   "properties": {
    "name": "50 MYRTLE GROVE BLACKBURN 3130",
    "locID": "LOC000002746271",
    "tech": "HFC",
    "upgrade": "NULL_NA",
    "gnaf_pid": "GAVIC419571734"
   }
  },
  {
   "type": "Feature",
   "geometry": {
    "type": "Point",
    "coordinates": [
     145.142463,
     -37.825717
    ]
   },
   "properties": {
    "name": "46 MYRTLE GROVE BLACKBURN 3130",
    "locID": "LOC000081366431",
    "tech": "HFC",
    "upgrade": "NULL_NA",
    "gnaf_pid": "GAVIC419571735"
   }
  },
  {
   "type": "Feature",
   "geometry": {
    "type": "Point",
    "coordinates": [
     145.159336,
     -37.829344
    ]
   },
   "properties": {
    "name": "3 CLOVERLEA COURT BLACKBURN 3130",
    "locID": "LOC000024362898",
    "tech": "HFC",
    "upgrade": "NULL_NA",
    "gnaf_pid": "GAVIC419572564"
   }
  },
  {
   "type": "Feature",
   "geometry": {
    "type": "Point",
    "coordinates": [
     145.159477,
     -37.829625
    ]
   },
   "properties": {
    "name": "6 CLOVERLEA COURT BLACKBURN 3130",
    "locID": "LOC000016107042",
    "tech": "HFC",
    "upgrade": "NULL_NA",
    "gnaf_pid": "GAVIC419572565"
   }
  },
  {
   "type": "Feature",
   "geometry": {
    "type": "Point",
    "coordinates": [
     145.150301,
     -37.831257
    ]
   },
   "properties": {
    "name": "21 LALWA STREET BLACKBURN 3130",
    "locID": "LOC000073258254",
    "tech": "HFC",
    "upgrade": "NULL_NA",
    "gnaf_pid": "GAVIC419572862"
   }
  },
  {
   "type": "Feature",
   "geometry": {
    "type": "Point",
    "coordinates": [
     145.15026,
     -37.831535
    ]
   },
   "properties": {
    "name": "25 LALWA STREET BLACKBURN 3130",
    "locID": "LOC000089572273",
    "tech": "HFC",
    "upgrade": "NULL_NA",
    "gnaf_pid": "GAVIC419572863"
   }
  },
  {
   "type": "Feature",
   "geometry": {
    "type": "Point",
    "coordinates": [
     145.15780567,
     -37.82174236
    ]
   },
   "properties": {
    "name": "8 GLEN EBOR AVENUE BLACKBURN 3130",
    "locID": "LOC000114278074",
    "tech": "HFC",
    "upgrade": "NULL_NA",
    "gnaf_pid": "GAVIC419573439"
   }
  },