{
 "type": "FeatureCollection",
 "generated": "2023-10-23T12:05:13.869308",
 "suburb": "BLACKHEATH",
 "features": [
  {
   "type": "Feature",
   "geometry": {
    "type": "Point",
    "coordinates": [
     142.32846576,
     -36.48643689
    ]
   },
   "properties": {
    "name": "171 BYRNES ROAD BLACKHEATH 3401",
    "locID": "LOC000073644216",
    "tech": "SATELLITE",
    "upgrade": "NULL_NA",
    "gnaf_pid": "GAVIC422281133"
   }
  },
  {
   "type": "Feature",
   "geometry": {
    "type": "Point",
    "coordinates": [
     142.29204994,
     -36.4848552
    ]
   },
   "properties": {
    "name": "328 BYRNEVILLE WEST ROAD BLACKHEATH 3401",
    "locID": "LOC000031645360",
    "tech": "SATELLITE",
    "upgrade": "NULL_NA",
    "gnaf_pid": "GAVIC422281139"
   }
  },
  {
   "type": "Feature",
   "geometry": {
    "type": "Point",
    "coordinates": [
     142.3178347,
     -36.48536638
    ]
   },
   "properties": {
    "name": "97 BYRNEVILLE WEST ROAD BLACKHEATH 3401",
    "locID": "LOC000053117769",
    "tech": "SATELLITE",
    "upgrade": "NULL_NA",
    "gnaf_pid": "GAVIC422281140"
   }
  },
  {
   "type": "Feature",
   "geometry": {
    "type": "Point",
    "coordinates": [
     142.3162443,
     -36.44080689
    ]
   },
   "properties": {
    "name": "2224 DIMBOOLA-MINYIP ROAD BLACKHEATH 3401",
    "locID": "LOC000094866897",
    "tech": "SATELLITE",
    "upgrade": "NULL_NA",
    "gnaf_pid": "GAVIC422287399"
   }
  },
  {
   "type": "Feature",
   "geometry": {
    "type": "Point",
    "coordinates": [
     142.3245009,
     -36.44083274
    ]
   },
   "properties": {
    "name": "2296 DIMBOOLA-MINYIP ROAD BLACKHEATH 3401",
    "locID": "LOC000005373042",
    "tech": "SATELLITE",
    "upgrade": "NULL_NA",
    "gnaf_pid": "GAVIC422287400"
   }
  },
  {
   "type": "Feature",
   "geometry": {
    "type": "Point",
    "coordinates": [
     142.26917825,
     -36.48030635
    ]
   },
   "properties": {
    "name": "135 HERMANS ROAD BLACKHEATH 3401",
    "locID": "LOC000031755969",
    "tech": "SATELLITE",
    "upgrade": "NULL_NA",
    "gnaf_pid": "GAVIC422297998"
   }
  },
  {
   "type": "Feature",
   "geometry": {
    "type": "Point",
    "coordinates": [
     142.26023099,
     -36.45498765
    ]
   },
   "properties": {
    "name": "600 KINGS ROAD BLACKHEATH 3401",
    "locID": "ChIJqeItpMWwz2oRp6ww6sESrio",
    "tech": "SATELLITE",
    "upgrade": "UNKNOWN",
    "gnaf_pid": "GAVIC422302279"
   }
  },
  {
   "type": "Feature",
   "geometry": {
    "type": "Point",
    "coordinates": [
     142.26473989,
     -36.46966824
    ]
   },
   "properties": {
    "name": "1659 OLD MINYIP ROAD BLACKHEATH 3401",
    "locID": "LOC000113146973",
    "tech": "WIRELESS",
    "upgrade": "NULL_NA",
    "gnaf_pid": "GAVIC422314644"
   }
  },
  {
   "type": "Feature",
   "geometry": {
    "type": "Point",
    "coordinates": [
     142.30924025,
     -36.4754909
    ]
   },
   "properties": {
    "name": "336 EXELLS QUARRY ROAD BLACKHEATH 3401",
    "locID": "LOC000011174829",
    "tech": "SATELLITE",
    "upgrade": "NULL_NA",
    "gnaf_pid": "GAVIC423140167"
   }
  },
  {
   "type": "Feature",
   "geometry": {
    "type": "Point",
    "coordinates": [
     142.32844183,
     -36.48568895
    ]
   },
   "properties": {
    "name": "179 BYRNES ROAD BLACKHEATH 3401",
    "locID": "ChIJXxJxbq23z2oRG3iBayucOwc",
    "tech": "SATELLITE",
    "upgrade": "UNKNOWN",
    "gnaf_pid": "GAVIC424486934"
   }
  }
 ]
}