{
 "type": "FeatureCollection",
 "generated": "2023-10-23T12:11:41.965012",
 "suburb": "BOINKA",
 "features": [
  {
   "type": "Feature",
   "geometry": {
    "type": "Point",
    "coordinates": [
     141.62316374,
     -35.26235653
    ]
   },
   "properties": {
    "name": "288 WOROOA ROAD BOINKA 3490",
    "locID": "LOC000045491854",
    "tech": "SATELLITE",
    "upgrade": "NULL_NA",
    "gnaf_pid": "GAVIC410916123"
   }
  },
  {
   "type": "Feature",
   "geometry": {
    "type": "Point",
    "coordinates": [
     141.58863091,
     -35.2174197
    ]
   },
   "properties": {
    "name": "150 STOCK ROUTE ROAD BOINKA 3490",
    "locID": "ChIJVX8n_rnOxWoRq1McWAOVu0s",
    "tech": "SATELLITE",
    "upgrade": "UNKNOWN",
    "gnaf_pid": "GAVIC423288915"
   }
  },
  {
   "type": "Feature",
   "geometry": {
    "type": "Point",
    "coordinates": [
     141.59056156,
     -35.2357849
    ]
   },
   "properties": {
    "name": "431 BOINKA SOUTH ROAD BOINKA 3490",
    "locID": "ChIJWwPhXizJxWoRYdhzJwBh0NM",
    "tech": "SATELLITE",
    "upgrade": "UNKNOWN",
    "gnaf_pid": "GAVIC423787855"
   }
  },
  {
   "type": "Feature",
   "geometry": {
    "type": "Point",
    "coordinates": [
     141.59081588,
     -35.2511485
    ]
   },
   "properties": {
    "name": "604 BOINKA SOUTH ROAD BOINKA 3490",
    "locID": "LOC000006952776",
    "tech": "SATELLITE",
    "upgrade": "NULL_NA",
    "gnaf_pid": "GAVIC423787856"
   }
  },
  {
   "type": "Feature",
   "geometry": {
    "type": "Point",
    "coordinates": [
     141.59146845,
     -35.26078436
    ]
   },
   "properties": {
    "name": "710 BOINKA SOUTH ROAD BOINKA 3490",
    "locID": "LOC000114231384",
    "tech": "SATELLITE",
    "upgrade": "NULL_NA",
    "gnaf_pid": "GAVIC423787857"
   }
  },
  {
   "type": "Feature",
   "geometry": {
    "type": "Point",
    "coordinates": [
     141.63820848,
     -35.16337135
    ]
   },
   "properties": {
    "name": "251 HAYTER ROAD BOINKA 3490",
    "locID": "LOC000124781272",
    "tech": "SATELLITE",
    "upgrade": "NULL_NA",
    "gnaf_pid": "GAVIC423793026"
   }
  },
  {
   "type": "Feature",
   "geometry": {
    "type": "Point",
    "coordinates": [
     141.59116402,
     -35.24072467
    ]
   },
   "properties": {
    "name": "166 BOINKA SOUTH ROAD BOINKA 3490",
    "locID": "ChIJQ2Jmy9fOxWoRpmOiO8qVhqo",
    "tech": "SATELLITE",
    "upgrade": "UNKNOWN",
    "gnaf_pid": "GAVIC423986130"
   }
  },
  {
   "type": "Feature",
   "geometry": {
    "type": "Point",
    "coordinates": [
     141.60222141,
     -35.20148109
    ]
   },
   "properties": {
    "name": "25 BOINKA SOUTH ROAD BOINKA 3490",
    "locID": "LOC000102850232",
    "tech": "SATELLITE",
    "upgrade": "NULL_NA",
    "gnaf_pid": "GAVIC424021542"
   }
  },
  {
   "type": "Feature",
   "geometry": {
    "type": "Point",
    "coordinates": [
     141.59157124,
     -35.25223585
    ]
   },
   "properties": {
    "name": "617 BOINKA SOUTH ROAD BOINKA 3490",
    "locID": "LOC000124781576",
    "tech": "SATELLITE",
    "upgrade": "NULL_NA",
    "gnaf_pid": "GAVIC424021543"
   }
  },
  {
   "type": "Feature",
   "geometry": {
    "type": "Point",
    "coordinates": [
     141.62650535,
     -35.23657802
    ]
   },
   "properties": {
    "name": "618 MORRISON ROAD BOINKA 3490",
    "locID": "ChIJPbT4RRPJxWoRPqoT8GcefDI",
    "tech": "SATELLITE",
    "upgrade": "UNKNOWN",
    "gnaf_pid": "GAVIC424032019"
   }
  },
  {
   "type": "Feature",
   "geometry": {
    "type": "Point",
    "coordinates": [
     141.64466726,
     -35.19148816
    ]
   },
   "properties": {
    "name": "92 MORRISON ROAD BOINKA 3490",
    "locID": "ChIJ_TI0j1PKxWoRr4qMQSuDCRA",
    "tech": "SATELLITE",
    "upgrade": "UNKNOWN",
    "gnaf_pid": "GAVIC424032020"
   }
  },
  {
   "type": "Feature",
   "geometry": {
    "type": "Point",
    "coordinates": [
     141.62193249,
     -35.26236286
    ]
   },
   "properties": {
    "name": "276 WOROOA ROAD BOINKA 3490",
    "locID": "ChIJHyLc2OfIxWoRYm2i-27u1pg",
    "tech": "SATELLITE",
    "upgrade": "UNKNOWN",
    "gnaf_pid": "GAVIC424038309"
   }
  },
  {
   "type": "Feature",
   "geometry": {
    "type": "Point",
    "coordinates": [
     141.6266207,
     -35.1901041
    ]
   },
   "properties": {
    "name": "6714 MALLEE HIGHWAY BOINKA 3490",
    "locID": "LOC000060619313",
    "tech": "SATELLITE",
    "upgrade": "NULL_NA",
    "gnaf_pid": "GAVIC424273911"
   }
  },
  {
   "type": "Feature",
   "geometry": {
    "type": "Point",
    "coordinates": [
     141.60098044,
     -35.20153234
    ]
   },
   "properties": {
    "name": "15 MCDONALD ROAD BOINKA 3490",
    "locID": "LOC000098341670",
    "tech": "SATELLITE",
    "upgrade": "NULL_NA",
    "gnaf_pid": "GAVIC424274001"
   }
  }
 ]
}