{
 "type": "FeatureCollection",
 "generated": "2024-07-05T07:42:26.271428",
 "suburb": "BOINKA",
 "features": [
  {
   "type": "Feature",
   "geometry": {
    "type": "Point",
    "coordinates": [
     141.62316374,
     -35.26235653
    ]
   },
   "properties": {
    "name": "288 WOROOA ROAD BOINKA 3490",
    "locID": "LOC000045491854",
    "tech": "SATELLITE",
    "upgrade": "NULL_NA",
    "gnaf_pid": "GAVIC410916123",
    "tech_change_status": "Not Planned"
   }
  },
  {
   "type": "Feature",
   "geometry": {
    "type": "Point",
    "coordinates": [
     141.59081588,
     -35.2511485
    ]
   },
   "properties": {
    "name": "604 BOINKA SOUTH ROAD BOINKA 3490",
    "locID": "LOC000006952776",
    "tech": "SATELLITE",
    "upgrade": "NULL_NA",
    "gnaf_pid": "GAVIC423787856",
    "tech_change_status": "Not Planned"
   }
  },
  {
   "type": "Feature",
   "geometry": {
    "type": "Point",
    "coordinates": [
     141.59146845,
     -35.26078436
    ]
   },
   "properties": {
    "name": "710 BOINKA SOUTH ROAD BOINKA 3490",
    "locID": "LOC000114231384",
    "tech": "SATELLITE",
    "upgrade": "NULL_NA",
    "gnaf_pid": "GAVIC423787857",
    "tech_change_status": "Not Planned"
   }
  },
  {
   "type": "Feature",
   "geometry": {
    "type": "Point",
    "coordinates": [
     141.63820848,
     -35.16337135
    ]
   },
   "properties": {
    "name": "251 HAYTER ROAD BOINKA 3490",
    "locID": "LOC000124781272",
    "tech": "SATELLITE",
    "upgrade": "NULL_NA",
    "gnaf_pid": "GAVIC423793026",
    "tech_change_status": "Not Planned"
   }
  },
  {
   "type": "Feature",
   "geometry": {
    "type": "Point",
    "coordinates": [
     141.60222141,
     -35.20148109
    ]
   },
   "properties": {
    "name": "25 BOINKA SOUTH ROAD BOINKA 3490",
    "locID": "LOC000102850232",
    "tech": "SATELLITE",
    "upgrade": "NULL_NA",
    "gnaf_pid": "GAVIC424021542",
    "tech_change_status": "Not Planned"
   }
  },
  {
   "type": "Feature",
   "geometry": {
    "type": "Point",
    "coordinates": [
     141.59157124,
     -35.25223585
    ]
   },
   "properties": {
    "name": "617 BOINKA SOUTH ROAD BOINKA 3490",
    "locID": "LOC000124781576",
    "tech": "SATELLITE",
    "upgrade": "NULL_NA",
    "gnaf_pid": "GAVIC424021543",
    "tech_change_status": "Not Planned"
   }
  },
  {
   "type": "Feature",
   "geometry": {
    "type": "Point",
    "coordinates": [
     141.6266207,
     -35.1901041
    ]
   },
   "properties": {
    "name": "6714 MALLEE HIGHWAY BOINKA 3490",
    "locID": "LOC000060619313",
    "tech": "SATELLITE",
    "upgrade": "NULL_NA",
    "gnaf_pid": "GAVIC424273911",
    "tech_change_status": "Not Planned"
   }
  },
  {
   "type": "Feature",
   "geometry": {
    "type": "Point",
    "coordinates": [
     141.60098044,
     -35.20153234
    ]
   },
   "properties": {
    "name": "15 MCDONALD ROAD BOINKA 3490",
    "locID": "LOC000098341670",
    "tech": "SATELLITE",
    "upgrade": "NULL_NA",
    "gnaf_pid": "GAVIC424274001",
    "tech_change_status": "Not Planned"
   }
  }
 ]
}