{
 "type": "FeatureCollection",
 "generated": "2023-10-23T12:14:09.758574",
 "suburb": "BOLTON",
 "features": [
  {
   "type": "Feature",
   "geometry": {
    "type": "Point",
    "coordinates": [
     142.96287321,
     -34.99120396
    ]
   },
   "properties": {
    "name": "265 OSHANNASSY ROAD BOLTON 3546",
    "locID": "LOC000024365640",
    "tech": "SATELLITE",
    "upgrade": "NULL_NA",
    "gnaf_pid": "GAVIC420576936"
   }
  },
  {
   "type": "Feature",
   "geometry": {
    "type": "Point",
    "coordinates": [
     143.00480815,
     -34.99471983
    ]
   },
   "properties": {
    "name": "2798 COONIMUR ROAD BOLTON 3546",
    "locID": "LOC000044975001",
    "tech": "SATELLITE",
    "upgrade": "NULL_NA",
    "gnaf_pid": "GAVIC421992923"
   }
  },
  {
   "type": "Feature",
   "geometry": {
    "type": "Point",
    "coordinates": [
     142.86627903,
     -34.94340189
    ]
   },
   "properties": {
    "name": "4130 ROBINVALE-SEA LAKE ROAD BOLTON 3546",
    "locID": "LOC000124823214",
    "tech": "WIRELESS",
    "upgrade": "NULL_NA",
    "gnaf_pid": "GAVIC421992924"
   }
  },
  {
   "type": "Feature",
   "geometry": {
    "type": "Point",
    "coordinates": [
     142.87801238,
     -34.96572561
    ]
   },
   "properties": {
    "name": "119 BOLTON-KOOLOONONG ROAD BOLTON 3546",
    "locID": "LOC000124815211",
    "tech": "SATELLITE",
    "upgrade": "NULL_NA",
    "gnaf_pid": "GAVIC422129303"
   }
  },
  {
   "type": "Feature",
   "geometry": {
    "type": "Point",
    "coordinates": [
     142.93198514,
     -34.94771876
    ]
   },
   "properties": {
    "name": "120 BOLTON-KOOLOONONG ROAD BOLTON 3546",
    "locID": "ChIJDaGDIJGm3GoR2dC5dsZiXhk",
    "tech": "SATELLITE",
    "upgrade": "UNKNOWN",
    "gnaf_pid": "GAVIC422129304"
   }
  },
  {
   "type": "Feature",
   "geometry": {
    "type": "Point",
    "coordinates": [
     142.8799376,
     -34.96616365
    ]
   },
   "properties": {
    "name": "134 BOLTON-KOOLOONONG ROAD BOLTON 3546",
    "locID": "ChIJDyG05tun3GoRB_PhOOtGogo",
    "tech": "SATELLITE",
    "upgrade": "UNKNOWN",
    "gnaf_pid": "GAVIC422129305"
   }
  },
  {
   "type": "Feature",
   "geometry": {
    "type": "Point",
    "coordinates": [
     142.97820949,
     -34.9255553
    ]
   },
   "properties": {
    "name": "185 THOMPSON ROAD BOLTON 3546",
    "locID": "LOC000124818953",
    "tech": "SATELLITE",
    "upgrade": "NULL_NA",
    "gnaf_pid": "GAVIC422196550"
   }
  },
  {
   "type": "Feature",
   "geometry": {
    "type": "Point",
    "coordinates": [
     142.84398971,
     -34.97529799
    ]
   },
   "properties": {
    "name": "209 WEBSTER ROAD BOLTON 3546",
    "locID": "LOC100055151249",
    "tech": "SATELLITE",
    "upgrade": "NULL_NA",
    "gnaf_pid": "GAVIC422201960"
   }
  },
  {
   "type": "Feature",
   "geometry": {
    "type": "Point",
    "coordinates": [
     142.94831304,
     -34.9634448
    ]
   },
   "properties": {
    "name": "497 BOLTON-NATYA ROAD BOLTON 3546",
    "locID": "LOC000142412464",
    "tech": "SATELLITE",
    "upgrade": "NULL_NA",
    "gnaf_pid": "GAVIC422278480"
   }
  },
  {
   "type": "Feature",
   "geometry": {
    "type": "Point",
    "coordinates": [
     142.87815482,
     -34.96754605
    ]
   },
   "properties": {
    "name": "120 BARNES ROAD BOLTON 3546",
    "locID": "ChIJ8ZOqFNmn3GoRZmw-_DdGTdQ",
    "tech": "SATELLITE",
    "upgrade": "UNKNOWN",
    "gnaf_pid": "GAVIC424906668"
   }
  },
  {
   "type": "Feature",
   "geometry": {
    "type": "Point",
    "coordinates": [
     142.87815481,
     -34.96754484
    ]
   },
   "properties": {
    "name": "16 BARNES ROAD BOLTON 3546",
    "locID": "EiVCYXJuZXMgUmQsIEJvbHRvbiBWSUMgMzU0NiwgQXVzdHJhbGlhIi4qLAoUChIJxX40dNmn3GoRxqR-yHe097wSFAoSCYkgI-KYptxqEcCeoDCkeQUE",
    "tech": "SATELLITE",
    "upgrade": "UNKNOWN",
    "gnaf_pid": "GAVIC720128631"
   }
  }
 ]
}