{
 "type": "FeatureCollection",
 "generated": "2024-07-05T07:44:21.242054",
 "suburb": "BOLTON",
 "features": [
  {
   "type": "Feature",
   "geometry": {
    "type": "Point",
    "coordinates": [
     142.96287321,
     -34.99120396
    ]
   },
   "properties": {
    "name": "265 OSHANNASSY ROAD BOLTON 3546",
    "locID": "LOC000024365640",
    "tech": "WIRELESS",
    "upgrade": "NULL_NA",
    "gnaf_pid": "GAVIC420576936",
    "tech_change_status": "Eligible to Order",
    "program_type": "Fixed Wireless and Satellite Upgrade Program",
    "target_eligibility_quarter": "NA"
   }
  },
  {
   "type": "Feature",
   "geometry": {
    "type": "Point",
    "coordinates": [
     143.00480815,
     -34.99471983
    ]
   },
   "properties": {
    "name": "2798 COONIMUR ROAD BOLTON 3546",
    "locID": "LOC000044975001",
    "tech": "SATELLITE",
    "upgrade": "NULL_NA",
    "gnaf_pid": "GAVIC421992923",
    "tech_change_status": "Not Planned"
   }
  },
  {
   "type": "Feature",
   "geometry": {
    "type": "Point",
    "coordinates": [
     142.86627903,
     -34.94340189
    ]
   },
   "properties": {
    "name": "4130 ROBINVALE-SEA LAKE ROAD BOLTON 3546",
    "locID": "LOC000124823214",
    "tech": "WIRELESS",
    "upgrade": "NULL_NA",
    "gnaf_pid": "GAVIC421992924",
    "tech_change_status": "Not Planned",
    "program_type": "Fixed Wireless and Satellite Upgrade Program",
    "target_eligibility_quarter": "NA"
   }
  },
  {
   "type": "Feature",
   "geometry": {
    "type": "Point",
    "coordinates": [
     142.87801238,
     -34.96572561
    ]
   },
   "properties": {
    "name": "119 BOLTON-KOOLOONONG ROAD BOLTON 3546",
    "locID": "LOC000124815211",
    "tech": "WIRELESS",
    "upgrade": "NULL_NA",
    "gnaf_pid": "GAVIC422129303",
    "tech_change_status": "Not Planned",
    "program_type": "Fixed Wireless and Satellite Upgrade Program",
    "target_eligibility_quarter": "NA"
   }
  },
  {
   "type": "Feature",
   "geometry": {
    "type": "Point",
    "coordinates": [
     142.97820949,
     -34.9255553
    ]
   },
   "properties": {
    "name": "185 THOMPSON ROAD BOLTON 3546",
    "locID": "LOC000124818953",
    "tech": "WIRELESS",
    "upgrade": "NULL_NA",
    "gnaf_pid": "GAVIC422196550",
    "tech_change_status": "Not Planned",
    "program_type": "Fixed Wireless and Satellite Upgrade Program",
    "target_eligibility_quarter": "NA"
   }
  },
  {
   "type": "Feature",
   "geometry": {
    "type": "Point",
    "coordinates": [
     142.84398971,
     -34.97529799
    ]
   },
   "properties": {
    "name": "209 WEBSTER ROAD BOLTON 3546",
    "locID": "LOC100055151249",
    "tech": "WIRELESS",
    "upgrade": "NULL_NA",
    "gnaf_pid": "GAVIC422201960",
    "tech_change_status": "Not Planned",
    "program_type": "Fixed Wireless and Satellite Upgrade Program",
    "target_eligibility_quarter": "NA"
   }
  },
  {
   "type": "Feature",
   "geometry": {
    "type": "Point",
    "coordinates": [
     142.94831304,
     -34.9634448
    ]
   },
   "properties": {
    "name": "497 BOLTON-NATYA ROAD BOLTON 3546",
    "locID": "LOC000142412464",
    "tech": "SATELLITE",
    "upgrade": "WIRELESS",
    "gnaf_pid": "GAVIC422278480",
    "tech_change_status": "Eligible To Order",
    "program_type": "Fixed Wireless and Satellite Upgrade Program",
    "target_eligibility_quarter": "NA"
   }
  }
 ]
}