{
 "type": "FeatureCollection",
 "generated": "2024-07-05T08:48:01.216468",
 "suburb": "BRADVALE",
 "features": [
  {
   "type": "Feature",
   "geometry": {
    "type": "Point",
    "coordinates": [
     143.40543155,
     -37.7939896
    ]
   },
   "properties": {
    "name": "715 CRAWFORDS ROAD BRADVALE 3361",
    "locID": "LOC000045768535",
    "tech": "SATELLITE",
    "upgrade": "NULL_NA",
    "gnaf_pid": "GAVIC410945312",
    "tech_change_status": "Not Planned"
   }
  },
  {
   "type": "Feature",
   "geometry": {
    "type": "Point",
    "coordinates": [
     143.35544717,
     -37.80928336
    ]
   },
   "properties": {
    "name": "240 GRISTS ROAD BRADVALE 3361",
    "locID": "LOC000106296000",
    "tech": "SATELLITE",
    "upgrade": "NULL_NA",
    "gnaf_pid": "GAVIC419977544",
    "tech_change_status": "Not Planned"
   }
  },
  {
   "type": "Feature",
   "geometry": {
    "type": "Point",
    "coordinates": [
     143.33281075,
     -37.7829263
    ]
   },
   "properties": {
    "name": "1920 LISMORE-SKIPTON ROAD BRADVALE 3361",
    "locID": "LOC000056685054",
    "tech": "SATELLITE",
    "upgrade": "NULL_NA",
    "gnaf_pid": "GAVIC419977545",
    "tech_change_status": "Not Planned"
   }
  },
  {
   "type": "Feature",
   "geometry": {
    "type": "Point",
    "coordinates": [
     143.42007216,
     -37.7663012
    ]
   },
   "properties": {
    "name": "95 HENDERSONS ROAD BRADVALE 3361",
    "locID": "LOC000109089357",
    "tech": "WIRELESS",
    "upgrade": "NULL_NA",
    "gnaf_pid": "GAVIC419977547",
    "tech_change_status": "Not Planned",
    "program_type": "Fixed Wireless and Satellite Upgrade Program",
    "target_eligibility_quarter": "Dec 2024"
   }
  },
  {
   "type": "Feature",
   "geometry": {
    "type": "Point",
    "coordinates": [
     143.33145884,
     -37.79042005
    ]
   },
   "properties": {
    "name": "1834 LISMORE-SKIPTON ROAD BRADVALE 3361",
    "locID": "LOC000106386237",
    "tech": "SATELLITE",
    "upgrade": "NULL_NA",
    "gnaf_pid": "GAVIC420575885",
    "tech_change_status": "Not Planned"
   }
  },
  {
   "type": "Feature",
   "geometry": {
    "type": "Point",
    "coordinates": [
     143.33083961,
     -37.791079
    ]
   },
   "properties": {
    "name": "1827 LISMORE-SKIPTON ROAD BRADVALE 3361",
    "locID": "LOC000010309784",
    "tech": "SATELLITE",
    "upgrade": "NULL_NA",
    "gnaf_pid": "GAVIC420957322",
    "tech_change_status": "Not Planned"
   }
  },
  {
   "type": "Feature",
   "geometry": {
    "type": "Point",
    "coordinates": [
     143.43817368,
     -37.79838966
    ]
   },
   "properties": {
    "name": "1986 LISMORE-PITTONG ROAD BRADVALE 3361",
    "locID": "LOC000021837271",
    "tech": "WIRELESS",
    "upgrade": "NULL_NA",
    "gnaf_pid": "GAVIC420957756",
    "tech_change_status": "Not Planned",
    "program_type": "Fixed Wireless and Satellite Upgrade Program",
    "target_eligibility_quarter": "Dec 2024"
   }
  },
  {
   "type": "Feature",
   "geometry": {
    "type": "Point",
    "coordinates": [
     143.3602059,
     -37.7768411
    ]
   },
   "properties": {
    "name": "235 LEYDENS LANE BRADVALE 3361",
    "locID": "LOC000030194172",
    "tech": "SATELLITE",
    "upgrade": "NULL_NA",
    "gnaf_pid": "GAVIC421174234",
    "tech_change_status": "Not Planned"
   }
  },
  {
   "type": "Feature",
   "geometry": {
    "type": "Point",
    "coordinates": [
     143.40937629,
     -37.81489573
    ]
   },
   "properties": {
    "name": "705 GRISTS ROAD BRADVALE 3361",
    "locID": "LOC000087653423",
    "tech": "SATELLITE",
    "upgrade": "NULL_NA",
    "gnaf_pid": "GAVIC421186393",
    "tech_change_status": "Not Planned"
   }
  },
  {
   "type": "Feature",
   "geometry": {
    "type": "Point",
    "coordinates": [
     143.37626146,
     -37.81887631
    ]
   },
   "properties": {
    "name": "1489 LINTON ROAD BRADVALE 3361",
    "locID": "LOC000070986822",
    "tech": "SATELLITE",
    "upgrade": "NULL_NA",
    "gnaf_pid": "GAVIC421773705",
    "tech_change_status": "Not Planned"
   }
  },
  {
   "type": "Feature",
   "geometry": {
    "type": "Point",
    "coordinates": [
     143.34604711,
     -37.77573596
    ]
   },
   "properties": {
    "name": "110 LEYDENS LANE BRADVALE 3361",
    "locID": "LOC000072029640",
    "tech": "SATELLITE",
    "upgrade": "NULL_NA",
    "gnaf_pid": "GAVIC421862327",
    "tech_change_status": "Not Planned"
   }
  },
  {
   "type": "Feature",
   "geometry": {
    "type": "Point",
    "coordinates": [
     143.33124815,
     -37.79664424
    ]
   },
   "properties": {
    "name": "1770 LISMORE-SKIPTON ROAD BRADVALE 3361",
    "locID": "LOC000063507659",
    "tech": "SATELLITE",
    "upgrade": "NULL_NA",
    "gnaf_pid": "GAVIC422000763",
    "tech_change_status": "Not Planned"
   }
  },
  {
   "type": "Feature",
   "geometry": {
    "type": "Point",
    "coordinates": [
     143.38128596,
     -37.7931174
    ]
   },
   "properties": {
    "name": "1779 LINTON ROAD BRADVALE 3361",
    "locID": "LOC000042408597",
    "tech": "SATELLITE",
    "upgrade": "NULL_NA",
    "gnaf_pid": "GAVIC422164564",
    "tech_change_status": "Not Planned"
   }
  },
  {
   "type": "Feature",
   "geometry": {
    "type": "Point",
    "coordinates": [
     143.38152095,
     -37.79182229
    ]
   },
   "properties": {
    "name": "1785 LINTON ROAD BRADVALE 3361",
    "locID": "LOC000048934930",
    "tech": "SATELLITE",
    "upgrade": "NULL_NA",
    "gnaf_pid": "GAVIC422164565",
    "tech_change_status": "Not Planned"
   }
  },
  {
   "type": "Feature",
   "geometry": {
    "type": "Point",
    "coordinates": [
     143.43001534,
     -37.82230301
    ]
   },
   "properties": {
    "name": "290 ROWLANDS ROAD BRADVALE 3361",
    "locID": "LOC000103566426",
    "tech": "SATELLITE",
    "upgrade": "NULL_NA",
    "gnaf_pid": "GAVIC423407981",
    "tech_change_status": "Not Planned"
   }
  },
  {
   "type": "Feature",
   "geometry": {
    "type": "Point",
    "coordinates": [
     143.37027295,
     -37.78254935
    ]
   },
   "properties": {
    "name": "120 SMITHS ROAD BRADVALE 3361",
    "locID": "LOC000068041795",
    "tech": "SATELLITE",
    "upgrade": "NULL_NA",
    "gnaf_pid": "GAVIC423408971",
    "tech_change_status": "Not Planned"
   }
  },
  {
   "type": "Feature",
   "geometry": {
    "type": "Point",
    "coordinates": [
     143.42244367,
     -37.81667333
    ]
   },
   "properties": {
    "name": "72 MCINTYRES ROAD BRADVALE 3361",
    "locID": "LOC000107666196",
    "tech": "SATELLITE",
    "upgrade": "NULL_NA",
    "gnaf_pid": "GAVIC423888357",
    "tech_change_status": "Not Planned"
   }
  },
  {
   "type": "Feature",
   "geometry": {
    "type": "Point",
    "coordinates": [
     143.4039834,
     -37.79380471
    ]
   },
   "properties": {
    "name": "1 MOUNT BUTE ROAD BRADVALE 3361",
    "locID": "LOC000055168418",
    "tech": "SATELLITE",
    "upgrade": "NULL_NA",
    "gnaf_pid": "GAVIC423915161",
    "tech_change_status": "Not Planned"
   }
  },
  {
   "type": "Feature",
   "geometry": {
    "type": "Point",
    "coordinates": [
     143.40457896,
     -37.79213515
    ]
   },
   "properties": {
    "name": "25 MOUNT BUTE ROAD BRADVALE 3361",
    "locID": "LOC000076109438",
    "tech": "SATELLITE",
    "upgrade": "NULL_NA",
    "gnaf_pid": "GAVIC423915162",
    "tech_change_status": "Not Planned"
   }
  },
  {
   "type": "Feature",
   "geometry": {
    "type": "Point",
    "coordinates": [
     143.40972962,
     -37.76621648
    ]
   },
   "properties": {
    "name": "315 MOUNT BUTE ROAD BRADVALE 3361",
    "locID": "LOC000005245820",
    "tech": "WIRELESS",
    "upgrade": "NULL_NA",
    "gnaf_pid": "GAVIC423915163",
    "tech_change_status": "Not Planned",
    "program_type": "Fixed Wireless and Satellite Upgrade Program",
    "target_eligibility_quarter": "Dec 2024"
   }
  },
  {
   "type": "Feature",
   "geometry": {
    "type": "Point",
    "coordinates": [
     143.37611429,
     -37.82483413
    ]
   },
   "properties": {
    "name": "1420 LINTON ROAD BRADVALE 3361",
    "locID": "LOC000095081687",
    "tech": "SATELLITE",
    "upgrade": "NULL_NA",
    "gnaf_pid": "GAVIC424360241",
    "tech_change_status": "Not Planned"
   }
  }
 ]
}