{
 "type": "FeatureCollection",
 "generated": "2024-07-05T10:52:46.729751",
 "suburb": "BUNGEET",
 "features": [
  {
   "type": "Feature",
   "geometry": {
    "type": "Point",
    "coordinates": [
     146.05526224,
     -36.26220519
    ]
   },
   "properties": {
    "name": "85 JAMES ROAD BUNGEET 3726",
    "locID": "LOC000095803129",
    "tech": "SATELLITE",
    "upgrade": "NULL_NA",
    "gnaf_pid": "GAVIC422028891",
    "tech_change_status": "Not Planned"
   }
  },
  {
   "type": "Feature",
   "geometry": {
    "type": "Point",
    "coordinates": [
     146.03962933,
     -36.27012816
    ]
   },
   "properties": {
    "name": "825 BOWEYA-ST JAMES ROAD BUNGEET 3726",
    "locID": "LOC000061898419",
    "tech": "SATELLITE",
    "upgrade": "NULL_NA",
    "gnaf_pid": "GAVIC422130193",
    "tech_change_status": "Not Planned"
   }
  },
  {
   "type": "Feature",
   "geometry": {
    "type": "Point",
    "coordinates": [
     146.05037543,
     -36.28985456
    ]
   },
   "properties": {
    "name": "1238 BUNGEET ROAD BUNGEET 3726",
    "locID": "LOC000065634497",
    "tech": "SATELLITE",
    "upgrade": "NULL_NA",
    "gnaf_pid": "GAVIC422132132",
    "tech_change_status": "Not Planned"
   }
  },
  {
   "type": "Feature",
   "geometry": {
    "type": "Point",
    "coordinates": [
     146.0498699,
     -36.28313769
    ]
   },
   "properties": {
    "name": "1311 BUNGEET ROAD BUNGEET 3726",
    "locID": "LOC000101603392",
    "tech": "SATELLITE",
    "upgrade": "NULL_NA",
    "gnaf_pid": "GAVIC422132133",
    "tech_change_status": "Not Planned"
   }
  },
  {
   "type": "Feature",
   "geometry": {
    "type": "Point",
    "coordinates": [
     146.04991787,
     -36.27800572
    ]
   },
   "properties": {
    "name": "1371 BUNGEET ROAD BUNGEET 3726",
    "locID": "LOC000076866431",
    "tech": "SATELLITE",
    "upgrade": "NULL_NA",
    "gnaf_pid": "GAVIC422132135",
    "tech_change_status": "Not Planned"
   }
  },
  {
   "type": "Feature",
   "geometry": {
    "type": "Point",
    "coordinates": [
     146.0504573,
     -36.27571965
    ]
   },
   "properties": {
    "name": "1394 BUNGEET ROAD BUNGEET 3726",
    "locID": "LOC000061964288",
    "tech": "SATELLITE",
    "upgrade": "NULL_NA",
    "gnaf_pid": "GAVIC422132136",
    "tech_change_status": "Not Planned"
   }
  },
  {
   "type": "Feature",
   "geometry": {
    "type": "Point",
    "coordinates": [
     146.05616172,
     -36.26145849
    ]
   },
   "properties": {
    "name": "98 JAMES ROAD BUNGEET 3726",
    "locID": "LOC000036923583",
    "tech": "SATELLITE",
    "upgrade": "NULL_NA",
    "gnaf_pid": "GAVIC422158821",
    "tech_change_status": "Not Planned"
   }
  },
  {
   "type": "Feature",
   "geometry": {
    "type": "Point",
    "coordinates": [
     146.0481903,
     -36.29923985
    ]
   },
   "properties": {
    "name": "15 MARTIN ROAD BUNGEET 3726",
    "locID": "LOC000104813585",
    "tech": "SATELLITE",
    "upgrade": "NULL_NA",
    "gnaf_pid": "GAVIC423362872",
    "tech_change_status": "Not Planned"
   }
  },
  {
   "type": "Feature",
   "geometry": {
    "type": "Point",
    "coordinates": [
     146.07000568,
     -36.29875696
    ]
   },
   "properties": {
    "name": "181 BINNIE ROAD BUNGEET 3726",
    "locID": "LOC000057388650",
    "tech": "SATELLITE",
    "upgrade": "NULL_NA",
    "gnaf_pid": "GAVIC423808805",
    "tech_change_status": "Not Planned"
   }
  },
  {
   "type": "Feature",
   "geometry": {
    "type": "Point",
    "coordinates": [
     146.07609126,
     -36.29929999
    ]
   },
   "properties": {
    "name": "236 BINNIE ROAD BUNGEET 3726",
    "locID": "LOC000062966819",
    "tech": "SATELLITE",
    "upgrade": "NULL_NA",
    "gnaf_pid": "GAVIC424078188",
    "tech_change_status": "Not Planned"
   }
  }
 ]
}