{
 "type": "FeatureCollection",
 "generated": "2024-09-22T15:23:22.105804",
 "suburb": "BURKES FLAT",
 "features": [
  {
   "type": "Feature",
   "geometry": {
    "type": "Point",
    "coordinates": [
     143.53271206,
     -36.64484709
    ]
   },
   "properties": {
    "name": "174 OLD LOGAN-BURKES FLAT ROAD BURKES FLAT 3475",
    "locID": "LOC000089777253",
    "tech": "SATELLITE",
    "upgrade": "NULL_NA",
    "gnaf_pid": "GAVIC411008335",
    "tech_change_status": "Not Planned"
   }
  },
  {
   "type": "Feature",
   "geometry": {
    "type": "Point",
    "coordinates": [
     143.55327755,
     -36.65281935
    ]
   },
   "properties": {
    "name": "135 BURKES FLAT-WEHLA ROAD BURKES FLAT 3475",
    "locID": "LOC000030889162",
    "tech": "NULL",
    "upgrade": "NULL_NA",
    "gnaf_pid": "GAVIC411008339",
    "tech_change_status": "Not Planned"
   }
  },
  {
   "type": "Feature",
   "geometry": {
    "type": "Point",
    "coordinates": [
     143.55224809,
     -36.65365231
    ]
   },
   "properties": {
    "name": "121 BURKES FLAT-WEHLA ROAD BURKES FLAT 3475",
    "locID": "LOC000093007555",
    "tech": "SATELLITE",
    "upgrade": "NULL_NA",
    "gnaf_pid": "GAVIC411008340",
    "tech_change_status": "Not Planned"
   }
  },
  {
   "type": "Feature",
   "geometry": {
    "type": "Point",
    "coordinates": [
     143.54128721,
     -36.61492685
    ]
   },
   "properties": {
    "name": "494 BURKES FLAT-WEDDERBURN ROAD BURKES FLAT 3475",
    "locID": "LOC000031973301",
    "tech": "WIRELESS",
    "upgrade": "NULL_NA",
    "gnaf_pid": "GAVIC411010853",
    "tech_change_status": "Not Planned"
   }
  },
  {
   "type": "Feature",
   "geometry": {
    "type": "Point",
    "coordinates": [
     143.5461234,
     -36.66353914
    ]
   },
   "properties": {
    "name": "6003 WIMMERA HIGHWAY BURKES FLAT 3475",
    "locID": "LOC000088364538",
    "tech": "NULL",
    "upgrade": "NULL_NA",
    "gnaf_pid": "GAVIC422027566",
    "tech_change_status": "Not Planned"
   }
  },
  {
   "type": "Feature",
   "geometry": {
    "type": "Point",
    "coordinates": [
     143.54842974,
     -36.63058633
    ]
   },
   "properties": {
    "name": "273 BURKES FLAT-WEDDERBURN ROAD BURKES FLAT 3475",
    "locID": "LOC000108811498",
    "tech": "NULL",
    "upgrade": "NULL_NA",
    "gnaf_pid": "GAVIC422132457",
    "tech_change_status": "Not Planned"
   }
  },
  {
   "type": "Feature",
   "geometry": {
    "type": "Point",
    "coordinates": [
     143.55085781,
     -36.65672512
    ]
   },
   "properties": {
    "name": "84 BURKES FLAT-WEHLA ROAD BURKES FLAT 3475",
    "locID": "LOC000142400060",
    "tech": "SATELLITE",
    "upgrade": "NULL_NA",
    "gnaf_pid": "GAVIC422132460",
    "tech_change_status": "Not Planned"
   }
  },
  {
   "type": "Feature",
   "geometry": {
    "type": "Point",
    "coordinates": [
     143.52330832,
     -36.65545019
    ]
   },
   "properties": {
    "name": "97 WHITNEY ROAD BURKES FLAT 3475",
    "locID": "LOC000124917406",
    "tech": "NULL",
    "upgrade": "NULL_NA",
    "gnaf_pid": "GAVIC422203267",
    "tech_change_status": "Not Planned"
   }
  },
  {
   "type": "Feature",
   "geometry": {
    "type": "Point",
    "coordinates": [
     143.55118393,
     -36.67164265
    ]
   },
   "properties": {
    "name": "5900 WIMMERA HIGHWAY BURKES FLAT 3475",
    "locID": "LOC000124913054",
    "tech": "NULL",
    "upgrade": "NULL_NA",
    "gnaf_pid": "GAVIC422204254",
    "tech_change_status": "Not Planned"
   }
  },
  {
   "type": "Feature",
   "geometry": {
    "type": "Point",
    "coordinates": [
     143.53773564,
     -36.65509341
    ]
   },
   "properties": {
    "name": "6121 WIMMERA HIGHWAY BURKES FLAT 3475",
    "locID": "LOC000124913083",
    "tech": "SATELLITE",
    "upgrade": "NULL_NA",
    "gnaf_pid": "GAVIC422204255",
    "tech_change_status": "Not Planned"
   }
  },
  {
   "type": "Feature",
   "geometry": {
    "type": "Point",
    "coordinates": [
     143.57988746,
     -36.60241675
    ]
   },
   "properties": {
    "name": "59 WHEELHOUSE ROAD BURKES FLAT 3475",
    "locID": "LOC000058811664",
    "tech": "NULL",
    "upgrade": "NULL_NA",
    "gnaf_pid": "GAVIC423900386",
    "tech_change_status": "Not Planned"
   }
  },
  {
   "type": "Feature",
   "geometry": {
    "type": "Point",
    "coordinates": [
     143.54906468,
     -36.65455716
    ]
   },
   "properties": {
    "name": "89 LEVER ROAD BURKES FLAT 3475",
    "locID": "LOC000018696937",
    "tech": "SATELLITE",
    "upgrade": "NULL_NA",
    "gnaf_pid": "GAVIC423989595",
    "tech_change_status": "Not Planned"
   }
  },
  {
   "type": "Feature",
   "geometry": {
    "type": "Point",
    "coordinates": [
     143.55985799,
     -36.66526981
    ]
   },
   "properties": {
    "name": "148 BURKES FLAT-MCINTYRE ROAD BURKES FLAT 3475",
    "locID": "LOC000150263128",
    "tech": "NULL",
    "upgrade": "NULL_NA",
    "gnaf_pid": "GAVIC425099099",
    "tech_change_status": "Not Planned"
   }
  }
 ]
}