{
 "type": "FeatureCollection",
 "generated": "2024-07-13T08:06:27.286068",
 "suburb": "CALIFORNIA GULLY",
 "features": [
  {
   "type": "Feature",
   "geometry": {
    "type": "Point",
    "coordinates": [
     144.26200455,
     -36.73419285
    ]
   },
   "properties": {
    "name": "UNIT 2, 3 WEATHERALL STREET CALIFORNIA GULLY 3556",
    "locID": "LOC000075630563",
    "tech": "FTTC",
    "upgrade": "FTTP_SA",
    "gnaf_pid": "GAVIC411021839",
    "tech_change_status": "Eligible To Order"
   }
  },
  {
   "type": "Feature",
   "geometry": {
    "type": "Point",
    "coordinates": [
     144.26607468,
     -36.73080446
    ]
   },
   "properties": {
    "name": "UNIT 1, 10 PEARCE STREET CALIFORNIA GULLY 3556",
    "locID": "LOC000026879823",
    "tech": "FTTN",
    "upgrade": "FTTP_NA",
    "gnaf_pid": "GAVIC411021959",
    "tech_change_status": "In Design",
    "program_type": "On-Demand N2P SDU/MDU Simple",
    "target_eligibility_quarter": "Jun 2025"
   }
  },
  {
   "type": "Feature",
   "geometry": {
    "type": "Point",
    "coordinates": [
     144.2501868,
     -36.72867395
    ]
   },
   "properties": {
    "name": "UNIT 1, 28 BROWN STREET CALIFORNIA GULLY 3556",
    "locID": "LOC000037797419",
    "tech": "FTTC",
    "upgrade": "FTTP_SA",
    "gnaf_pid": "GAVIC411022683",
    "tech_change_status": "Eligible To Order"
   }
  },
  {
   "type": "Feature",
   "geometry": {
    "type": "Point",
    "coordinates": [
     144.25702871,
     -36.73124379
    ]
   },
   "properties": {
    "name": "UNIT 1, 1 ESLER STREET CALIFORNIA GULLY 3556",
    "locID": "LOC000050757512",
    "tech": "FTTN",
    "upgrade": "FTTP_NA",
    "gnaf_pid": "GAVIC411022736",
    "tech_change_status": "In Design",
    "program_type": "Customer-initiated N2P MDU Complex",
    "target_eligibility_quarter": "Jun 2025"
   }
  },
  {
   "type": "Feature",
   "geometry": {
    "type": "Point",
    "coordinates": [
     144.26101251,
     -36.72965395
    ]
   },
   "properties": {
    "name": "UNIT 2, 16 NELSON STREET CALIFORNIA GULLY 3556",
    "locID": "LOC000102419681",
    "tech": "FTTN",
    "upgrade": "FTTP_NA",
    "gnaf_pid": "GAVIC411023211",
    "tech_change_status": "In Design",
    "program_type": "On-Demand N2P SDU/MDU Simple",
    "target_eligibility_quarter": "Jun 2025"
   }
  },
  {
   "type": "Feature",
   "geometry": {
    "type": "Point",
    "coordinates": [
     144.26110594,
     -36.72978438
    ]
   },
   "properties": {
    "name": "UNIT 3, 16 NELSON STREET CALIFORNIA GULLY 3556",
    "locID": "LOC000102546395",
    "tech": "FTTN",
    "upgrade": "FTTP_NA",
    "gnaf_pid": "GAVIC411023212",
    "tech_change_status": "In Design",
    "program_type": "On-Demand N2P SDU/MDU Simple",
    "target_eligibility_quarter": "Jun 2025"
   }
  },
  {
   "type": "Feature",
   "geometry": {
    "type": "Point",
    "coordinates": [
     144.27762815,
     -36.72065675
    ]
   },
   "properties": {
    "name": "82 AVERYS ROAD CALIFORNIA GULLY 3556",
    "locID": "LOC000113123315",
    "tech": "FTTC",
    "upgrade": "FTTP_SA",
    "gnaf_pid": "GAVIC411023232",
    "tech_change_status": "Eligible To Order"
   }
  },
  {
   "type": "Feature",
   "geometry": {
    "type": "Point",
    "coordinates": [
     144.27464091,
     -36.7185418
    ]
   },
   "properties": {
    "name": "46 AVERYS ROAD CALIFORNIA GULLY 3556",
    "locID": "LOC000103662047",
    "tech": "FTTC",
    "upgrade": "FTTP_SA",
    "gnaf_pid": "GAVIC411023236",
    "tech_change_status": "Eligible To Order"
   }
  },
  {
   "type": "Feature",
   "geometry": {
    "type": "Point",
    "coordinates": [
     144.26104045,
     -36.72334584
    ]
   },
   "properties": {
    "name": "10 JOBS GULLY ROAD CALIFORNIA GULLY 3556",
    "locID": "LOC000029402139",
    "tech": "FTTN",
    "upgrade": "FTTP_NA",
    "gnaf_pid": "GAVIC411023251",
    "tech_change_status": "In Design",
    "program_type": "On-Demand N2P SDU/MDU Simple",
    "target_eligibility_quarter": "Jun 2025"
   }
  },
  {
   "type": "Feature",
   "geometry": {
    "type": "Point",
    "coordinates": [
     144.26621596,
     -36.7309534
    ]
   },
   "properties": {
    "name": "UNIT 2, 10 PEARCE STREET CALIFORNIA GULLY 3556",
    "locID": "LOC000027069511",
    "tech": "FTTN",
    "upgrade": "FTTP_NA",
    "gnaf_pid": "GAVIC411023973",
    "tech_change_status": "In Design",
    "program_type": "On-Demand N2P SDU/MDU Simple",
    "target_eligibility_quarter": "Jun 2025"
   }
  },
  {
   "type": "Feature",
   "geometry": {
    "type": "Point",
    "coordinates": [
     144.2501868,
     -36.72867395
    ]
   },
   "properties": {
    "name": "UNIT 2, 28 BROWN STREET CALIFORNIA GULLY 3556",
    "locID": "LOC000037797419",
    "tech": "FTTC",
    "upgrade": "FTTP_SA",
    "gnaf_pid": "GAVIC411023977",
    "tech_change_status": "Eligible To Order"
   }
  },
  {
   "type": "Feature",
   "geometry": {
    "type": "Point",
    "coordinates": [
     144.25958421,
     -36.72989369
    ]
   },
   "properties": {
    "name": "5A NELSON STREET CALIFORNIA GULLY 3556",
    "locID": "LOC000026864727",
    "tech": "FTTC",
    "upgrade": "FTTP_SA",
    "gnaf_pid": "GAVIC411023987",
    "tech_change_status": "Eligible To Order"
   }
  },
  {
   "type": "Feature",
   "geometry": {
    "type": "Point",
    "coordinates": [
     144.25089158,
     -36.72989233
    ]
   },
   "properties": {
    "name": "33 BROWN STREET CALIFORNIA GULLY 3556",
    "locID": "LOC000114039480",
    "tech": "FTTN",
    "upgrade": "FTTP_NA",
    "gnaf_pid": "GAVIC411025460",
    "tech_change_status": "In Design",
    "program_type": "On-Demand N2P SDU/MDU Simple",
    "target_eligibility_quarter": "Jun 2025"
   }
  },
  {
   "type": "Feature",
   "geometry": {
    "type": "Point",
    "coordinates": [
     144.26634621,
     -36.73030458
    ]
   },
   "properties": {
    "name": "13 PEARCE STREET CALIFORNIA GULLY 3556",
    "locID": "LOC000075414807",
    "tech": "FTTN",
    "upgrade": "FTTP_NA",
    "gnaf_pid": "GAVIC411025517",
    "tech_change_status": "In Design",
    "program_type": "On-Demand N2P SDU/MDU Simple",
    "target_eligibility_quarter": "Jun 2025"
   }
  },
  {
   "type": "Feature",
   "geometry": {
    "type": "Point",
    "coordinates": [
     144.27344285,
     -36.72644048
    ]
   },
   "properties": {
    "name": "UNIT 1, 82 GILL AVENUE CALIFORNIA GULLY 3556",
    "locID": "LOC000075916816",
    "tech": "FTTN",
    "upgrade": "FTTP_NA",
    "gnaf_pid": "GAVIC411025525",
    "tech_change_status": "Committed",
    "program_type": "On-Demand N2P SDU/MDU Simple",
    "target_eligibility_quarter": "Dec 2025"
   }
  },
  {
   "type": "Feature",
   "geometry": {
    "type": "Point",
    "coordinates": [
     144.26894249,
     -36.73086798
    ]
   },
   "properties": {
    "name": "9 NEW STREET CALIFORNIA GULLY 3556",
    "locID": "LOC000058217317",
    "tech": "FTTN",
    "upgrade": "FTTP_NA",
    "gnaf_pid": "GAVIC411027165",
    "tech_change_status": "In Design",
    "program_type": "On-Demand N2P SDU/MDU Simple",
    "target_eligibility_quarter": "Jun 2025"
   }
  },
  {
   "type": "Feature",
   "geometry": {
    "type": "Point",
    "coordinates": [
     144.27615447,
     -36.71955312
    ]
   },
   "properties": {
    "name": "62 AVERYS ROAD CALIFORNIA GULLY 3556",
    "locID": "LOC000020967219",
    "tech": "FTTP",
    "upgrade": "NULL_NA",
    "gnaf_pid": "GAVIC411027389"
   }
  },
  {
   "type": "Feature",
   "geometry": {
    "type": "Point",
    "coordinates": [
     144.26551842,
     -36.72764274
    ]
   },
   "properties": {
    "name": "UNIT 2, 29 GREEN STREET CALIFORNIA GULLY 3556",
    "locID": "LOC000086590499",
    "tech": "FTTN",
    "upgrade": "FTTP_NA",
    "gnaf_pid": "GAVIC411027392",
    "tech_change_status": "In Design",
    "program_type": "On-Demand N2P SDU/MDU Simple",
    "target_eligibility_quarter": "Jun 2025"
   }
  },
  {
   "type": "Feature",
   "geometry": {
    "type": "Point",
    "coordinates": [
     144.26563283,
     -36.72757904
    ]
   },
   "properties": {
    "name": "UNIT 3, 29 GREEN STREET CALIFORNIA GULLY 3556",
    "locID": "LOC000086590499",
    "tech": "FTTN",
    "upgrade": "FTTP_NA",
    "gnaf_pid": "GAVIC411028074",
    "tech_change_status": "In Design",
    "program_type": "On-Demand N2P SDU/MDU Simple",
    "target_eligibility_quarter": "Jun 2025"
   }
  },
  {
   "type": "Feature",
   "geometry": {
    "type": "Point",
    "coordinates": [
     144.26407023,
     -36.72431808
    ]
   },
   "properties": {
    "name": "39 CHAPPLE STREET CALIFORNIA GULLY 3556",
    "locID": "LOC000002812267",
    "tech": "FTTN",
    "upgrade": "FTTP_NA",
    "gnaf_pid": "GAVIC411028392",
    "tech_change_status": "Committed",
    "program_type": "On-Demand N2P SDU/MDU Simple",
    "target_eligibility_quarter": "Mar 2025"
   }
  },
  {
   "type": "Feature",
   "geometry": {
    "type": "Point",
    "coordinates": [
     144.26200455,
     -36.73419285
    ]
   },
   "properties": {
    "name": "UNIT 1, 3 WEATHERALL STREET CALIFORNIA GULLY 3556",
    "locID": "LOC000078015449",
    "tech": "FTTC",
    "upgrade": "FTTP_SA",
    "gnaf_pid": "GAVIC411028756",
    "tech_change_status": "Eligible To Order"
   }
  },
  {
   "type": "Feature",
   "geometry": {
    "type": "Point",
    "coordinates": [
     144.26802506,
     -36.72723711
    ]
   },
   "properties": {
    "name": "20 GILL AVENUE CALIFORNIA GULLY 3556",
    "locID": "LOC000067777930",
    "tech": "FTTC",
    "upgrade": "FTTP_SA",
    "gnaf_pid": "GAVIC411028984",
    "tech_change_status": "Eligible To Order"
   }
  },
  {
   "type": "Feature",
   "geometry": {
    "type": "Point",
    "coordinates": [
     144.26575248,
     -36.72380488
    ]
   },
   "properties": {
    "name": "15A WATTLE VIEW GROVE CALIFORNIA GULLY 3556",
    "locID": "LOC000101846844",
    "tech": "FTTN",
    "upgrade": "FTTP_NA",
    "gnaf_pid": "GAVIC411028994",
    "tech_change_status": "Committed",
    "program_type": "On-Demand N2P SDU/MDU Simple",
    "target_eligibility_quarter": "Mar 2025"
   }
  },
  {
   "type": "Feature",
   "geometry": {
    "type": "Point",
    "coordinates": [
     144.25490456,
     -36.73213938
    ]
   },
   "properties": {
    "name": "UNIT 1, 4 LIGHTFOOT STREET CALIFORNIA GULLY 3556",
    "locID": "LOC000027156204",
    "tech": "FTTN",
    "upgrade": "FTTP_NA",
    "gnaf_pid": "GAVIC411030200",
    "tech_change_status": "In Design",
    "program_type": "On-Demand N2P SDU/MDU Simple",
    "target_eligibility_quarter": "Jun 2025"
   }
  },
  {
   "type": "Feature",
   "geometry": {
    "type": "Point",
    "coordinates": [
     144.25968718,
     -36.72676779
    ]
   },
   "properties": {
    "name": "UNIT 3, 115 WOOD STREET CALIFORNIA GULLY 3556",
    "locID": "LOC000020089611",
    "tech": "FTTN",
    "upgrade": "FTTP_NA",
    "gnaf_pid": "GAVIC411030224",
    "tech_change_status": "In Design",
    "program_type": "Customer-initiated N2P MDU Complex",
    "target_eligibility_quarter": "Jun 2025"
   }
  },
  {
   "type": "Feature",
   "geometry": {
    "type": "Point",
    "coordinates": [
     144.25912924,
     -36.72419408
    ]
   },
   "properties": {
    "name": "2 JOBS GULLY ROAD CALIFORNIA GULLY 3556",
    "locID": "LOC000059286881",
    "tech": "FTTN",
    "upgrade": "FTTP_NA",
    "gnaf_pid": "GAVIC411030241",
    "tech_change_status": "In Design",
    "program_type": "On-Demand N2P SDU/MDU Simple",
    "target_eligibility_quarter": "Jun 2025"
   }
  },
  {
   "type": "Feature",
   "geometry": {
    "type": "Point",
    "coordinates": [
     144.2767227,
     -36.71995028
    ]
   },
   "properties": {
    "name": "68 AVERYS ROAD CALIFORNIA GULLY 3556",
    "locID": "LOC000006860590",
    "tech": "FTTC",
    "upgrade": "FTTP_SA",
    "gnaf_pid": "GAVIC411031033",
    "tech_change_status": "Eligible To Order"
   }
  },
  {
   "type": "Feature",
   "geometry": {
    "type": "Point",
    "coordinates": [
     144.25493703,
     -36.73226422
    ]
   },
   "properties": {
    "name": "UNIT 2, 4 LIGHTFOOT STREET CALIFORNIA GULLY 3556",
    "locID": "LOC000027026398",
    "tech": "FTTN",
    "upgrade": "FTTP_NA",
    "gnaf_pid": "GAVIC411031777",
    "tech_change_status": "In Design",
    "program_type": "On-Demand N2P SDU/MDU Simple",
    "target_eligibility_quarter": "Jun 2025"
   }
  },
  {
   "type": "Feature",
   "geometry": {
    "type": "Point",
    "coordinates": [
     144.27344285,
     -36.72644048
    ]
   },
   "properties": {
    "name": "UNIT 2, 82 GILL AVENUE CALIFORNIA GULLY 3556",
    "locID": "LOC000076102341",
    "tech": "FTTN",
    "upgrade": "FTTP_NA",
    "gnaf_pid": "GAVIC411031778",
    "tech_change_status": "Committed",
    "program_type": "On-Demand N2P SDU/MDU Simple",
    "target_eligibility_quarter": "Dec 2025"
   }
  },
  {
   "type": "Feature",
   "geometry": {
    "type": "Point",
    "coordinates": [
     144.26607313,
     -36.7296527
    ]
   },
   "properties": {
    "name": "UNIT 1, 10 SHIRALEA COURT CALIFORNIA GULLY 3556",
    "locID": "LOC000097877455",
    "tech": "FTTN",
    "upgrade": "FTTP_NA",
    "gnaf_pid": "GAVIC411031783",
    "tech_change_status": "In Design",
    "program_type": "On-Demand N2P SDU/MDU Simple",
    "target_eligibility_quarter": "Jun 2025"
   }
  },
  {
   "type": "Feature",
   "geometry": {
    "type": "Point",
    "coordinates": [
     144.26607313,
     -36.7296527
    ]
   },
   "properties": {
    "name": "UNIT 2, 10 SHIRALEA COURT CALIFORNIA GULLY 3556",
    "locID": "LOC000098300476",
    "tech": "FTTN",
    "upgrade": "FTTP_NA",
    "gnaf_pid": "GAVIC411031785",
    "tech_change_status": "In Design",
    "program_type": "On-Demand N2P SDU/MDU Simple",
    "target_eligibility_quarter": "Jun 2025"
   }
  },
  {
   "type": "Feature",
   "geometry": {
    "type": "Point",
    "coordinates": [
     144.25973027,
     -36.7268962
    ]
   },
   "properties": {
    "name": "UNIT 2, 115 WOOD STREET CALIFORNIA GULLY 3556",
    "locID": "LOC000020566763",
    "tech": "FTTN",
    "upgrade": "FTTP_NA",
    "gnaf_pid": "GAVIC411032549",
    "tech_change_status": "In Design",
    "program_type": "Customer-initiated N2P MDU Complex",
    "target_eligibility_quarter": "Jun 2025"
   }
  },
  {
   "type": "Feature",
   "geometry": {
    "type": "Point",
    "coordinates": [
     144.25938944,
     -36.72408126
    ]
   },
   "properties": {
    "name": "4 JOBS GULLY ROAD CALIFORNIA GULLY 3556",
    "locID": "LOC000033522245",
    "tech": "FTTN",
    "upgrade": "FTTP_NA",
    "gnaf_pid": "GAVIC411032616",
    "tech_change_status": "In Design",
    "program_type": "On-Demand N2P SDU/MDU Simple",
    "target_eligibility_quarter": "Jun 2025"
   }
  },
  {
   "type": "Feature",
   "geometry": {
    "type": "Point",
    "coordinates": [
     144.25978195,
     -36.72700296
    ]
   },
   "properties": {
    "name": "UNIT 1, 115 WOOD STREET CALIFORNIA GULLY 3556",
    "locID": "LOC000020570211",
    "tech": "FTTN",
    "upgrade": "FTTP_NA",
    "gnaf_pid": "GAVIC411032790",
    "tech_change_status": "In Design",
    "program_type": "Customer-initiated N2P MDU Complex",
    "target_eligibility_quarter": "Jun 2025"
   }
  },
  {
   "type": "Feature",
   "geometry": {
    "type": "Point",
    "coordinates": [
     144.2495035,
     -36.72787374
    ]
   },
   "properties": {
    "name": "12 BROWN STREET CALIFORNIA GULLY 3556",
    "locID": "LOC000074909247",
    "tech": "FTTC",
    "upgrade": "FTTP_SA",
    "gnaf_pid": "GAVIC411032912",
    "tech_change_status": "Eligible To Order"
   }
  },
  {
   "type": "Feature",
   "geometry": {
    "type": "Point",
    "coordinates": [
     144.25974189,
     -36.73294765
    ]
   },
   "properties": {
    "name": "36B DOWDING STREET CALIFORNIA GULLY 3556",
    "locID": "LOC000095103296",
    "tech": "FTTC",
    "upgrade": "FTTP_SA",
    "gnaf_pid": "GAVIC411033794",
    "tech_change_status": "Eligible To Order"
   }
  },
  {
   "type": "Feature",
   "geometry": {
    "type": "Point",
    "coordinates": [
     144.2597346,
     -36.72949392
    ]
   },
   "properties": {
    "name": "91 WOOD STREET CALIFORNIA GULLY 3556",
    "locID": "LOC000163276956",
    "tech": "FTTP",
    "upgrade": "NULL_NA",
    "gnaf_pid": "GAVIC411034317"
   }
  },
  {
   "type": "Feature",
   "geometry": {
    "type": "Point",
    "coordinates": [
     144.26210978,
     -36.73354316
    ]
   },
   "properties": {
    "name": "18 SMALLEY STREET CALIFORNIA GULLY 3556",
    "locID": "LOC000182444875",
    "tech": "FTTP",
    "upgrade": "NULL_NA",
    "gnaf_pid": "GAVIC411034322"
   }
  },
  {
   "type": "Feature",
   "geometry": {
    "type": "Point",
    "coordinates": [
     144.2554854,
     -36.72715375
    ]
   },
   "properties": {
    "name": "12A ALLIANCE AVENUE CALIFORNIA GULLY 3556",
    "locID": "LOC000074188385",
    "tech": "FTTC",
    "upgrade": "FTTP_SA",
    "gnaf_pid": "GAVIC411034353",
    "tech_change_status": "Eligible To Order"
   }
  },
  {
   "type": "Feature",
   "geometry": {
    "type": "Point",
    "coordinates": [
     144.27140941,
     -36.7254949
    ]
   },
   "properties": {
    "name": "UNIT 1, 80 BRIGHT STREET CALIFORNIA GULLY 3556",
    "locID": "LOC000011892437",
    "tech": "FTTC",
    "upgrade": "FTTP_NA",
    "gnaf_pid": "GAVIC411034367",
    "tech_change_status": "MDU Complex Eligible To Apply"
   }
  },
  {
   "type": "Feature",
   "geometry": {
    "type": "Point",
    "coordinates": [
     144.26327322,
     -36.72532095
    ]
   },
   "properties": {
    "name": "11A GREEN STREET CALIFORNIA GULLY 3556",
    "locID": "LOC000015191212",
    "tech": "FTTN",
    "upgrade": "FTTP_NA",
    "gnaf_pid": "GAVIC411034450",
    "tech_change_status": "In Design",
    "program_type": "On-Demand N2P SDU/MDU Simple",
    "target_eligibility_quarter": "Jun 2025"
   }
  },
  {
   "type": "Feature",
   "geometry": {
    "type": "Point",
    "coordinates": [
     144.2605994,
     -36.72352745
    ]
   },
   "properties": {
    "name": "6 JOBS GULLY ROAD CALIFORNIA GULLY 3556",
    "locID": "LOC000104514455",
    "tech": "FTTN",
    "upgrade": "FTTP_NA",
    "gnaf_pid": "GAVIC411035296",
    "tech_change_status": "In Design",
    "program_type": "On-Demand N2P SDU/MDU Simple",
    "target_eligibility_quarter": "Jun 2025"
   }
  },
  {
   "type": "Feature",
   "geometry": {
    "type": "Point",
    "coordinates": [
     144.26363601,
     -36.7244018
    ]
   },
   "properties": {
    "name": "40A CHAPPLE STREET CALIFORNIA GULLY 3556",
    "locID": "LOC000066219348",
    "tech": "FTTN",
    "upgrade": "FTTP_NA",
    "gnaf_pid": "GAVIC419537490",
    "tech_change_status": "In Design",
    "program_type": "On-Demand N2P SDU/MDU Simple",
    "target_eligibility_quarter": "Jun 2025"
   }
  },
  {
   "type": "Feature",
   "geometry": {
    "type": "Point",
    "coordinates": [
     144.25511332,
     -36.72830529
    ]
   },
   "properties": {
    "name": "4 TYNE COURT CALIFORNIA GULLY 3556",
    "locID": "LOC000082074140",
    "tech": "FTTC",
    "upgrade": "FTTP_SA",
    "gnaf_pid": "GAVIC419537496",
    "tech_change_status": "Eligible To Order"
   }
  },
  {
   "type": "Feature",
   "geometry": {
    "type": "Point",
    "coordinates": [
     144.25379242,
     -36.72774262
    ]
   },
   "properties": {
    "name": "40 MURDOCK STREET CALIFORNIA GULLY 3556",
    "locID": "LOC000124882109",
    "tech": "FTTC",
    "upgrade": "FTTP_SA",
    "gnaf_pid": "GAVIC419652106",
    "tech_change_status": "Eligible To Order"
   }
  },
  {
   "type": "Feature",
   "geometry": {
    "type": "Point",
    "coordinates": [
     144.25713525,
     -36.72679437
    ]
   },
   "properties": {
    "name": "14 YOULDEN STREET CALIFORNIA GULLY 3556",
    "locID": "LOC000007735998",
    "tech": "FTTC",
    "upgrade": "FTTP_SA",
    "gnaf_pid": "GAVIC419652302",
    "tech_change_status": "Eligible To Order"
   }
  },
  {
   "type": "Feature",
   "geometry": {
    "type": "Point",
    "coordinates": [
     144.2582646,
     -36.73348837
    ]
   },
   "properties": {
    "name": "47 DOWDING STREET CALIFORNIA GULLY 3556",
    "locID": "LOC000042377213",
    "tech": "FTTC",
    "upgrade": "FTTP_SA",
    "gnaf_pid": "GAVIC419654077",
    "tech_change_status": "Eligible To Order"
   }
  },
  {
   "type": "Feature",
   "geometry": {
    "type": "Point",
    "coordinates": [
     144.25935685,
     -36.73415898
    ]
   },
   "properties": {
    "name": "11 CHRISTIAN STREET CALIFORNIA GULLY 3556",
    "locID": "LOC000070944597",
    "tech": "FTTC",
    "upgrade": "FTTP_SA",
    "gnaf_pid": "GAVIC419654078",
    "tech_change_status": "Eligible To Order"
   }
  },
  {
   "type": "Feature",
   "geometry": {
    "type": "Point",
    "coordinates": [
     144.24986753,
     -36.73347967
    ]
   },
   "properties": {
    "name": "4-14 STALEY STREET CALIFORNIA GULLY 3556",
    "locID": "LOC000038814435",
    "tech": "FTTN",
    "upgrade": "FTTP_NA",
    "gnaf_pid": "GAVIC419656497",
    "tech_change_status": "In Design",
    "program_type": "On-Demand N2P SDU/MDU Simple",
    "target_eligibility_quarter": "Jun 2025"
   }
  },
  {
   "type": "Feature",
   "geometry": {
    "type": "Point",
    "coordinates": [
     144.2503655,
     -36.73162126
    ]
   },
   "properties": {
    "name": "4 VINTON STREET CALIFORNIA GULLY 3556",
    "locID": "LOC000038884047",
    "tech": "FTTN",
    "upgrade": "FTTP_NA",
    "gnaf_pid": "GAVIC419656498",
    "tech_change_status": "In Design",
    "program_type": "On-Demand N2P SDU/MDU Simple",
    "target_eligibility_quarter": "Jun 2025"
   }
  },
  {
   "type": "Feature",
   "geometry": {
    "type": "Point",
    "coordinates": [
     144.25409864,
     -36.73436931
    ]
   },
   "properties": {
    "name": "6 SPEEDY STREET CALIFORNIA GULLY 3556",
    "locID": "LOC000030199045",
    "tech": "FTTN",
    "upgrade": "FTTP_NA",
    "gnaf_pid": "GAVIC419656501",
    "tech_change_status": "In Design",
    "program_type": "On-Demand N2P SDU/MDU Simple",
    "target_eligibility_quarter": "Jun 2025"
   }
  },
  {
   "type": "Feature",
   "geometry": {
    "type": "Point",
    "coordinates": [
     144.25442549,
     -36.73402024
    ]
   },
   "properties": {
    "name": "10 SPEEDY STREET CALIFORNIA GULLY 3556",
    "locID": "LOC000007783267",
    "tech": "FTTN",
    "upgrade": "FTTP_NA",
    "gnaf_pid": "GAVIC419656502",
    "tech_change_status": "In Design",
    "program_type": "On-Demand N2P SDU/MDU Simple",
    "target_eligibility_quarter": "Jun 2025"
   }
  },
  {
   "type": "Feature",
   "geometry": {
    "type": "Point",
    "coordinates": [
     144.25730228,
     -36.72979508
    ]
   },
   "properties": {
    "name": "5 THORPE STREET CALIFORNIA GULLY 3556",
    "locID": "LOC000084784177",
    "tech": "FTTC",
    "upgrade": "FTTP_SA",
    "gnaf_pid": "GAVIC419656510",
    "tech_change_status": "Eligible To Order"
   }
  },
  {
   "type": "Feature",
   "geometry": {
    "type": "Point",
    "coordinates": [
     144.25764925,
     -36.72990477
    ]
   },
   "properties": {
    "name": "1 THORPE STREET CALIFORNIA GULLY 3556",
    "locID": "LOC000070577626",
    "tech": "FTTC",
    "upgrade": "FTTP_SA",
    "gnaf_pid": "GAVIC419656511",
    "tech_change_status": "Eligible To Order"
   }
  },
  {
   "type": "Feature",
   "geometry": {
    "type": "Point",
    "coordinates": [
     144.25997769,
     -36.7361723
    ]
   },
   "properties": {
    "name": "5 MCGOWAN STREET CALIFORNIA GULLY 3556",
    "locID": "LOC000018430675",
    "tech": "FTTN",
    "upgrade": "FTTP_NA",
    "gnaf_pid": "GAVIC419656748",
    "tech_change_status": "In Design",
    "program_type": "On-Demand N2P SDU/MDU Simple",
    "target_eligibility_quarter": "Sep 2025"
   }
  },
  {
   "type": "Feature",
   "geometry": {
    "type": "Point",
    "coordinates": [
     144.26080505,
     -36.73531759
    ]
   },
   "properties": {
    "name": "2 HOCKING COURT CALIFORNIA GULLY 3556",
    "locID": "LOC000048316915",
    "tech": "FTTN",
    "upgrade": "FTTP_NA",
    "gnaf_pid": "GAVIC419656749",
    "tech_change_status": "In Design",
    "program_type": "On-Demand N2P SDU/MDU Simple",
    "target_eligibility_quarter": "Sep 2025"
   }
  },
  {
   "type": "Feature",
   "geometry": {
    "type": "Point",
    "coordinates": [
     144.24692028,
     -36.73387333
    ]
   },
   "properties": {
    "name": "32 BUTLER STREET CALIFORNIA GULLY 3556",
    "locID": "LOC000008689497",
    "tech": "FTTN",
    "upgrade": "FTTP_NA",
    "gnaf_pid": "GAVIC419657706",
    "tech_change_status": "In Design",
    "program_type": "On-Demand N2P SDU/MDU Simple",
    "target_eligibility_quarter": "Jun 2025"
   }
  },
  {
   "type": "Feature",
   "geometry": {
    "type": "Point",
    "coordinates": [
     144.24853447,
     -36.73640825
    ]
   },
   "properties": {
    "name": "13 BUTLER STREET CALIFORNIA GULLY 3556",
    "locID": "LOC000011897645",
    "tech": "FTTN",
    "upgrade": "FTTP_NA",
    "gnaf_pid": "GAVIC419657715",
    "tech_change_status": "In Design",
    "program_type": "On-Demand N2P SDU/MDU Simple",
    "target_eligibility_quarter": "Dec 2025"
   }
  },
  {
   "type": "Feature",
   "geometry": {
    "type": "Point",
    "coordinates": [
     144.25276474,
     -36.73468552
    ]
   },
   "properties": {
    "name": "4 BARKER STREET CALIFORNIA GULLY 3556",
    "locID": "LOC000102276652",
    "tech": "FTTN",
    "upgrade": "FTTP_NA",
    "gnaf_pid": "GAVIC419657716",
    "tech_change_status": "In Design",
    "program_type": "On-Demand N2P SDU/MDU Simple",
    "target_eligibility_quarter": "Jun 2025"
   }
  },
  {
   "type": "Feature",
   "geometry": {
    "type": "Point",
    "coordinates": [
     144.25224022,
     -36.73488816
    ]
   },
   "properties": {
    "name": "8 BARKER STREET CALIFORNIA GULLY 3556",
    "locID": "LOC000100667043",
    "tech": "FTTN",
    "upgrade": "FTTP_NA",
    "gnaf_pid": "GAVIC419657717",
    "tech_change_status": "In Design",
    "program_type": "On-Demand N2P SDU/MDU Simple",
    "target_eligibility_quarter": "Jun 2025"
   }
  },
  {
   "type": "Feature",
   "geometry": {
    "type": "Point",
    "coordinates": [
     144.25178161,
     -36.73423235
    ]
   },
   "properties": {
    "name": "7 ROSE STREET CALIFORNIA GULLY 3556",
    "locID": "LOC000025131043",
    "tech": "FTTN",
    "upgrade": "FTTP_NA",
    "gnaf_pid": "GAVIC419657718",
    "tech_change_status": "In Design",
    "program_type": "On-Demand N2P SDU/MDU Simple",
    "target_eligibility_quarter": "Jun 2025"
   }
  },
  {
   "type": "Feature",
   "geometry": {
    "type": "Point",
    "coordinates": [
     144.25162281,
     -36.73389983
    ]
   },
   "properties": {
    "name": "3 ROSE STREET CALIFORNIA GULLY 3556",
    "locID": "LOC000042740199",
    "tech": "FTTN",
    "upgrade": "FTTP_NA",
    "gnaf_pid": "GAVIC419657719",
    "tech_change_status": "In Design",
    "program_type": "On-Demand N2P SDU/MDU Simple",
    "target_eligibility_quarter": "Jun 2025"
   }
  },
  {
   "type": "Feature",
   "geometry": {
    "type": "Point",
    "coordinates": [
     144.25265155,
     -36.73610644
    ]
   },
   "properties": {
    "name": "19 ROSE STREET CALIFORNIA GULLY 3556",
    "locID": "LOC000105769762",
    "tech": "FTTN",
    "upgrade": "FTTP_NA",
    "gnaf_pid": "GAVIC419658550",
    "tech_change_status": "In Design",
    "program_type": "On-Demand N2P SDU/MDU Simple",
    "target_eligibility_quarter": "Jun 2025"
   }
  },
  {
   "type": "Feature",
   "geometry": {
    "type": "Point",
    "coordinates": [
     144.24819252,
     -36.7306758
    ]
   },
   "properties": {
    "name": "41 TURNER STREET CALIFORNIA GULLY 3556",
    "locID": "LOC000040072620",
    "tech": "FTTN",
    "upgrade": "FTTP_NA",
    "gnaf_pid": "GAVIC419658551",
    "tech_change_status": "In Design",
    "program_type": "On-Demand N2P SDU/MDU Simple",
    "target_eligibility_quarter": "Dec 2025"
   }
  },
  {
   "type": "Feature",
   "geometry": {
    "type": "Point",
    "coordinates": [
     144.25301655,
     -36.73268566
    ]
   },
   "properties": {
    "name": "19 THOMAS STREET CALIFORNIA GULLY 3556",
    "locID": "LOC000020235401",
    "tech": "FTTN",
    "upgrade": "FTTP_NA",
    "gnaf_pid": "GAVIC419658552",
    "tech_change_status": "In Design",
    "program_type": "On-Demand N2P SDU/MDU Simple",
    "target_eligibility_quarter": "Dec 2025"
   }
  },
  {
   "type": "Feature",
   "geometry": {
    "type": "Point",
    "coordinates": [
     144.25463528,
     -36.73386325
    ]
   },
   "properties": {
    "name": "12 SPEEDY STREET CALIFORNIA GULLY 3556",
    "locID": "LOC000083779006",
    "tech": "FTTN",
    "upgrade": "FTTP_NA",
    "gnaf_pid": "GAVIC419658553",
    "tech_change_status": "In Design",
    "program_type": "On-Demand N2P SDU/MDU Simple",
    "target_eligibility_quarter": "Jun 2025"
   }
  },
  {
   "type": "Feature",
   "geometry": {
    "type": "Point",
    "coordinates": [
     144.2501603,
     -36.7312959
    ]
   },
   "properties": {
    "name": "2 VINTON STREET CALIFORNIA GULLY 3556",
    "locID": "LOC000012102339",
    "tech": "FTTN",
    "upgrade": "FTTP_NA",
    "gnaf_pid": "GAVIC419658554",
    "tech_change_status": "In Design",
    "program_type": "On-Demand N2P SDU/MDU Simple",
    "target_eligibility_quarter": "Jun 2025"
   }
  },
  {
   "type": "Feature",
   "geometry": {
    "type": "Point",
    "coordinates": [
     144.26020915,
     -36.73519777
    ]
   },
   "properties": {
    "name": "10 CHRISTIAN STREET CALIFORNIA GULLY 3556",
    "locID": "LOC000045584090",
    "tech": "FTTC",
    "upgrade": "FTTP_SA",
    "gnaf_pid": "GAVIC419659419",
    "tech_change_status": "Eligible To Order"
   }
  },
  {
   "type": "Feature",
   "geometry": {
    "type": "Point",
    "coordinates": [
     144.26010575,
     -36.73472296
    ]
   },
   "properties": {
    "name": "9 WEATHERALL STREET CALIFORNIA GULLY 3556",
    "locID": "LOC000088865552",
    "tech": "FTTC",
    "upgrade": "FTTP_SA",
    "gnaf_pid": "GAVIC419659420",
    "tech_change_status": "Eligible To Order"
   }
  },
  {
   "type": "Feature",
   "geometry": {
    "type": "Point",
    "coordinates": [
     144.25982576,
     -36.73407046
    ]
   },
   "properties": {
    "name": "18 CHRISTIAN STREET CALIFORNIA GULLY 3556",
    "locID": "LOC000043637202",
    "tech": "FTTC",
    "upgrade": "FTTP_SA",
    "gnaf_pid": "GAVIC419659421",
    "tech_change_status": "Eligible To Order"
   }
  },
  {
   "type": "Feature",
   "geometry": {
    "type": "Point",
    "coordinates": [
     144.2633353,
     -36.73281929
    ]
   },
   "properties": {
    "name": "16 MANNING AVENUE CALIFORNIA GULLY 3556",
    "locID": "LOC000041307687",
    "tech": "FTTC",
    "upgrade": "FTTP_SA",
    "gnaf_pid": "GAVIC419659424",
    "tech_change_status": "Eligible To Order"
   }
  },
  {
   "type": "Feature",
   "geometry": {
    "type": "Point",
    "coordinates": [
     144.26359907,
     -36.73371265
    ]
   },
   "properties": {
    "name": "4 MANNING AVENUE CALIFORNIA GULLY 3556",
    "locID": "LOC000006884787",
    "tech": "FTTC",
    "upgrade": "FTTP_SA",
    "gnaf_pid": "GAVIC419659426",
    "tech_change_status": "Eligible To Order"
   }
  },
  {
   "type": "Feature",
   "geometry": {
    "type": "Point",
    "coordinates": [
     144.26141901,
     -36.72878182
    ]
   },
   "properties": {
    "name": "19 NELSON STREET CALIFORNIA GULLY 3556",
    "locID": "LOC000091651642",
    "tech": "FTTN",
    "upgrade": "FTTP_NA",
    "gnaf_pid": "GAVIC419659428",
    "tech_change_status": "In Design",
    "program_type": "On-Demand N2P SDU/MDU Simple",
    "target_eligibility_quarter": "Jun 2025"
   }
  },
  {
   "type": "Feature",
   "geometry": {
    "type": "Point",
    "coordinates": [
     144.26122852,
     -36.72890778
    ]
   },
   "properties": {
    "name": "17 NELSON STREET CALIFORNIA GULLY 3556",
    "locID": "LOC000026009656",
    "tech": "FTTN",
    "upgrade": "FTTP_NA",
    "gnaf_pid": "GAVIC419659429",
    "tech_change_status": "In Design",
    "program_type": "On-Demand N2P SDU/MDU Simple",
    "target_eligibility_quarter": "Jun 2025"
   }
  },
  {
   "type": "Feature",
   "geometry": {
    "type": "Point",
    "coordinates": [
     144.25998228,
     -36.73066005
    ]
   },
   "properties": {
    "name": "83 WOOD STREET CALIFORNIA GULLY 3556",
    "locID": "LOC000047347966",
    "tech": "FTTC",
    "upgrade": "FTTP_SA",
    "gnaf_pid": "GAVIC419660056",
    "tech_change_status": "Eligible To Order"
   }
  },
  {
   "type": "Feature",
   "geometry": {
    "type": "Point",
    "coordinates": [
     144.25964521,
     -36.72825164
    ]
   },
   "properties": {
    "name": "103 WOOD STREET CALIFORNIA GULLY 3556",
    "locID": "LOC000079671998",
    "tech": "FTTC",
    "upgrade": "FTTP_SA",
    "gnaf_pid": "GAVIC419660058",
    "tech_change_status": "Eligible To Order"
   }
  },
  {
   "type": "Feature",
   "geometry": {
    "type": "Point",
    "coordinates": [
     144.25993868,
     -36.72787578
    ]
   },
   "properties": {
    "name": "110 WOOD STREET CALIFORNIA GULLY 3556",
    "locID": "LOC000012126614",
    "tech": "FTTC",
    "upgrade": "FTTP_SA",
    "gnaf_pid": "GAVIC419660060",
    "tech_change_status": "Eligible To Order"
   }
  },
  {
   "type": "Feature",
   "geometry": {
    "type": "Point",
    "coordinates": [
     144.26211968,
     -36.735027
    ]
   },
   "properties": {
    "name": "13 MCGOWAN STREET CALIFORNIA GULLY 3556",
    "locID": "LOC000016953944",
    "tech": "FTTN",
    "upgrade": "FTTP_NA",
    "gnaf_pid": "GAVIC419660061",
    "tech_change_status": "In Design",
    "program_type": "On-Demand N2P SDU/MDU Simple",
    "target_eligibility_quarter": "Sep 2025"
   }
  },
  {
   "type": "Feature",
   "geometry": {
    "type": "Point",
    "coordinates": [
     144.25083146,
     -36.72899151
    ]
   },
   "properties": {
    "name": "23 BROWN STREET CALIFORNIA GULLY 3556",
    "locID": "LOC000004389873",
    "tech": "FTTN",
    "upgrade": "FTTP_NA",
    "gnaf_pid": "GAVIC419661173",
    "tech_change_status": "In Design",
    "program_type": "On-Demand N2P SDU/MDU Simple",
    "target_eligibility_quarter": "Jun 2025"
   }
  },
  {
   "type": "Feature",
   "geometry": {
    "type": "Point",
    "coordinates": [
     144.25705047,
     -36.72923161
    ]
   },
   "properties": {
    "name": "6 THORPE STREET CALIFORNIA GULLY 3556",
    "locID": "LOC000038642587",
    "tech": "FTTC",
    "upgrade": "FTTP_SA",
    "gnaf_pid": "GAVIC419661174",
    "tech_change_status": "Eligible To Order"
   }
  },
  {
   "type": "Feature",
   "geometry": {
    "type": "Point",
    "coordinates": [
     144.26544451,
     -36.7287822
    ]
   },
   "properties": {
    "name": "32 GREEN STREET CALIFORNIA GULLY 3556",
    "locID": "LOC000042652046",
    "tech": "FTTN",
    "upgrade": "FTTP_NA",
    "gnaf_pid": "GAVIC419667397",
    "tech_change_status": "In Design",
    "program_type": "On-Demand N2P SDU/MDU Simple",
    "target_eligibility_quarter": "Jun 2025"
   }
  },
  {
   "type": "Feature",
   "geometry": {
    "type": "Point",
    "coordinates": [
     144.26443275,
     -36.72749538
    ]
   },
   "properties": {
    "name": "32 NELSON STREET CALIFORNIA GULLY 3556",
    "locID": "LOC000096586699",
    "tech": "FTTN",
    "upgrade": "FTTP_NA",
    "gnaf_pid": "GAVIC419667398",
    "tech_change_status": "In Design",
    "program_type": "On-Demand N2P SDU/MDU Simple",
    "target_eligibility_quarter": "Jun 2025"
   }
  },
  {
   "type": "Feature",
   "geometry": {
    "type": "Point",
    "coordinates": [
     144.26155168,
     -36.72447571
    ]
   },
   "properties": {
    "name": "2 ARBLASTER STREET CALIFORNIA GULLY 3556",
    "locID": "LOC000025321586",
    "tech": "FTTN",
    "upgrade": "FTTP_NA",
    "gnaf_pid": "GAVIC419667399",
    "tech_change_status": "In Design",
    "program_type": "On-Demand N2P SDU/MDU Simple",
    "target_eligibility_quarter": "Jun 2025"
   }
  },
  {
   "type": "Feature",
   "geometry": {
    "type": "Point",
    "coordinates": [
     144.26504463,
     -36.72496883
    ]
   },
   "properties": {
    "name": "26A MATHRICK STREET CALIFORNIA GULLY 3556",
    "locID": "LOC000067924750",
    "tech": "FTTN",
    "upgrade": "FTTP_NA",
    "gnaf_pid": "GAVIC419673265",
    "tech_change_status": "Committed",
    "program_type": "On-Demand N2P SDU/MDU Simple",
    "target_eligibility_quarter": "Mar 2025"
   }
  },
  {
   "type": "Feature",
   "geometry": {
    "type": "Point",
    "coordinates": [
     144.27144387,
     -36.72544878
    ]
   },
   "properties": {
    "name": "UNIT 2, 80 BRIGHT STREET CALIFORNIA GULLY 3556",
    "locID": "LOC000012103307",
    "tech": "FTTC",
    "upgrade": "FTTP_NA",
    "gnaf_pid": "GAVIC419694158",
    "tech_change_status": "MDU Complex Eligible To Apply"
   }
  },
  {
   "type": "Feature",
   "geometry": {
    "type": "Point",
    "coordinates": [
     144.2516675,
     -36.72992504
    ]
   },
   "properties": {
    "name": "UNIT 1, 24 TURNER STREET CALIFORNIA GULLY 3556",
    "locID": "LOC000012942766",
    "tech": "FTTN",
    "upgrade": "FTTP_NA",
    "gnaf_pid": "GAVIC419694162",
    "tech_change_status": "In Design",
    "program_type": "On-Demand N2P SDU/MDU Simple",
    "target_eligibility_quarter": "Jun 2025"
   }
  },
  {
   "type": "Feature",
   "geometry": {
    "type": "Point",
    "coordinates": [
     144.25189748,
     -36.72979038
    ]
   },
   "properties": {
    "name": "UNIT 3, 24 TURNER STREET CALIFORNIA GULLY 3556",
    "locID": "LOC000012997113",
    "tech": "FTTN",
    "upgrade": "FTTP_NA",
    "gnaf_pid": "GAVIC419694163",
    "tech_change_status": "In Design",
    "program_type": "On-Demand N2P SDU/MDU Simple",
    "target_eligibility_quarter": "Jun 2025"
   }
  },
  {
   "type": "Feature",
   "geometry": {
    "type": "Point",
    "coordinates": [
     144.2689012,
     -36.72391895
    ]
   },
   "properties": {
    "name": "51 BRIGHT STREET CALIFORNIA GULLY 3556",
    "locID": "LOC000080145570",
    "tech": "FTTN",
    "upgrade": "FTTP_NA",
    "gnaf_pid": "GAVIC419694911",
    "tech_change_status": "Committed",
    "program_type": "On-Demand N2P SDU/MDU Simple",
    "target_eligibility_quarter": "Dec 2025"
   }
  },
  {
   "type": "Feature",
   "geometry": {
    "type": "Point",
    "coordinates": [
     144.26978489,
     -36.72195995
    ]
   },
   "properties": {
    "name": "6 LLEWELLYN COURT CALIFORNIA GULLY 3556",
    "locID": "LOC000030114897",
    "tech": "FTTN",
    "upgrade": "FTTP_NA",
    "gnaf_pid": "GAVIC419694912",
    "tech_change_status": "Committed",
    "program_type": "On-Demand N2P SDU/MDU Simple",
    "target_eligibility_quarter": "Dec 2025"
   }
  },
  {
   "type": "Feature",
   "geometry": {
    "type": "Point",
    "coordinates": [
     144.27008204,
     -36.72231857
    ]
   },
   "properties": {
    "name": "11 FITZPATRICK COURT CALIFORNIA GULLY 3556",
    "locID": "LOC000045920348",
    "tech": "FTTN",
    "upgrade": "FTTP_NA",
    "gnaf_pid": "GAVIC419694913",
    "tech_change_status": "Committed",
    "program_type": "On-Demand N2P SDU/MDU Simple",
    "target_eligibility_quarter": "Mar 2025"
   }
  },
  {
   "type": "Feature",
   "geometry": {
    "type": "Point",
    "coordinates": [
     144.26916529,
     -36.72255082
    ]
   },
   "properties": {
    "name": "15 TRUSCOTT AVENUE CALIFORNIA GULLY 3556",
    "locID": "LOC000102691638",
    "tech": "FTTN",
    "upgrade": "FTTP_NA",
    "gnaf_pid": "GAVIC419694914",
    "tech_change_status": "Committed",
    "program_type": "On-Demand N2P SDU/MDU Simple",
    "target_eligibility_quarter": "Dec 2025"
   }
  },
  {
   "type": "Feature",
   "geometry": {
    "type": "Point",
    "coordinates": [
     144.27046305,
     -36.72311597
    ]
   },
   "properties": {
    "name": "31 TRUSCOTT AVENUE CALIFORNIA GULLY 3556",
    "locID": "LOC000055734102",
    "tech": "FTTN",
    "upgrade": "FTTP_NA",
    "gnaf_pid": "GAVIC419694915",
    "tech_change_status": "Committed",
    "program_type": "On-Demand N2P SDU/MDU Simple",
    "target_eligibility_quarter": "Dec 2025"
   }
  },
  {
   "type": "Feature",
   "geometry": {
    "type": "Point",
    "coordinates": [
     144.27058346,
     -36.72162497
    ]
   },
   "properties": {
    "name": "4 FITZPATRICK COURT CALIFORNIA GULLY 3556",
    "locID": "LOC000105695025",
    "tech": "FTTN",
    "upgrade": "FTTP_NA",
    "gnaf_pid": "GAVIC419694921",
    "tech_change_status": "Committed",
    "program_type": "On-Demand N2P SDU/MDU Simple",
    "target_eligibility_quarter": "Mar 2025"
   }
  },
  {
   "type": "Feature",
   "geometry": {
    "type": "Point",
    "coordinates": [
     144.25053573,
     -36.73366804
    ]
   },
   "properties": {
    "name": "7 STALEY STREET CALIFORNIA GULLY 3556",
    "locID": "LOC000081141019",
    "tech": "FTTN",
    "upgrade": "FTTP_NA",
    "gnaf_pid": "GAVIC419694930",
    "tech_change_status": "In Design",
    "program_type": "On-Demand N2P SDU/MDU Simple",
    "target_eligibility_quarter": "Jun 2025"
   }
  },
  {
   "type": "Feature",
   "geometry": {
    "type": "Point",
    "coordinates": [
     144.2559588,
     -36.73291263
    ]
   },
   "properties": {
    "name": "16 ESLER STREET CALIFORNIA GULLY 3556",
    "locID": "LOC000089257465",
    "tech": "FTTN",
    "upgrade": "FTTP_NA",
    "gnaf_pid": "GAVIC419694933",
    "tech_change_status": "In Design",
    "program_type": "On-Demand N2P SDU/MDU Simple",
    "target_eligibility_quarter": "Jun 2025"
   }
  },
  {
   "type": "Feature",
   "geometry": {
    "type": "Point",
    "coordinates": [
     144.25561224,
     -36.73287808
    ]
   },
   "properties": {
    "name": "2 THOMAS STREET CALIFORNIA GULLY 3556",
    "locID": "LOC000076080019",
    "tech": "FTTN",
    "upgrade": "FTTP_NA",
    "gnaf_pid": "GAVIC419694934",
    "tech_change_status": "In Design",
    "program_type": "On-Demand N2P SDU/MDU Simple",
    "target_eligibility_quarter": "Jun 2025"
   }
  },
  {
   "type": "Feature",
   "geometry": {
    "type": "Point",
    "coordinates": [
     144.25065612,
     -36.73136304
    ]
   },
   "properties": {
    "name": "5 VINTON STREET CALIFORNIA GULLY 3556",
    "locID": "LOC000066458827",
    "tech": "FTTN",
    "upgrade": "FTTP_NA",
    "gnaf_pid": "GAVIC419694937",
    "tech_change_status": "In Design",
    "program_type": "On-Demand N2P SDU/MDU Simple",
    "target_eligibility_quarter": "Jun 2025"
   }
  },
  {
   "type": "Feature",
   "geometry": {
    "type": "Point",
    "coordinates": [
     144.27097545,
     -36.7209694
    ]
   },
   "properties": {
    "name": "10 WHITFIELD COURT CALIFORNIA GULLY 3556",
    "locID": "LOC000057658583",
    "tech": "FTTN",
    "upgrade": "FTTP_NA",
    "gnaf_pid": "GAVIC419695757",
    "tech_change_status": "Committed",
    "program_type": "On-Demand N2P SDU/MDU Simple",
    "target_eligibility_quarter": "Mar 2025"
   }
  },
  {
   "type": "Feature",
   "geometry": {
    "type": "Point",
    "coordinates": [
     144.27091246,
     -36.72050509
    ]
   },
   "properties": {
    "name": "34 OSWALD STREET CALIFORNIA GULLY 3556",
    "locID": "LOC000054308807",
    "tech": "FTTN",
    "upgrade": "FTTP_NA",
    "gnaf_pid": "GAVIC419695758",
    "tech_change_status": "Committed",
    "program_type": "On-Demand N2P SDU/MDU Simple",
    "target_eligibility_quarter": "Mar 2025"
   }
  },
  {
   "type": "Feature",
   "geometry": {
    "type": "Point",
    "coordinates": [
     144.26444361,
     -36.72666295
    ]
   },
   "properties": {
    "name": "21 GREEN STREET CALIFORNIA GULLY 3556",
    "locID": "LOC000088850973",
    "tech": "FTTN",
    "upgrade": "FTTP_NA",
    "gnaf_pid": "GAVIC419695761",
    "tech_change_status": "In Design",
    "program_type": "On-Demand N2P SDU/MDU Simple",
    "target_eligibility_quarter": "Jun 2025"
   }
  },
  {
   "type": "Feature",
   "geometry": {
    "type": "Point",
    "coordinates": [
     144.25628835,
     -36.72939754
    ]
   },
   "properties": {
    "name": "13A THORPE STREET CALIFORNIA GULLY 3556",
    "locID": "LOC000019428644",
    "tech": "FTTC",
    "upgrade": "FTTP_SA",
    "gnaf_pid": "GAVIC419697611",
    "tech_change_status": "Eligible To Order"
   }
  },
  {
   "type": "Feature",
   "geometry": {
    "type": "Point",
    "coordinates": [
     144.2570668,
     -36.7342113
    ]
   },
   "properties": {
    "name": "15 SCHOOL STREET CALIFORNIA GULLY 3556",
    "locID": "LOC000025110060",
    "tech": "FTTN",
    "upgrade": "FTTP_NA",
    "gnaf_pid": "GAVIC419697613",
    "tech_change_status": "In Design",
    "program_type": "On-Demand N2P SDU/MDU Simple",
    "target_eligibility_quarter": "Jun 2025"
   }
  },
  {
   "type": "Feature",
   "geometry": {
    "type": "Point",
    "coordinates": [
     144.2570036,
     -36.7340533
    ]
   },
   "properties": {
    "name": "17 SCHOOL STREET CALIFORNIA GULLY 3556",
    "locID": "LOC000042429951",
    "tech": "FTTN",
    "upgrade": "FTTP_NA",
    "gnaf_pid": "GAVIC419697614",
    "tech_change_status": "In Design",
    "program_type": "On-Demand N2P SDU/MDU Simple",
    "target_eligibility_quarter": "Jun 2025"
   }
  },
  {
   "type": "Feature",
   "geometry": {
    "type": "Point",
    "coordinates": [
     144.2623425,
     -36.73255787
    ]
   },
   "properties": {
    "name": "16 DOWDING STREET CALIFORNIA GULLY 3556",
    "locID": "LOC000071426574",
    "tech": "FTTC",
    "upgrade": "FTTP_SA",
    "gnaf_pid": "GAVIC419702638",
    "tech_change_status": "Eligible To Order"
   }
  },
  {
   "type": "Feature",
   "geometry": {
    "type": "Point",
    "coordinates": [
     144.25997356,
     -36.7277175
    ]
   },
   "properties": {
    "name": "112A WOOD STREET CALIFORNIA GULLY 3556",
    "locID": "LOC000081481846",
    "tech": "FTTN",
    "upgrade": "FTTP_NA",
    "gnaf_pid": "GAVIC419703108",
    "tech_change_status": "In Design",
    "program_type": "On-Demand N2P SDU/MDU Simple",
    "target_eligibility_quarter": "Jun 2025"
   }
  },
  {
   "type": "Feature",
   "geometry": {
    "type": "Point",
    "coordinates": [
     144.25971445,
     -36.73359415
    ]
   },
   "properties": {
    "name": "22 CHRISTIAN STREET CALIFORNIA GULLY 3556",
    "locID": "LOC000037065901",
    "tech": "FTTC",
    "upgrade": "FTTP_SA",
    "gnaf_pid": "GAVIC419703109",
    "tech_change_status": "Eligible To Order"
   }
  },
  {
   "type": "Feature",
   "geometry": {
    "type": "Point",
    "coordinates": [
     144.26064875,
     -36.7290824
    ]
   },
   "properties": {
    "name": "UNIT 2, 13 NELSON STREET CALIFORNIA GULLY 3556",
    "locID": "LOC000045373902",
    "tech": "FTTN",
    "upgrade": "FTTP_NA",
    "gnaf_pid": "GAVIC419703111",
    "tech_change_status": "In Design",
    "program_type": "Customer-initiated N2P MDU Complex",
    "target_eligibility_quarter": "Jun 2025"
   }
  },
  {
   "type": "Feature",
   "geometry": {
    "type": "Point",
    "coordinates": [
     144.26656993,
     -36.7274981
    ]
   },
   "properties": {
    "name": "UNIT 1, 6 GILL AVENUE CALIFORNIA GULLY 3556",
    "locID": "LOC000102132228",
    "tech": "FTTC",
    "upgrade": "FTTP_NA",
    "gnaf_pid": "GAVIC419703904",
    "tech_change_status": "MDU Complex Eligible To Apply"
   }
  },
  {
   "type": "Feature",
   "geometry": {
    "type": "Point",
    "coordinates": [
     144.26685627,
     -36.72765059
    ]
   },
   "properties": {
    "name": "UNIT 1, 8 GILL AVENUE CALIFORNIA GULLY 3556",
    "locID": "LOC000014431493",
    "tech": "FTTC",
    "upgrade": "FTTP_NA",
    "gnaf_pid": "GAVIC419703905",
    "tech_change_status": "MDU Complex Eligible To Apply"
   }
  },
  {
   "type": "Feature",
   "geometry": {
    "type": "Point",
    "coordinates": [
     144.25700045,
     -36.7315473
    ]
   },
   "properties": {
    "name": "UNIT 2, 1 ESLER STREET CALIFORNIA GULLY 3556",
    "locID": "LOC000050757512",
    "tech": "FTTN",
    "upgrade": "FTTP_NA",
    "gnaf_pid": "GAVIC419703930",
    "tech_change_status": "In Design",
    "program_type": "Customer-initiated N2P MDU Complex",
    "target_eligibility_quarter": "Jun 2025"
   }
  },
  {
   "type": "Feature",
   "geometry": {
    "type": "Point",
    "coordinates": [
     144.25485192,
     -36.72868966
    ]
   },
   "properties": {
    "name": "28 THORPE STREET CALIFORNIA GULLY 3556",
    "locID": "LOC000006928960",
    "tech": "FTTC",
    "upgrade": "FTTP_SA",
    "gnaf_pid": "GAVIC419704855",
    "tech_change_status": "Eligible To Order"
   }
  },
  {
   "type": "Feature",
   "geometry": {
    "type": "Point",
    "coordinates": [
     144.27701562,
     -36.72574076
    ]
   },
   "properties": {
    "name": "7A WINGOON DRIVE CALIFORNIA GULLY 3556",
    "locID": "LOC000030248147",
    "tech": "FTTN",
    "upgrade": "FTTP_NA",
    "gnaf_pid": "GAVIC419704858",
    "tech_change_status": "Committed",
    "program_type": "On-Demand N2P SDU/MDU Simple",
    "target_eligibility_quarter": "Mar 2025"
   }
  },
  {
   "type": "Feature",
   "geometry": {
    "type": "Point",
    "coordinates": [
     144.25261115,
     -36.72647659
    ]
   },
   "properties": {
    "name": "58 MURDOCK STREET CALIFORNIA GULLY 3556",
    "locID": "LOC000033587917",
    "tech": "FTTC",
    "upgrade": "FTTP_SA",
    "gnaf_pid": "GAVIC419704862",
    "tech_change_status": "Eligible To Order"
   }
  },
  {
   "type": "Feature",
   "geometry": {
    "type": "Point",
    "coordinates": [
     144.26201489,
     -36.7312661
    ]
   },
   "properties": {
    "name": "1A SMALLEY STREET CALIFORNIA GULLY 3556",
    "locID": "LOC000102045937",
    "tech": "FTTC",
    "upgrade": "FTTP_SA",
    "gnaf_pid": "GAVIC419705313",
    "tech_change_status": "Eligible To Order"
   }
  },
  {
   "type": "Feature",
   "geometry": {
    "type": "Point",
    "coordinates": [
     144.25898373,
     -36.73306462
    ]
   },
   "properties": {
    "name": "40 DOWDING STREET CALIFORNIA GULLY 3556",
    "locID": "LOC000036779910",
    "tech": "FTTC",
    "upgrade": "FTTP_SA",
    "gnaf_pid": "GAVIC419705316",
    "tech_change_status": "Eligible To Order"
   }
  },
  {
   "type": "Feature",
   "geometry": {
    "type": "Point",
    "coordinates": [
     144.26020991,
     -36.72862495
    ]
   },
   "properties": {
    "name": "102 WOOD STREET CALIFORNIA GULLY 3556",
    "locID": "LOC000059639900",
    "tech": "FTTC",
    "upgrade": "FTTP_SA",
    "gnaf_pid": "GAVIC419705317",
    "tech_change_status": "Eligible To Order"
   }
  },
  {
   "type": "Feature",
   "geometry": {
    "type": "Point",
    "coordinates": [
     144.25289381,
     -36.72611661
    ]
   },
   "properties": {
    "name": "29 WATSON AVENUE CALIFORNIA GULLY 3556",
    "locID": "LOC000097271888",
    "tech": "FTTC",
    "upgrade": "FTTP_SA",
    "gnaf_pid": "GAVIC419705702",
    "tech_change_status": "Eligible To Order"
   }
  },
  {
   "type": "Feature",
   "geometry": {
    "type": "Point",
    "coordinates": [
     144.2626334,
     -36.72460959
    ]
   },
   "properties": {
    "name": "5 GREEN STREET CALIFORNIA GULLY 3556",
    "locID": "LOC000051613818",
    "tech": "FTTN",
    "upgrade": "FTTP_NA",
    "gnaf_pid": "GAVIC419705814",
    "tech_change_status": "In Design",
    "program_type": "On-Demand N2P SDU/MDU Simple",
    "target_eligibility_quarter": "Jun 2025"
   }
  },
  {
   "type": "Feature",
   "geometry": {
    "type": "Point",
    "coordinates": [
     144.26358929,
     -36.72363698
    ]
   },
   "properties": {
    "name": "14 ARBLASTER STREET CALIFORNIA GULLY 3556",
    "locID": "LOC000072884052",
    "tech": "FTTN",
    "upgrade": "FTTP_NA",
    "gnaf_pid": "GAVIC419705815",
    "tech_change_status": "In Design",
    "program_type": "On-Demand N2P SDU/MDU Simple",
    "target_eligibility_quarter": "Jun 2025"
   }
  },
  {
   "type": "Feature",
   "geometry": {
    "type": "Point",
    "coordinates": [
     144.26330817,
     -36.72339422
    ]
   },
   "properties": {
    "name": "23 ARBLASTER STREET CALIFORNIA GULLY 3556",
    "locID": "LOC000063820568",
    "tech": "FTTN",
    "upgrade": "FTTP_NA",
    "gnaf_pid": "GAVIC419705816",
    "tech_change_status": "In Design",
    "program_type": "On-Demand N2P SDU/MDU Simple",
    "target_eligibility_quarter": "Jun 2025"
   }
  },
  {
   "type": "Feature",
   "geometry": {
    "type": "Point",
    "coordinates": [
     144.26788614,
     -36.73133164
    ]
   },
   "properties": {
    "name": "73 GREEN STREET CALIFORNIA GULLY 3556",
    "locID": "LOC000107722489",
    "tech": "FTTN",
    "upgrade": "FTTP_NA",
    "gnaf_pid": "GAVIC419705819",
    "tech_change_status": "In Design",
    "program_type": "On-Demand N2P SDU/MDU Simple",
    "target_eligibility_quarter": "Jun 2025"
   }
  },
  {
   "type": "Feature",
   "geometry": {
    "type": "Point",
    "coordinates": [
     144.2672225,
     -36.731187
    ]
   },
   "properties": {
    "name": "66 GREEN STREET CALIFORNIA GULLY 3556",
    "locID": "LOC000075350971",
    "tech": "FTTN",
    "upgrade": "FTTP_NA",
    "gnaf_pid": "GAVIC419705820",
    "tech_change_status": "In Design",
    "program_type": "On-Demand N2P SDU/MDU Simple",
    "target_eligibility_quarter": "Jun 2025"
   }
  },
  {
   "type": "Feature",
   "geometry": {
    "type": "Point",
    "coordinates": [
     144.26470907,
     -36.72874757
    ]
   },
   "properties": {
    "name": "5 MCCOY STREET CALIFORNIA GULLY 3556",
    "locID": "LOC000032784804",
    "tech": "FTTN",
    "upgrade": "FTTP_NA",
    "gnaf_pid": "GAVIC419705821",
    "tech_change_status": "In Design",
    "program_type": "On-Demand N2P SDU/MDU Simple",
    "target_eligibility_quarter": "Jun 2025"
   }
  },
  {
   "type": "Feature",
   "geometry": {
    "type": "Point",
    "coordinates": [
     144.2639918,
     -36.72903924
    ]
   },
   "properties": {
    "name": "13 LOUDEN STREET CALIFORNIA GULLY 3556",
    "locID": "LOC000057876156",
    "tech": "FTTN",
    "upgrade": "FTTP_NA",
    "gnaf_pid": "GAVIC419705822",
    "tech_change_status": "In Design",
    "program_type": "On-Demand N2P SDU/MDU Simple",
    "target_eligibility_quarter": "Jun 2025"
   }
  },
  {
   "type": "Feature",
   "geometry": {
    "type": "Point",
    "coordinates": [
     144.26546074,
     -36.72468339
    ]
   },
   "properties": {
    "name": "3 MANOOKA COURT CALIFORNIA GULLY 3556",
    "locID": "LOC000013588132",
    "tech": "FTTN",
    "upgrade": "FTTP_NA",
    "gnaf_pid": "GAVIC419706372",
    "tech_change_status": "Committed",
    "program_type": "On-Demand N2P SDU/MDU Simple",
    "target_eligibility_quarter": "Mar 2025"
   }
  },
  {
   "type": "Feature",
   "geometry": {
    "type": "Point",
    "coordinates": [
     144.26584584,
     -36.72482554
    ]
   },
   "properties": {
    "name": "7 MANOOKA COURT CALIFORNIA GULLY 3556",
    "locID": "LOC000067040881",
    "tech": "FTTN",
    "upgrade": "FTTP_NA",
    "gnaf_pid": "GAVIC419706374",
    "tech_change_status": "Committed",
    "program_type": "On-Demand N2P SDU/MDU Simple",
    "target_eligibility_quarter": "Mar 2025"
   }
  },
  {
   "type": "Feature",
   "geometry": {
    "type": "Point",
    "coordinates": [
     144.26805087,
     -36.7254926
    ]
   },
   "properties": {
    "name": "UNIT 1, 2 HUNTER AVENUE CALIFORNIA GULLY 3556",
    "locID": "LOC000076360007",
    "tech": "FTTC",
    "upgrade": "FTTP_NA",
    "gnaf_pid": "GAVIC419706384",
    "tech_change_status": "MDU Complex Eligible To Apply"
   }
  },
  {
   "type": "Feature",
   "geometry": {
    "type": "Point",
    "coordinates": [
     144.25773316,
     -36.72730024
    ]
   },
   "properties": {
    "name": "3 MCKENZIE STREET CALIFORNIA GULLY 3556",
    "locID": "LOC000038746219",
    "tech": "FTTN",
    "upgrade": "FTTP_NA",
    "gnaf_pid": "GAVIC419710515",
    "tech_change_status": "In Design",
    "program_type": "On-Demand N2P SDU/MDU Simple",
    "target_eligibility_quarter": "Jun 2025"
   }
  },
  {
   "type": "Feature",
   "geometry": {
    "type": "Point",
    "coordinates": [
     144.26484436,
     -36.72793608
    ]
   },
   "properties": {
    "name": "22 GREEN STREET CALIFORNIA GULLY 3556",
    "locID": "LOC000091872690",
    "tech": "FTTN",
    "upgrade": "FTTP_NA",
    "gnaf_pid": "GAVIC419710532",
    "tech_change_status": "In Design",
    "program_type": "On-Demand N2P SDU/MDU Simple",
    "target_eligibility_quarter": "Jun 2025"
   }
  },
  {
   "type": "Feature",
   "geometry": {
    "type": "Point",
    "coordinates": [
     144.26740718,
     -36.73066899
    ]
   },
   "properties": {
    "name": "63 GREEN STREET CALIFORNIA GULLY 3556",
    "locID": "LOC000036150144",
    "tech": "FTTN",
    "upgrade": "FTTP_NA",
    "gnaf_pid": "GAVIC419710533",
    "tech_change_status": "In Design",
    "program_type": "On-Demand N2P SDU/MDU Simple",
    "target_eligibility_quarter": "Jun 2025"
   }
  },
  {
   "type": "Feature",
   "geometry": {
    "type": "Point",
    "coordinates": [
     144.26728192,
     -36.73054588
    ]
   },
   "properties": {
    "name": "61 GREEN STREET CALIFORNIA GULLY 3556",
    "locID": "LOC000056346145",
    "tech": "FTTN",
    "upgrade": "FTTP_NA",
    "gnaf_pid": "GAVIC419710534",
    "tech_change_status": "In Design",
    "program_type": "On-Demand N2P SDU/MDU Simple",
    "target_eligibility_quarter": "Jun 2025"
   }
  },
  {
   "type": "Feature",
   "geometry": {
    "type": "Point",
    "coordinates": [
     144.26719059,
     -36.7304171
    ]
   },
   "properties": {
    "name": "59 GREEN STREET CALIFORNIA GULLY 3556",
    "locID": "LOC000021027458",
    "tech": "FTTN",
    "upgrade": "FTTP_NA",
    "gnaf_pid": "GAVIC419710535",
    "tech_change_status": "In Design",
    "program_type": "On-Demand N2P SDU/MDU Simple",
    "target_eligibility_quarter": "Jun 2025"
   }
  },
  {
   "type": "Feature",
   "geometry": {
    "type": "Point",
    "coordinates": [
     144.26112039,
     -36.72604369
    ]
   },
   "properties": {
    "name": "49 BARRELL STREET CALIFORNIA GULLY 3556",
    "locID": "LOC000041378358",
    "tech": "FTTN",
    "upgrade": "FTTP_NA",
    "gnaf_pid": "GAVIC419710539",
    "tech_change_status": "In Design",
    "program_type": "On-Demand N2P SDU/MDU Simple",
    "target_eligibility_quarter": "Jun 2025"
   }
  },
  {
   "type": "Feature",
   "geometry": {
    "type": "Point",
    "coordinates": [
     144.26777045,
     -36.72701306
    ]
   },
   "properties": {
    "name": "9 GILL AVENUE CALIFORNIA GULLY 3556",
    "locID": "LOC000101481379",
    "tech": "FTTC",
    "upgrade": "FTTP_SA",
    "gnaf_pid": "GAVIC419710540",
    "tech_change_status": "Eligible To Order"
   }
  },
  {
   "type": "Feature",
   "geometry": {
    "type": "Point",
    "coordinates": [
     144.26852326,
     -36.72679411
    ]
   },
   "properties": {
    "name": "17 GILL AVENUE CALIFORNIA GULLY 3556",
    "locID": "LOC000041699691",
    "tech": "FTTC",
    "upgrade": "FTTP_SA",
    "gnaf_pid": "GAVIC419710541",
    "tech_change_status": "Eligible To Order"
   }
  },
  {
   "type": "Feature",
   "geometry": {
    "type": "Point",
    "coordinates": [
     144.26873453,
     -36.72673674
    ]
   },
   "properties": {
    "name": "19 GILL AVENUE CALIFORNIA GULLY 3556",
    "locID": "LOC000057960446",
    "tech": "FTTC",
    "upgrade": "FTTP_SA",
    "gnaf_pid": "GAVIC419710542",
    "tech_change_status": "Eligible To Order"
   }
  },
  {
   "type": "Feature",
   "geometry": {
    "type": "Point",
    "coordinates": [
     144.26937006,
     -36.7265303
    ]
   },
   "properties": {
    "name": "25 GILL AVENUE CALIFORNIA GULLY 3556",
    "locID": "LOC000106634606",
    "tech": "FTTC",
    "upgrade": "FTTP_SA",
    "gnaf_pid": "GAVIC419711336",
    "tech_change_status": "Eligible To Order"
   }
  },
  {
   "type": "Feature",
   "geometry": {
    "type": "Point",
    "coordinates": [
     144.27009731,
     -36.72664013
    ]
   },
   "properties": {
    "name": "42 GILL AVENUE CALIFORNIA GULLY 3556",
    "locID": "LOC000036097276",
    "tech": "FTTC",
    "upgrade": "FTTP_SA",
    "gnaf_pid": "GAVIC419711337",
    "tech_change_status": "Eligible To Order"
   }
  },
  {
   "type": "Feature",
   "geometry": {
    "type": "Point",
    "coordinates": [
     144.26769311,
     -36.7273318
    ]
   },
   "properties": {
    "name": "18 GILL AVENUE CALIFORNIA GULLY 3556",
    "locID": "LOC000068332950",
    "tech": "FTTC",
    "upgrade": "FTTP_SA",
    "gnaf_pid": "GAVIC419711338",
    "tech_change_status": "Eligible To Order"
   }
  },
  {
   "type": "Feature",
   "geometry": {
    "type": "Point",
    "coordinates": [
     144.27138461,
     -36.72642894
    ]
   },
   "properties": {
    "name": "54 GILL AVENUE CALIFORNIA GULLY 3556",
    "locID": "LOC000029300007",
    "tech": "FTTC",
    "upgrade": "FTTP_SA",
    "gnaf_pid": "GAVIC419711382",
    "tech_change_status": "Eligible To Order"
   }
  },
  {
   "type": "Feature",
   "geometry": {
    "type": "Point",
    "coordinates": [
     144.27143512,
     -36.72654778
    ]
   },
   "properties": {
    "name": "56 GILL AVENUE CALIFORNIA GULLY 3556",
    "locID": "LOC000096018498",
    "tech": "FTTC",
    "upgrade": "FTTP_SA",
    "gnaf_pid": "GAVIC419711383",
    "tech_change_status": "Eligible To Order"
   }
  },
  {
   "type": "Feature",
   "geometry": {
    "type": "Point",
    "coordinates": [
     144.26974106,
     -36.72625776
    ]
   },
   "properties": {
    "name": "2 MATES STREET CALIFORNIA GULLY 3556",
    "locID": "LOC000014767329",
    "tech": "FTTC",
    "upgrade": "FTTP",
    "gnaf_pid": "GAVIC419711384",
    "tech_change_status": "New Tech Connected"
   }
  },
  {
   "type": "Feature",
   "geometry": {
    "type": "Point",
    "coordinates": [
     144.27062303,
     -36.72619434
    ]
   },
   "properties": {
    "name": "33 GILL AVENUE CALIFORNIA GULLY 3556",
    "locID": "LOC000071639257",
    "tech": "FTTC",
    "upgrade": "FTTP_SA",
    "gnaf_pid": "GAVIC419711385",
    "tech_change_status": "Eligible To Order"
   }
  },
  {
   "type": "Feature",
   "geometry": {
    "type": "Point",
    "coordinates": [
     144.26424612,
     -36.72361175
    ]
   },
   "properties": {
    "name": "27 CHAPPLE STREET CALIFORNIA GULLY 3556",
    "locID": "LOC000089640884",
    "tech": "FTTN",
    "upgrade": "FTTP_NA",
    "gnaf_pid": "GAVIC419712249",
    "tech_change_status": "Committed",
    "program_type": "On-Demand N2P SDU/MDU Simple",
    "target_eligibility_quarter": "Mar 2025"
   }
  },
  {
   "type": "Feature",
   "geometry": {
    "type": "Point",
    "coordinates": [
     144.26530902,
     -36.72373882
    ]
   },
   "properties": {
    "name": "17 WATTLE VIEW GROVE CALIFORNIA GULLY 3556",
    "locID": "LOC000077184660",
    "tech": "FTTN",
    "upgrade": "FTTP_NA",
    "gnaf_pid": "GAVIC419712250",
    "tech_change_status": "Committed",
    "program_type": "On-Demand N2P SDU/MDU Simple",
    "target_eligibility_quarter": "Mar 2025"
   }
  },
  {
   "type": "Feature",
   "geometry": {
    "type": "Point",
    "coordinates": [
     144.27704765,
     -36.72603716
    ]
   },
   "properties": {
    "name": "28 WINGOON DRIVE CALIFORNIA GULLY 3556",
    "locID": "LOC000018706649",
    "tech": "FTTN",
    "upgrade": "FTTP_NA",
    "gnaf_pid": "GAVIC419712333",
    "tech_change_status": "Committed",
    "program_type": "On-Demand N2P SDU/MDU Simple",
    "target_eligibility_quarter": "Mar 2025"
   }
  },
  {
   "type": "Feature",
   "geometry": {
    "type": "Point",
    "coordinates": [
     144.27876946,
     -36.72535226
    ]
   },
   "properties": {
    "name": "19 WINGOON DRIVE CALIFORNIA GULLY 3556",
    "locID": "LOC000041217328",
    "tech": "FTTN",
    "upgrade": "FTTP_NA",
    "gnaf_pid": "GAVIC419712334",
    "tech_change_status": "Committed",
    "program_type": "On-Demand N2P SDU/MDU Simple",
    "target_eligibility_quarter": "Mar 2025"
   }
  },
  {
   "type": "Feature",
   "geometry": {
    "type": "Point",
    "coordinates": [
     144.26605335,
     -36.73044204
    ]
   },
   "properties": {
    "name": "9 PEARCE STREET CALIFORNIA GULLY 3556",
    "locID": "LOC000018551112",
    "tech": "FTTN",
    "upgrade": "FTTP_NA",
    "gnaf_pid": "GAVIC419712338",
    "tech_change_status": "In Design",
    "program_type": "On-Demand N2P SDU/MDU Simple",
    "target_eligibility_quarter": "Jun 2025"
   }
  },
  {
   "type": "Feature",
   "geometry": {
    "type": "Point",
    "coordinates": [
     144.26439354,
     -36.72617315
    ]
   },
   "properties": {
    "name": "2 SHEPPERBOTTOM STREET CALIFORNIA GULLY 3556",
    "locID": "LOC000074225663",
    "tech": "FTTN",
    "upgrade": "FTTP_NA",
    "gnaf_pid": "GAVIC419712417",
    "tech_change_status": "In Design",
    "program_type": "On-Demand N2P SDU/MDU Simple",
    "target_eligibility_quarter": "Jun 2025"
   }
  },
  {
   "type": "Feature",
   "geometry": {
    "type": "Point",
    "coordinates": [
     144.26298849,
     -36.72501158
    ]
   },
   "properties": {
    "name": "9A GREEN STREET CALIFORNIA GULLY 3556",
    "locID": "LOC000105874294",
    "tech": "FTTN",
    "upgrade": "FTTP_NA",
    "gnaf_pid": "GAVIC419714456",
    "tech_change_status": "In Design",
    "program_type": "On-Demand N2P SDU/MDU Simple",
    "target_eligibility_quarter": "Jun 2025"
   }
  },
  {
   "type": "Feature",
   "geometry": {
    "type": "Point",
    "coordinates": [
     144.26287711,
     -36.72488463
    ]
   },
   "properties": {
    "name": "9 GREEN STREET CALIFORNIA GULLY 3556",
    "locID": "LOC000105771510",
    "tech": "FTTN",
    "upgrade": "FTTP_NA",
    "gnaf_pid": "GAVIC419714457",
    "tech_change_status": "In Design",
    "program_type": "On-Demand N2P SDU/MDU Simple",
    "target_eligibility_quarter": "Jun 2025"
   }
  },
  {
   "type": "Feature",
   "geometry": {
    "type": "Point",
    "coordinates": [
     144.26103426,
     -36.72493046
    ]
   },
   "properties": {
    "name": "37 BARRELL STREET CALIFORNIA GULLY 3556",
    "locID": "LOC000073808367",
    "tech": "FTTN",
    "upgrade": "FTTP_NA",
    "gnaf_pid": "GAVIC419714459",
    "tech_change_status": "In Design",
    "program_type": "On-Demand N2P SDU/MDU Simple",
    "target_eligibility_quarter": "Jun 2025"
   }
  },
  {
   "type": "Feature",
   "geometry": {
    "type": "Point",
    "coordinates": [
     144.27156091,
     -36.72607477
    ]
   },
   "properties": {
    "name": "45 GILL AVENUE CALIFORNIA GULLY 3556",
    "locID": "LOC000010187468",
    "tech": "FTTC",
    "upgrade": "FTTP_SA",
    "gnaf_pid": "GAVIC419714460",
    "tech_change_status": "Eligible To Order"
   }
  },
  {
   "type": "Feature",
   "geometry": {
    "type": "Point",
    "coordinates": [
     144.27087583,
     -36.72554113
    ]
   },
   "properties": {
    "name": "92 NELSON STREET CALIFORNIA GULLY 3556",
    "locID": "LOC000103289829",
    "tech": "FTTC",
    "upgrade": "FTTP_SA",
    "gnaf_pid": "GAVIC419714461",
    "tech_change_status": "Eligible To Order"
   }
  },
  {
   "type": "Feature",
   "geometry": {
    "type": "Point",
    "coordinates": [
     144.26751008,
     -36.72524924
    ]
   },
   "properties": {
    "name": "5 HUNTER AVENUE CALIFORNIA GULLY 3556",
    "locID": "LOC000014427362",
    "tech": "FTTC",
    "upgrade": "FTTP_SA",
    "gnaf_pid": "GAVIC419715091",
    "tech_change_status": "Eligible To Order"
   }
  },
  {
   "type": "Feature",
   "geometry": {
    "type": "Point",
    "coordinates": [
     144.2693125,
     -36.72565523
    ]
   },
   "properties": {
    "name": "67 NELSON STREET CALIFORNIA GULLY 3556",
    "locID": "LOC000005304737",
    "tech": "FTTC",
    "upgrade": "FTTP_SA",
    "gnaf_pid": "GAVIC419715092",
    "tech_change_status": "Eligible To Order"
   }
  },
  {
   "type": "Feature",
   "geometry": {
    "type": "Point",
    "coordinates": [
     144.26850749,
     -36.72527664
    ]
   },
   "properties": {
    "name": "1 FRANK COURT CALIFORNIA GULLY 3556",
    "locID": "LOC000089727440",
    "tech": "FTTC",
    "upgrade": "FTTP_SA",
    "gnaf_pid": "GAVIC419715093",
    "tech_change_status": "Eligible To Order"
   }
  },
  {
   "type": "Feature",
   "geometry": {
    "type": "Point",
    "coordinates": [
     144.26828985,
     -36.72557091
    ]
   },
   "properties": {
    "name": "1 HUNTER AVENUE CALIFORNIA GULLY 3556",
    "locID": "LOC000050623362",
    "tech": "FTTC",
    "upgrade": "FTTP_SA",
    "gnaf_pid": "GAVIC419715094",
    "tech_change_status": "Eligible To Order"
   }
  },
  {
   "type": "Feature",
   "geometry": {
    "type": "Point",
    "coordinates": [
     144.26683105,
     -36.72335904
    ]
   },
   "properties": {
    "name": "48 BRIGHT STREET CALIFORNIA GULLY 3556",
    "locID": "LOC000080817263",
    "tech": "FTTN",
    "upgrade": "FTTP_NA",
    "gnaf_pid": "GAVIC419715097",
    "tech_change_status": "Committed",
    "program_type": "On-Demand N2P SDU/MDU Simple",
    "target_eligibility_quarter": "Dec 2025"
   }
  },
  {
   "type": "Feature",
   "geometry": {
    "type": "Point",
    "coordinates": [
     144.25329434,
     -36.72671701
    ]
   },
   "properties": {
    "name": "1 FIRTH STREET CALIFORNIA GULLY 3556",
    "locID": "LOC000013485838",
    "tech": "FTTC",
    "upgrade": "FTTP_SA",
    "gnaf_pid": "GAVIC419715098",
    "tech_change_status": "Eligible To Order"
   }
  },
  {
   "type": "Feature",
   "geometry": {
    "type": "Point",
    "coordinates": [
     144.2534342,
     -36.72658589
    ]
   },
   "properties": {
    "name": "3 FIRTH STREET CALIFORNIA GULLY 3556",
    "locID": "LOC000081037913",
    "tech": "FTTC",
    "upgrade": "FTTP_SA",
    "gnaf_pid": "GAVIC419715099",
    "tech_change_status": "Eligible To Order"
   }
  },
  {
   "type": "Feature",
   "geometry": {
    "type": "Point",
    "coordinates": [
     144.25473519,
     -36.72636452
    ]
   },
   "properties": {
    "name": "15 FIRTH STREET CALIFORNIA GULLY 3556",
    "locID": "LOC000079464558",
    "tech": "FTTC",
    "upgrade": "FTTP_SA",
    "gnaf_pid": "GAVIC419715100",
    "tech_change_status": "Eligible To Order"
   }
  },
  {
   "type": "Feature",
   "geometry": {
    "type": "Point",
    "coordinates": [
     144.25674452,
     -36.72637333
    ]
   },
   "properties": {
    "name": "1 ALLIANCE AVENUE CALIFORNIA GULLY 3556",
    "locID": "LOC000107764212",
    "tech": "FTTP",
    "upgrade": "NULL_NA",
    "gnaf_pid": "GAVIC419715101"
   }
  },
  {
   "type": "Feature",
   "geometry": {
    "type": "Point",
    "coordinates": [
     144.25597239,
     -36.72584638
    ]
   },
   "properties": {
    "name": "17-35 POPLAR STREET CALIFORNIA GULLY 3556",
    "locID": "LOC000046064397",
    "tech": "FTTP",
    "upgrade": "NULL_NA",
    "gnaf_pid": "GAVIC419715103"
   }
  },
  {
   "type": "Feature",
   "geometry": {
    "type": "Point",
    "coordinates": [
     144.2586982,
     -36.73400455
    ]
   },
   "properties": {
    "name": "4 RULE STREET CALIFORNIA GULLY 3556",
    "locID": "LOC000096645014",
    "tech": "FTTC",
    "upgrade": "FTTP_SA",
    "gnaf_pid": "GAVIC419715177",
    "tech_change_status": "Eligible To Order"
   }
  },
  {
   "type": "Feature",
   "geometry": {
    "type": "Point",
    "coordinates": [
     144.26475662,
     -36.7300798
    ]
   },
   "properties": {
    "name": "UNIT 2, 19A LOUDEN STREET CALIFORNIA GULLY 3556",
    "locID": "LOC000042605117",
    "tech": "FTTN",
    "upgrade": "FTTP_NA",
    "gnaf_pid": "GAVIC419716304",
    "tech_change_status": "In Design",
    "program_type": "On-Demand N2P SDU/MDU Simple",
    "target_eligibility_quarter": "Jun 2025"
   }
  },
  {
   "type": "Feature",
   "geometry": {
    "type": "Point",
    "coordinates": [
     144.27326815,
     -36.72614185
    ]
   },
   "properties": {
    "name": "63 GILL AVENUE CALIFORNIA GULLY 3556",
    "locID": "LOC000039684268",
    "tech": "FTTN",
    "upgrade": "FTTP_NA",
    "gnaf_pid": "GAVIC419716794",
    "tech_change_status": "Committed",
    "program_type": "On-Demand N2P SDU/MDU Simple",
    "target_eligibility_quarter": "Dec 2025"
   }
  },
  {
   "type": "Feature",
   "geometry": {
    "type": "Point",
    "coordinates": [
     144.27481891,
     -36.72567604
    ]
   },
   "properties": {
    "name": "4 EVANS STREET CALIFORNIA GULLY 3556",
    "locID": "LOC000081375049",
    "tech": "FTTN",
    "upgrade": "FTTP_NA",
    "gnaf_pid": "GAVIC419716795",
    "tech_change_status": "Committed",
    "program_type": "On-Demand N2P SDU/MDU Simple",
    "target_eligibility_quarter": "Mar 2025"
   }
  },
  {
   "type": "Feature",
   "geometry": {
    "type": "Point",
    "coordinates": [
     144.27444159,
     -36.72530018
    ]
   },
   "properties": {
    "name": "112 BRIGHT STREET CALIFORNIA GULLY 3556",
    "locID": "LOC000050648942",
    "tech": "FTTC",
    "upgrade": "FTTP_SA",
    "gnaf_pid": "GAVIC419716796",
    "tech_change_status": "Eligible To Order"
   }
  },
  {
   "type": "Feature",
   "geometry": {
    "type": "Point",
    "coordinates": [
     144.27178222,
     -36.72640126
    ]
   },
   "properties": {
    "name": "49 GILL AVENUE CALIFORNIA GULLY 3556",
    "locID": "LOC000070898566",
    "tech": "FTTC",
    "upgrade": "FTTP_SA",
    "gnaf_pid": "GAVIC419716797",
    "tech_change_status": "Eligible To Order"
   }
  },
  {
   "type": "Feature",
   "geometry": {
    "type": "Point",
    "coordinates": [
     144.27255563,
     -36.72626795
    ]
   },
   "properties": {
    "name": "57 GILL AVENUE CALIFORNIA GULLY 3556",
    "locID": "LOC000061621207",
    "tech": "FTTC",
    "upgrade": "FTTP_SA",
    "gnaf_pid": "GAVIC419716798",
    "tech_change_status": "Eligible To Order"
   }
  },
  {
   "type": "Feature",
   "geometry": {
    "type": "Point",
    "coordinates": [
     144.26514834,
     -36.72295674
    ]
   },
   "properties": {
    "name": "24 ARBLASTER STREET CALIFORNIA GULLY 3556",
    "locID": "LOC000092110211",
    "tech": "FTTN",
    "upgrade": "FTTP_NA",
    "gnaf_pid": "GAVIC419717686",
    "tech_change_status": "Committed",
    "program_type": "On-Demand N2P SDU/MDU Simple",
    "target_eligibility_quarter": "Mar 2025"
   }
  },
  {
   "type": "Feature",
   "geometry": {
    "type": "Point",
    "coordinates": [
     144.26725472,
     -36.7231904
    ]
   },
   "properties": {
    "name": "37 BRIGHT STREET CALIFORNIA GULLY 3556",
    "locID": "LOC000077090170",
    "tech": "FTTN",
    "upgrade": "FTTP_NA",
    "gnaf_pid": "GAVIC419717687",
    "tech_change_status": "Committed",
    "program_type": "On-Demand N2P SDU/MDU Simple",
    "target_eligibility_quarter": "Dec 2025"
   }
  },
  {
   "type": "Feature",
   "geometry": {
    "type": "Point",
    "coordinates": [
     144.26747527,
     -36.72209294
    ]
   },
   "properties": {
    "name": "14 OSWALD STREET CALIFORNIA GULLY 3556",
    "locID": "LOC000019599223",
    "tech": "FTTN",
    "upgrade": "FTTP_NA",
    "gnaf_pid": "GAVIC419717688",
    "tech_change_status": "Committed",
    "program_type": "On-Demand N2P SDU/MDU Simple",
    "target_eligibility_quarter": "Dec 2025"
   }
  },
  {
   "type": "Feature",
   "geometry": {
    "type": "Point",
    "coordinates": [
     144.26629682,
     -36.7219892
    ]
   },
   "properties": {
    "name": "5 ROY COURT CALIFORNIA GULLY 3556",
    "locID": "LOC000039423283",
    "tech": "FTTN",
    "upgrade": "FTTP_NA",
    "gnaf_pid": "GAVIC419717690",
    "tech_change_status": "Committed",
    "program_type": "On-Demand N2P SDU/MDU Simple",
    "target_eligibility_quarter": "Dec 2025"
   }
  },
  {
   "type": "Feature",
   "geometry": {
    "type": "Point",
    "coordinates": [
     144.26650999,
     -36.7223329
    ]
   },
   "properties": {
    "name": "2 ROY COURT CALIFORNIA GULLY 3556",
    "locID": "LOC000067026443",
    "tech": "FTTN",
    "upgrade": "FTTP_NA",
    "gnaf_pid": "GAVIC419717691",
    "tech_change_status": "Committed",
    "program_type": "On-Demand N2P SDU/MDU Simple",
    "target_eligibility_quarter": "Dec 2025"
   }
  },
  {
   "type": "Feature",
   "geometry": {
    "type": "Point",
    "coordinates": [
     144.26598702,
     -36.72265353
    ]
   },
   "properties": {
    "name": "29 BRIGHT STREET CALIFORNIA GULLY 3556",
    "locID": "LOC000042532731",
    "tech": "FTTN",
    "upgrade": "FTTP_NA",
    "gnaf_pid": "GAVIC419717692",
    "tech_change_status": "Committed",
    "program_type": "On-Demand N2P SDU/MDU Simple",
    "target_eligibility_quarter": "Mar 2025"
   }
  },
  {
   "type": "Feature",
   "geometry": {
    "type": "Point",
    "coordinates": [
     144.26748208,
     -36.72418189
    ]
   },
   "properties": {
    "name": "3 COLLINS COURT CALIFORNIA GULLY 3556",
    "locID": "LOC000074058813",
    "tech": "FTTN",
    "upgrade": "FTTP_NA",
    "gnaf_pid": "GAVIC419717693",
    "tech_change_status": "Committed",
    "program_type": "On-Demand N2P SDU/MDU Simple",
    "target_eligibility_quarter": "Dec 2025"
   }
  },
  {
   "type": "Feature",
   "geometry": {
    "type": "Point",
    "coordinates": [
     144.26861658,
     -36.72307396
    ]
   },
   "properties": {
    "name": "6 DAVIES COURT CALIFORNIA GULLY 3556",
    "locID": "LOC000106858082",
    "tech": "FTTN",
    "upgrade": "FTTP_NA",
    "gnaf_pid": "GAVIC419717694",
    "tech_change_status": "Committed",
    "program_type": "On-Demand N2P SDU/MDU Simple",
    "target_eligibility_quarter": "Dec 2025"
   }
  },
  {
   "type": "Feature",
   "geometry": {
    "type": "Point",
    "coordinates": [
     144.26826235,
     -36.72253885
    ]
   },
   "properties": {
    "name": "1 MEGGS COURT CALIFORNIA GULLY 3556",
    "locID": "LOC000072960674",
    "tech": "FTTN",
    "upgrade": "FTTP_NA",
    "gnaf_pid": "GAVIC419717695",
    "tech_change_status": "Committed",
    "program_type": "On-Demand N2P SDU/MDU Simple",
    "target_eligibility_quarter": "Dec 2025"
   }
  },
  {
   "type": "Feature",
   "geometry": {
    "type": "Point",
    "coordinates": [
     144.26906095,
     -36.72435257
    ]
   },
   "properties": {
    "name": "64 BRIGHT STREET CALIFORNIA GULLY 3556",
    "locID": "LOC000075181257",
    "tech": "FTTN",
    "upgrade": "FTTP_NA",
    "gnaf_pid": "GAVIC419717696",
    "tech_change_status": "Committed",
    "program_type": "On-Demand N2P SDU/MDU Simple",
    "target_eligibility_quarter": "Dec 2025"
   }
  },
  {
   "type": "Feature",
   "geometry": {
    "type": "Point",
    "coordinates": [
     144.26977595,
     -36.72313007
    ]
   },
   "properties": {
    "name": "14 TRUSCOTT AVENUE CALIFORNIA GULLY 3556",
    "locID": "LOC000031058341",
    "tech": "FTTN",
    "upgrade": "FTTP_NA",
    "gnaf_pid": "GAVIC419717697",
    "tech_change_status": "Committed",
    "program_type": "On-Demand N2P SDU/MDU Simple",
    "target_eligibility_quarter": "Dec 2025"
   }
  },
  {
   "type": "Feature",
   "geometry": {
    "type": "Point",
    "coordinates": [
     144.26993739,
     -36.72319342
    ]
   },
   "properties": {
    "name": "16 TRUSCOTT AVENUE CALIFORNIA GULLY 3556",
    "locID": "LOC000046630949",
    "tech": "FTTN",
    "upgrade": "FTTP_NA",
    "gnaf_pid": "GAVIC419717698",
    "tech_change_status": "Committed",
    "program_type": "On-Demand N2P SDU/MDU Simple",
    "target_eligibility_quarter": "Dec 2025"
   }
  },
  {
   "type": "Feature",
   "geometry": {
    "type": "Point",
    "coordinates": [
     144.27026517,
     -36.72333208
    ]
   },
   "properties": {
    "name": "20 TRUSCOTT AVENUE CALIFORNIA GULLY 3556",
    "locID": "LOC000058440302",
    "tech": "FTTN",
    "upgrade": "FTTP_NA",
    "gnaf_pid": "GAVIC419717699",
    "tech_change_status": "Committed",
    "program_type": "On-Demand N2P SDU/MDU Simple",
    "target_eligibility_quarter": "Dec 2025"
   }
  },
  {
   "type": "Feature",
   "geometry": {
    "type": "Point",
    "coordinates": [
     144.26930575,
     -36.72400834
    ]
   },
   "properties": {
    "name": "1 BURCH COURT CALIFORNIA GULLY 3556",
    "locID": "LOC000045948395",
    "tech": "FTTN",
    "upgrade": "FTTP_NA",
    "gnaf_pid": "GAVIC419717701",
    "tech_change_status": "Committed",
    "program_type": "On-Demand N2P SDU/MDU Simple",
    "target_eligibility_quarter": "Dec 2025"
   }
  },
  {
   "type": "Feature",
   "geometry": {
    "type": "Point",
    "coordinates": [
     144.26032608,
     -36.73459882
    ]
   },
   "properties": {
    "name": "7 WEATHERALL STREET CALIFORNIA GULLY 3556",
    "locID": "LOC000107389183",
    "tech": "FTTC",
    "upgrade": "FTTP_SA",
    "gnaf_pid": "GAVIC419723397",
    "tech_change_status": "Eligible To Order"
   }
  },
  {
   "type": "Feature",
   "geometry": {
    "type": "Point",
    "coordinates": [
     144.26129593,
     -36.7333855
    ]
   },
   "properties": {
    "name": "66 WOOD STREET CALIFORNIA GULLY 3556",
    "locID": "LOC000080467614",
    "tech": "FTTC",
    "upgrade": "FTTP_SA",
    "gnaf_pid": "GAVIC419725228",
    "tech_change_status": "Eligible To Order"
   }
  },
  {
   "type": "Feature",
   "geometry": {
    "type": "Point",
    "coordinates": [
     144.25628098,
     -36.73205955
    ]
   },
   "properties": {
    "name": "UNIT 1, 10 ESLER STREET CALIFORNIA GULLY 3556",
    "locID": "LOC000103012733",
    "tech": "FTTN",
    "upgrade": "FTTP_NA",
    "gnaf_pid": "GAVIC419726065",
    "tech_change_status": "In Design",
    "program_type": "On-Demand N2P SDU/MDU Simple",
    "target_eligibility_quarter": "Jun 2025"
   }
  },
  {
   "type": "Feature",
   "geometry": {
    "type": "Point",
    "coordinates": [
     144.26469921,
     -36.72905901
    ]
   },
   "properties": {
    "name": "6 MCCOY STREET CALIFORNIA GULLY 3556",
    "locID": "LOC000020181338",
    "tech": "FTTN",
    "upgrade": "FTTP_NA",
    "gnaf_pid": "GAVIC419726066",
    "tech_change_status": "In Design",
    "program_type": "On-Demand N2P SDU/MDU Simple",
    "target_eligibility_quarter": "Jun 2025"
   }
  },
  {
   "type": "Feature",
   "geometry": {
    "type": "Point",
    "coordinates": [
     144.25455705,
     -36.73254471
    ]
   },
   "properties": {
    "name": "8 THOMAS STREET CALIFORNIA GULLY 3556",
    "locID": "LOC000048350592",
    "tech": "FTTN",
    "upgrade": "FTTP_NA",
    "gnaf_pid": "GAVIC419727829",
    "tech_change_status": "In Design",
    "program_type": "On-Demand N2P SDU/MDU Simple",
    "target_eligibility_quarter": "Jun 2025"
   }
  },
  {
   "type": "Feature",
   "geometry": {
    "type": "Point",
    "coordinates": [
     144.25299886,
     -36.7365845
    ]
   },
   "properties": {
    "name": "14 TAYLOR STREET CALIFORNIA GULLY 3556",
    "locID": "LOC000108057633",
    "tech": "FTTN",
    "upgrade": "FTTP_NA",
    "gnaf_pid": "GAVIC419730489",
    "tech_change_status": "In Design",
    "program_type": "On-Demand N2P SDU/MDU Simple",
    "target_eligibility_quarter": "Jun 2025"
   }
  },
  {
   "type": "Feature",
   "geometry": {
    "type": "Point",
    "coordinates": [
     144.2651777,
     -36.7233806
    ]
   },
   "properties": {
    "name": "UNIT 2, 1 WATTLE VIEW GROVE CALIFORNIA GULLY 3556",
    "locID": "LOC000083140287",
    "tech": "FTTN",
    "upgrade": "FTTP_NA",
    "gnaf_pid": "GAVIC419732367",
    "tech_change_status": "Committed",
    "program_type": "On-Demand N2P SDU/MDU Simple",
    "target_eligibility_quarter": "Mar 2025"
   }
  },
  {
   "type": "Feature",
   "geometry": {
    "type": "Point",
    "coordinates": [
     144.26041949,
     -36.72454959
    ]
   },
   "properties": {
    "name": "UNIT 1, 34 BARRELL STREET CALIFORNIA GULLY 3556",
    "locID": "LOC000086643604",
    "tech": "FTTN",
    "upgrade": "FTTP_NA",
    "gnaf_pid": "GAVIC419747014",
    "tech_change_status": "In Design",
    "program_type": "Customer-initiated N2P MDU Complex",
    "target_eligibility_quarter": "Jun 2025"
   }
  },
  {
   "type": "Feature",
   "geometry": {
    "type": "Point",
    "coordinates": [
     144.26023685,
     -36.72456258
    ]
   },
   "properties": {
    "name": "UNIT 2, 34 BARRELL STREET CALIFORNIA GULLY 3556",
    "locID": "LOC000086377671",
    "tech": "FTTN",
    "upgrade": "FTTP_NA",
    "gnaf_pid": "GAVIC419747015",
    "tech_change_status": "In Design",
    "program_type": "Customer-initiated N2P MDU Complex",
    "target_eligibility_quarter": "Jun 2025"
   }
  },
  {
   "type": "Feature",
   "geometry": {
    "type": "Point",
    "coordinates": [
     144.25538311,
     -36.72726085
    ]
   },
   "properties": {
    "name": "14 ALLIANCE AVENUE CALIFORNIA GULLY 3556",
    "locID": "LOC000008022636",
    "tech": "FTTC",
    "upgrade": "FTTP_SA",
    "gnaf_pid": "GAVIC419750638",
    "tech_change_status": "Eligible To Order"
   }
  },
  {
   "type": "Feature",
   "geometry": {
    "type": "Point",
    "coordinates": [
     144.25997449,
     -36.72468173
    ]
   },
   "properties": {
    "name": "8 MIMOSA STREET CALIFORNIA GULLY 3556",
    "locID": "LOC000095105632",
    "tech": "FTTN",
    "upgrade": "FTTP_NA",
    "gnaf_pid": "GAVIC419755819",
    "tech_change_status": "In Design",
    "program_type": "Customer-initiated N2P MDU Complex",
    "target_eligibility_quarter": "Jun 2025"
   }
  },
  {
   "type": "Feature",
   "geometry": {
    "type": "Point",
    "coordinates": [
     144.26099691,
     -36.72452132
    ]
   },
   "properties": {
    "name": "31 BARRELL STREET CALIFORNIA GULLY 3556",
    "locID": "LOC000070547509",
    "tech": "FTTN",
    "upgrade": "FTTP_NA",
    "gnaf_pid": "GAVIC419763506",
    "tech_change_status": "In Design",
    "program_type": "On-Demand N2P SDU/MDU Simple",
    "target_eligibility_quarter": "Jun 2025"
   }
  },
  {
   "type": "Feature",
   "geometry": {
    "type": "Point",
    "coordinates": [
     144.26664229,
     -36.72774454
    ]
   },
   "properties": {
    "name": "8 GILL AVENUE CALIFORNIA GULLY 3556",
    "locID": "LOC000173357650",
    "tech": "FTTC",
    "upgrade": "FTTP_NA",
    "gnaf_pid": "GAVIC419789415",
    "tech_change_status": "MDU Complex Eligible To Apply"
   }
  },
  {
   "type": "Feature",
   "geometry": {
    "type": "Point",
    "coordinates": [
     144.266196,
     -36.72726065
    ]
   },
   "properties": {
    "name": "44 NELSON STREET CALIFORNIA GULLY 3556",
    "locID": "LOC000052704574",
    "tech": "FTTN",
    "upgrade": "FTTP_NA",
    "gnaf_pid": "GAVIC419789416",
    "tech_change_status": "In Design",
    "program_type": "Customer-initiated N2P MDU Complex",
    "target_eligibility_quarter": "Jun 2025"
   }
  },
  {
   "type": "Feature",
   "geometry": {
    "type": "Point",
    "coordinates": [
     144.25169688,
     -36.7300606
    ]
   },
   "properties": {
    "name": "24 TURNER STREET CALIFORNIA GULLY 3556",
    "locID": "LOC000012997113",
    "tech": "FTTN",
    "upgrade": "FTTP_NA",
    "gnaf_pid": "GAVIC419791255",
    "tech_change_status": "In Design",
    "program_type": "On-Demand N2P SDU/MDU Simple",
    "target_eligibility_quarter": "Jun 2025"
   }
  },
  {
   "type": "Feature",
   "geometry": {
    "type": "Point",
    "coordinates": [
     144.266603,
     -36.72758
    ]
   },
   "properties": {
    "name": "6 GILL AVENUE CALIFORNIA GULLY 3556",
    "locID": "LOC000102340237",
    "tech": "FTTC",
    "upgrade": "FTTP_NA",
    "gnaf_pid": "GAVIC419791408",
    "tech_change_status": "MDU Complex Eligible To Apply"
   }
  },
  {
   "type": "Feature",
   "geometry": {
    "type": "Point",
    "coordinates": [
     144.2501868,
     -36.72867395
    ]
   },
   "properties": {
    "name": "28A BROWN STREET CALIFORNIA GULLY 3556",
    "locID": "LOC000037765403",
    "tech": "FTTC",
    "upgrade": "FTTP_SA",
    "gnaf_pid": "GAVIC419793831",
    "tech_change_status": "Eligible To Order"
   }
  },
  {
   "type": "Feature",
   "geometry": {
    "type": "Point",
    "coordinates": [
     144.25990456,
     -36.72692925
    ]
   },
   "properties": {
    "name": "115 WOOD STREET CALIFORNIA GULLY 3556",
    "locID": "LOC000020570211",
    "tech": "FTTN",
    "upgrade": "FTTP_NA",
    "gnaf_pid": "GAVIC419799496",
    "tech_change_status": "In Design",
    "program_type": "Customer-initiated N2P MDU Complex",
    "target_eligibility_quarter": "Jun 2025"
   }
  },
  {
   "type": "Feature",
   "geometry": {
    "type": "Point",
    "coordinates": [
     144.25201508,
     -36.72909615
    ]
   },
   "properties": {
    "name": "18 TURNER STREET CALIFORNIA GULLY 3556",
    "locID": "LOC000124841607",
    "tech": "FTTN",
    "upgrade": "FTTP_NA",
    "gnaf_pid": "GAVIC419827243",
    "tech_change_status": "In Design",
    "program_type": "On-Demand N2P SDU/MDU Simple",
    "target_eligibility_quarter": "Jun 2025"
   }
  },
  {
   "type": "Feature",
   "geometry": {
    "type": "Point",
    "coordinates": [
     144.25007136,
     -36.72847808
    ]
   },
   "properties": {
    "name": "16 BROWN STREET CALIFORNIA GULLY 3556",
    "locID": "LOC000051300547",
    "tech": "FTTC",
    "upgrade": "FTTP_SA",
    "gnaf_pid": "GAVIC419828930",
    "tech_change_status": "Eligible To Order"
   }
  },
  {
   "type": "Feature",
   "geometry": {
    "type": "Point",
    "coordinates": [
     144.26360045,
     -36.72460303
    ]
   },
   "properties": {
    "name": "42 CHAPPLE STREET CALIFORNIA GULLY 3556",
    "locID": "LOC000037588560",
    "tech": "FTTN",
    "upgrade": "FTTP_NA",
    "gnaf_pid": "GAVIC419829159",
    "tech_change_status": "In Design",
    "program_type": "On-Demand N2P SDU/MDU Simple",
    "target_eligibility_quarter": "Dec 2025"
   }
  },
  {
   "type": "Feature",
   "geometry": {
    "type": "Point",
    "coordinates": [
     144.26217672,
     -36.73201892
    ]
   },
   "properties": {
    "name": "7 SMALLEY STREET CALIFORNIA GULLY 3556",
    "locID": "LOC000062363465",
    "tech": "FTTC",
    "upgrade": "FTTP_SA",
    "gnaf_pid": "GAVIC419950531",
    "tech_change_status": "Eligible To Order"
   }
  },
  {
   "type": "Feature",
   "geometry": {
    "type": "Point",
    "coordinates": [
     144.26064684,
     -36.7322342
    ]
   },
   "properties": {
    "name": "71 WOOD STREET CALIFORNIA GULLY 3556",
    "locID": "LOC000089063133",
    "tech": "FTTC",
    "upgrade": "FTTP_SA",
    "gnaf_pid": "GAVIC419950532",
    "tech_change_status": "Eligible To Order"
   }
  },
  {
   "type": "Feature",
   "geometry": {
    "type": "Point",
    "coordinates": [
     144.26147369,
     -36.7330114
    ]
   },
   "properties": {
    "name": "23 DOWDING STREET CALIFORNIA GULLY 3556",
    "locID": "LOC000045838687",
    "tech": "FTTC",
    "upgrade": "FTTP_SA",
    "gnaf_pid": "GAVIC419950533",
    "tech_change_status": "Eligible To Order"
   }
  },
  {
   "type": "Feature",
   "geometry": {
    "type": "Point",
    "coordinates": [
     144.25682283,
     -36.72960656
    ]
   },
   "properties": {
    "name": "9 THORPE STREET CALIFORNIA GULLY 3556",
    "locID": "LOC000001948230",
    "tech": "FTTC",
    "upgrade": "FTTP_SA",
    "gnaf_pid": "GAVIC419952310",
    "tech_change_status": "Eligible To Order"
   }
  },
  {
   "type": "Feature",
   "geometry": {
    "type": "Point",
    "coordinates": [
     144.2564312,
     -36.7300281
    ]
   },
   "properties": {
    "name": "16 MURDOCK STREET CALIFORNIA GULLY 3556",
    "locID": "LOC000021005411",
    "tech": "FTTC",
    "upgrade": "FTTP_SA",
    "gnaf_pid": "GAVIC419952311",
    "tech_change_status": "Eligible To Order"
   }
  },
  {
   "type": "Feature",
   "geometry": {
    "type": "Point",
    "coordinates": [
     144.26247983,
     -36.73340743
    ]
   },
   "properties": {
    "name": "13 SMALLEY STREET CALIFORNIA GULLY 3556",
    "locID": "LOC000038862291",
    "tech": "FTTC",
    "upgrade": "FTTP_SA",
    "gnaf_pid": "GAVIC419954035",
    "tech_change_status": "Eligible To Order"
   }
  },
  {
   "type": "Feature",
   "geometry": {
    "type": "Point",
    "coordinates": [
     144.26310117,
     -36.73346951
    ]
   },
   "properties": {
    "name": "9 MANNING AVENUE CALIFORNIA GULLY 3556",
    "locID": "LOC000034534428",
    "tech": "FTTC",
    "upgrade": "FTTP_SA",
    "gnaf_pid": "GAVIC419954036",
    "tech_change_status": "Eligible To Order"
   }
  },
  {
   "type": "Feature",
   "geometry": {
    "type": "Point",
    "coordinates": [
     144.26315865,
     -36.7344861
    ]
   },
   "properties": {
    "name": "21 MCGOWAN STREET CALIFORNIA GULLY 3556",
    "locID": "LOC000022065424",
    "tech": "FTTN",
    "upgrade": "FTTP_NA",
    "gnaf_pid": "GAVIC419954037",
    "tech_change_status": "Committed",
    "program_type": "On-Demand N2P SDU/MDU Simple",
    "target_eligibility_quarter": "Mar 2025"
   }
  },
  {
   "type": "Feature",
   "geometry": {
    "type": "Point",
    "coordinates": [
     144.25116489,
     -36.73407856
    ]
   },
   "properties": {
    "name": "6 ROSE STREET CALIFORNIA GULLY 3556",
    "locID": "LOC000063552057",
    "tech": "FTTN",
    "upgrade": "FTTP_NA",
    "gnaf_pid": "GAVIC419954040",
    "tech_change_status": "In Design",
    "program_type": "On-Demand N2P SDU/MDU Simple",
    "target_eligibility_quarter": "Jun 2025"
   }
  },
  {
   "type": "Feature",
   "geometry": {
    "type": "Point",
    "coordinates": [
     144.25802138,
     -36.73353365
    ]
   },
   "properties": {
    "name": "49 DOWDING STREET CALIFORNIA GULLY 3556",
    "locID": "LOC000010169630",
    "tech": "FTTC",
    "upgrade": "FTTP_SA",
    "gnaf_pid": "GAVIC419955010",
    "tech_change_status": "Eligible To Order"
   }
  },
  {
   "type": "Feature",
   "geometry": {
    "type": "Point",
    "coordinates": [
     144.25908883,
     -36.73476439
    ]
   },
   "properties": {
    "name": "12 WEATHERALL STREET CALIFORNIA GULLY 3556",
    "locID": "LOC000012650935",
    "tech": "FTTN",
    "upgrade": "FTTP_NA",
    "gnaf_pid": "GAVIC419955011",
    "tech_change_status": "In Design",
    "program_type": "On-Demand N2P SDU/MDU Simple",
    "target_eligibility_quarter": "Jun 2025"
   }
  },
  {
   "type": "Feature",
   "geometry": {
    "type": "Point",
    "coordinates": [
     144.25558758,
     -36.72983817
    ]
   },
   "properties": {
    "name": "5 MURDOCK STREET CALIFORNIA GULLY 3556",
    "locID": "LOC000075520629",
    "tech": "FTTC",
    "upgrade": "FTTP_SA",
    "gnaf_pid": "GAVIC419958237",
    "tech_change_status": "Eligible To Order"
   }
  },
  {
   "type": "Feature",
   "geometry": {
    "type": "Point",
    "coordinates": [
     144.26388933,
     -36.72605065
    ]
   },
   "properties": {
    "name": "15 GREEN STREET CALIFORNIA GULLY 3556",
    "locID": "LOC000016871055",
    "tech": "FTTN",
    "upgrade": "FTTP_NA",
    "gnaf_pid": "GAVIC419959089",
    "tech_change_status": "In Design",
    "program_type": "On-Demand N2P SDU/MDU Simple",
    "target_eligibility_quarter": "Jun 2025"
   }
  },
  {
   "type": "Feature",
   "geometry": {
    "type": "Point",
    "coordinates": [
     144.26380021,
     -36.7252853
    ]
   },
   "properties": {
    "name": "51 CHAPPLE STREET CALIFORNIA GULLY 3556",
    "locID": "LOC000100833317",
    "tech": "FTTN",
    "upgrade": "FTTP_NA",
    "gnaf_pid": "GAVIC419960820",
    "tech_change_status": "In Design",
    "program_type": "On-Demand N2P SDU/MDU Simple",
    "target_eligibility_quarter": "Jun 2025"
   }
  },
  {
   "type": "Feature",
   "geometry": {
    "type": "Point",
    "coordinates": [
     144.26479966,
     -36.72556854
    ]
   },
   "properties": {
    "name": "3 SHEPPERBOTTOM STREET CALIFORNIA GULLY 3556",
    "locID": "LOC000069873833",
    "tech": "FTTN",
    "upgrade": "FTTP_NA",
    "gnaf_pid": "GAVIC419960821",
    "tech_change_status": "In Design",
    "program_type": "On-Demand N2P SDU/MDU Simple",
    "target_eligibility_quarter": "Jun 2025"
   }
  },
  {
   "type": "Feature",
   "geometry": {
    "type": "Point",
    "coordinates": [
     144.2654612,
     -36.72530806
    ]
   },
   "properties": {
    "name": "13 MATHRICK STREET CALIFORNIA GULLY 3556",
    "locID": "LOC000002807172",
    "tech": "FTTN",
    "upgrade": "FTTP_NA",
    "gnaf_pid": "GAVIC419960822",
    "tech_change_status": "In Design",
    "program_type": "On-Demand N2P SDU/MDU Simple",
    "target_eligibility_quarter": "Jun 2025"
   }
  },
  {
   "type": "Feature",
   "geometry": {
    "type": "Point",
    "coordinates": [
     144.2652948,
     -36.72562375
    ]
   },
   "properties": {
    "name": "8 SHEPPERBOTTOM STREET CALIFORNIA GULLY 3556",
    "locID": "LOC000023930040",
    "tech": "FTTN",
    "upgrade": "FTTP_NA",
    "gnaf_pid": "GAVIC419960823",
    "tech_change_status": "In Design",
    "program_type": "On-Demand N2P SDU/MDU Simple",
    "target_eligibility_quarter": "Jun 2025"
   }
  },
  {
   "type": "Feature",
   "geometry": {
    "type": "Point",
    "coordinates": [
     144.26565918,
     -36.73062703
    ]
   },
   "properties": {
    "name": "5 PEARCE STREET CALIFORNIA GULLY 3556",
    "locID": "LOC000048990605",
    "tech": "FTTN",
    "upgrade": "FTTP_NA",
    "gnaf_pid": "GAVIC419962848",
    "tech_change_status": "In Design",
    "program_type": "On-Demand N2P SDU/MDU Simple",
    "target_eligibility_quarter": "Jun 2025"
   }
  },
  {
   "type": "Feature",
   "geometry": {
    "type": "Point",
    "coordinates": [
     144.26473537,
     -36.72777554
    ]
   },
   "properties": {
    "name": "20 GREEN STREET CALIFORNIA GULLY 3556",
    "locID": "LOC000020986981",
    "tech": "FTTN",
    "upgrade": "FTTP_NA",
    "gnaf_pid": "GAVIC419962849",
    "tech_change_status": "In Design",
    "program_type": "On-Demand N2P SDU/MDU Simple",
    "target_eligibility_quarter": "Jun 2025"
   }
  },
  {
   "type": "Feature",
   "geometry": {
    "type": "Point",
    "coordinates": [
     144.25088572,
     -36.72974707
    ]
   },
   "properties": {
    "name": "31 BROWN STREET CALIFORNIA GULLY 3556",
    "locID": "LOC000100474796",
    "tech": "FTTN",
    "upgrade": "FTTP_NA",
    "gnaf_pid": "GAVIC419971192",
    "tech_change_status": "In Design",
    "program_type": "On-Demand N2P SDU/MDU Simple",
    "target_eligibility_quarter": "Jun 2025"
   }
  },
  {
   "type": "Feature",
   "geometry": {
    "type": "Point",
    "coordinates": [
     144.25639262,
     -36.72897772
    ]
   },
   "properties": {
    "name": "14 THORPE STREET CALIFORNIA GULLY 3556",
    "locID": "LOC000048686343",
    "tech": "FTTC",
    "upgrade": "FTTP_SA",
    "gnaf_pid": "GAVIC419971194",
    "tech_change_status": "Eligible To Order"
   }
  },
  {
   "type": "Feature",
   "geometry": {
    "type": "Point",
    "coordinates": [
     144.25731255,
     -36.72730783
    ]
   },
   "properties": {
    "name": "20 YOULDEN STREET CALIFORNIA GULLY 3556",
    "locID": "LOC000094290150",
    "tech": "FTTC",
    "upgrade": "FTTP_SA",
    "gnaf_pid": "GAVIC419971195",
    "tech_change_status": "Eligible To Order"
   }
  },
  {
   "type": "Feature",
   "geometry": {
    "type": "Point",
    "coordinates": [
     144.25415674,
     -36.72820562
    ]
   },
   "properties": {
    "name": "34 MURDOCK STREET CALIFORNIA GULLY 3556",
    "locID": "LOC000096436896",
    "tech": "FTTC",
    "upgrade": "FTTP_SA",
    "gnaf_pid": "GAVIC419971196",
    "tech_change_status": "Eligible To Order"
   }
  },
  {
   "type": "Feature",
   "geometry": {
    "type": "Point",
    "coordinates": [
     144.2480828,
     -36.7366468
    ]
   },
   "properties": {
    "name": "8 BUTLER STREET CALIFORNIA GULLY 3556",
    "locID": "LOC000060617714",
    "tech": "FTTN",
    "upgrade": "FTTP_NA",
    "gnaf_pid": "GAVIC419971982",
    "tech_change_status": "In Design",
    "program_type": "On-Demand N2P SDU/MDU Simple",
    "target_eligibility_quarter": "Jun 2025"
   }
  },
  {
   "type": "Feature",
   "geometry": {
    "type": "Point",
    "coordinates": [
     144.24661592,
     -36.73433675
    ]
   },
   "properties": {
    "name": "18 BATTEN STREET CALIFORNIA GULLY 3556",
    "locID": "LOC000026945574",
    "tech": "FTTN",
    "upgrade": "FTTP_NA",
    "gnaf_pid": "GAVIC419971983",
    "tech_change_status": "In Design",
    "program_type": "On-Demand N2P SDU/MDU Simple",
    "target_eligibility_quarter": "Jun 2025"
   }
  },
  {
   "type": "Feature",
   "geometry": {
    "type": "Point",
    "coordinates": [
     144.25028419,
     -36.73437001
    ]
   },