{
 "type": "FeatureCollection",
 "generated": "2023-10-23T17:06:54.234449",
 "suburb": "CAPE CONRAN",
 "features": [
  {
   "type": "Feature",
   "geometry": {
    "type": "Point",
    "coordinates": [
     148.7038088,
     -37.79236968
    ]
   },
   "properties": {
    "name": "58 BURBANG ROAD CAPE CONRAN 3888",
    "locID": "LOC000002699956",
    "tech": "SATELLITE",
    "upgrade": "NULL_NA",
    "gnaf_pid": "GAVIC422280499"
   }
  },
  {
   "type": "Feature",
   "geometry": {
    "type": "Point",
    "coordinates": [
     148.72725986,
     -37.7758587
    ]
   },
   "properties": {
    "name": "1026 CABBAGE TREE-CONRAN ROAD CAPE CONRAN 3888",
    "locID": "LOC000142437894",
    "tech": "SATELLITE",
    "upgrade": "NULL_NA",
    "gnaf_pid": "GAVIC422281146"
   }
  },
  {
   "type": "Feature",
   "geometry": {
    "type": "Point",
    "coordinates": [
     148.72779164,
     -37.76428937
    ]
   },
   "properties": {
    "name": "1038 MARLO PLAINS ROAD CAPE CONRAN 3888",
    "locID": "LOC000085430456",
    "tech": "SATELLITE",
    "upgrade": "NULL_NA",
    "gnaf_pid": "GAVIC422307735"
   }
  },
  {
   "type": "Feature",
   "geometry": {
    "type": "Point",
    "coordinates": [
     148.71886377,
     -37.79262507
    ]
   },
   "properties": {
    "name": "1547 MARLO-CONRAN ROAD CAPE CONRAN 3888",
    "locID": "LOC000103623999",
    "tech": "SATELLITE",
    "upgrade": "NULL_NA",
    "gnaf_pid": "GAVIC422307794"
   }
  },
  {
   "type": "Feature",
   "geometry": {
    "type": "Point",
    "coordinates": [
     148.70383866,
     -37.77695376
    ]
   },
   "properties": {
    "name": "750 MARLO PLAINS ROAD CAPE CONRAN 3888",
    "locID": "LOC000100498095",
    "tech": "SATELLITE",
    "upgrade": "NULL_NA",
    "gnaf_pid": "GAVIC423832412"
   }
  },
  {
   "type": "Feature",
   "geometry": {
    "type": "Point",
    "coordinates": [
     148.72725986,
     -37.7758587
    ]
   },
   "properties": {
    "name": "1026A CABBAGE TREE-CONRAN ROAD CAPE CONRAN 3888",
    "locID": "ChIJ3QgYzDDAOmsRapLtp_7zZJk",
    "tech": "SATELLITE",
    "upgrade": "UNKNOWN",
    "gnaf_pid": "GAVIC424022295"
   }
  },
  {
   "type": "Feature",
   "geometry": {
    "type": "Point",
    "coordinates": [
     148.73017775,
     -37.78998
    ]
   },
   "properties": {
    "name": "1124 CABBAGE TREE-CONRAN ROAD CAPE CONRAN 3888",
    "locID": "ChIJQybztSPAOmsR3qvJ-g_PQMQ",
    "tech": "SATELLITE",
    "upgrade": "UNKNOWN",
    "gnaf_pid": "GAVIC424235438"
   }
  },
  {
   "type": "Feature",
   "geometry": {
    "type": "Point",
    "coordinates": [
     148.71543369,
     -37.79571925
    ]
   },
   "properties": {
    "name": "1547A MARLO-CONRAN ROAD CAPE CONRAN 3888",
    "locID": "ChIJQ7Bu2RLAOmsR09mZCNux9v4",
    "tech": "SATELLITE",
    "upgrade": "UNKNOWN",
    "gnaf_pid": "GAVIC425164870"
   }
  },
  {
   "type": "Feature",
   "geometry": {
    "type": "Point",
    "coordinates": [
     148.72566508,
     -37.80169142
    ]
   },
   "properties": {
    "name": "50 CAPE CONRAN ROAD CAPE CONRAN 3888",
    "locID": "ChIJa8_o9g_AOmsRV1dwWlUaO_c",
    "tech": "SATELLITE",
    "upgrade": "UNKNOWN",
    "gnaf_pid": "GAVIC720356246"
   }
  }
 ]
}