{
 "type": "FeatureCollection",
 "generated": "2024-07-05T12:35:00.794305",
 "suburb": "CARRON",
 "features": [
  {
   "type": "Feature",
   "geometry": {
    "type": "Point",
    "coordinates": [
     142.77274726,
     -36.28441318
    ]
   },
   "properties": {
    "name": "683 BORUNG HIGHWAY CARRON 3480",
    "locID": "LOC000020241843",
    "tech": "SATELLITE",
    "upgrade": "NULL_NA",
    "gnaf_pid": "GAVIC422129747",
    "tech_change_status": "Not Planned"
   }
  },
  {
   "type": "Feature",
   "geometry": {
    "type": "Point",
    "coordinates": [
     142.741499,
     -36.28604021
    ]
   },
   "properties": {
    "name": "976 BORUNG HIGHWAY CARRON 3480",
    "locID": "LOC000014467929",
    "tech": "SATELLITE",
    "upgrade": "NULL_NA",
    "gnaf_pid": "GAVIC422129749",
    "tech_change_status": "Not Planned"
   }
  },
  {
   "type": "Feature",
   "geometry": {
    "type": "Point",
    "coordinates": [
     142.7314724,
     -36.29787739
    ]
   },
   "properties": {
    "name": "152 CARRON-LAWLER ROAD CARRON 3480",
    "locID": "LOC000011777736",
    "tech": "SATELLITE",
    "upgrade": "NULL_NA",
    "gnaf_pid": "GAVIC422134629",
    "tech_change_status": "Not Planned"
   }
  },
  {
   "type": "Feature",
   "geometry": {
    "type": "Point",
    "coordinates": [
     142.73225514,
     -36.2995337
    ]
   },
   "properties": {
    "name": "163 CARRON-LAWLER ROAD CARRON 3480",
    "locID": "LOC000094268197",
    "tech": "SATELLITE",
    "upgrade": "NULL_NA",
    "gnaf_pid": "GAVIC422134630",
    "tech_change_status": "Not Planned"
   }
  },
  {
   "type": "Feature",
   "geometry": {
    "type": "Point",
    "coordinates": [
     142.7328638,
     -36.31798611
    ]
   },
   "properties": {
    "name": "367 CARRON-LAWLER ROAD CARRON 3480",
    "locID": "LOC100078138565",
    "tech": "SATELLITE",
    "upgrade": "NULL_NA",
    "gnaf_pid": "GAVIC422134631",
    "tech_change_status": "Not Planned"
   }
  },
  {
   "type": "Feature",
   "geometry": {
    "type": "Point",
    "coordinates": [
     142.7442933,
     -36.25434005
    ]
   },
   "properties": {
    "name": "1416 WATCHEM-CARRON ROAD CARRON 3480",
    "locID": "LOC000093345408",
    "tech": "SATELLITE",
    "upgrade": "NULL_NA",
    "gnaf_pid": "GAVIC422201324",
    "tech_change_status": "Not Planned"
   }
  },
  {
   "type": "Feature",
   "geometry": {
    "type": "Point",
    "coordinates": [
     142.74185054,
     -36.32371328
    ]
   },
   "properties": {
    "name": "84 GLENS ROAD CARRON 3480",
    "locID": "LOC000088702443",
    "tech": "SATELLITE",
    "upgrade": "NULL_NA",
    "gnaf_pid": "GAVIC423506473",
    "tech_change_status": "Not Planned"
   }
  },
  {
   "type": "Feature",
   "geometry": {
    "type": "Point",
    "coordinates": [
     142.74718834,
     -36.28037608
    ]
   },
   "properties": {
    "name": "51 MCCONVILLES ROAD CARRON 3480",
    "locID": "LOC000035438547",
    "tech": "SATELLITE",
    "upgrade": "NULL_NA",
    "gnaf_pid": "GAVIC424031230",
    "tech_change_status": "Not Planned"
   }
  },
  {
   "type": "Feature",
   "geometry": {
    "type": "Point",
    "coordinates": [
     142.73167608,
     -36.30608357
    ]
   },
   "properties": {
    "name": "775 CARRON-LAWLER ROAD CARRON 3480",
    "locID": "LOC000017720395",
    "tech": "SATELLITE",
    "upgrade": "NULL_NA",
    "gnaf_pid": "GAVIC424276936",
    "tech_change_status": "Not Planned"
   }
  }
 ]
}