{
 "type": "FeatureCollection",
 "generated": "2024-07-05T12:55:43.139006",
 "suburb": "CATUMNAL",
 "features": [
  {
   "type": "Feature",
   "geometry": {
    "type": "Point",
    "coordinates": [
     143.64438749,
     -36.08229515
    ]
   },
   "properties": {
    "name": "812 BOORT-WYCHEPROOF ROAD CATUMNAL 3537",
    "locID": "LOC000061398105",
    "tech": "WIRELESS",
    "upgrade": "NULL_NA",
    "gnaf_pid": "GAVIC411083318",
    "tech_change_status": "Not Planned",
    "program_type": "Fixed Wireless and Satellite Upgrade Program",
    "target_eligibility_quarter": "Dec 2024"
   }
  },
  {
   "type": "Feature",
   "geometry": {
    "type": "Point",
    "coordinates": [
     143.60390553,
     -36.0851896
    ]
   },
   "properties": {
    "name": "86 ALLISONS ROAD CATUMNAL 3537",
    "locID": "LOC000047005681",
    "tech": "WIRELESS",
    "upgrade": "NULL_NA",
    "gnaf_pid": "GAVIC422033192",
    "tech_change_status": "Not Planned",
    "program_type": "Fixed Wireless and Satellite Upgrade Program",
    "target_eligibility_quarter": "Dec 2024"
   }
  },
  {
   "type": "Feature",
   "geometry": {
    "type": "Point",
    "coordinates": [
     143.61299111,
     -36.07868744
    ]
   },
   "properties": {
    "name": "1100 BOORT-WYCHEPROOF ROAD CATUMNAL 3537",
    "locID": "LOC000083979297",
    "tech": "WIRELESS",
    "upgrade": "NULL_NA",
    "gnaf_pid": "GAVIC422129589",
    "tech_change_status": "Not Planned",
    "program_type": "Fixed Wireless and Satellite Upgrade Program",
    "target_eligibility_quarter": "Dec 2024"
   }
  },
  {
   "type": "Feature",
   "geometry": {
    "type": "Point",
    "coordinates": [
     143.63426588,
     -36.05898301
    ]
   },
   "properties": {
    "name": "242 LANYON ROAD CATUMNAL 3537",
    "locID": "LOC000004261632",
    "tech": "WIRELESS",
    "upgrade": "NULL_NA",
    "gnaf_pid": "GAVIC422163165",
    "tech_change_status": "Not Planned",
    "program_type": "Fixed Wireless and Satellite Upgrade Program",
    "target_eligibility_quarter": "Dec 2024"
   }
  },
  {
   "type": "Feature",
   "geometry": {
    "type": "Point",
    "coordinates": [
     143.64369966,
     -36.09146084
    ]
   },
   "properties": {
    "name": "94 OAKPARK ROAD CATUMNAL 3537",
    "locID": "LOC000043224251",
    "tech": "WIRELESS",
    "upgrade": "NULL_NA",
    "gnaf_pid": "GAVIC423991047",
    "tech_change_status": "Not Planned",
    "program_type": "Fixed Wireless and Satellite Upgrade Program",
    "target_eligibility_quarter": "Dec 2024"
   }
  },
  {
   "type": "Feature",
   "geometry": {
    "type": "Point",
    "coordinates": [
     143.66009169,
     -36.05969043
    ]
   },
   "properties": {
    "name": "266 BARRAPORT SOUTH ROAD CATUMNAL 3537",
    "locID": "LOC000091801387",
    "tech": "SATELLITE",
    "upgrade": "NULL_NA",
    "gnaf_pid": "GAVIC424249948",
    "tech_change_status": "Not Planned"
   }
  }
 ]
}