{
 "type": "FeatureCollection",
 "generated": "2023-10-23T18:12:54.329516",
 "suburb": "CATUMNAL",
 "features": [
  {
   "type": "Feature",
   "geometry": {
    "type": "Point",
    "coordinates": [
     143.64438749,
     -36.08229515
    ]
   },
   "properties": {
    "name": "812 BOORT-WYCHEPROOF ROAD CATUMNAL 3537",
    "locID": "LOC000061398105",
    "tech": "WIRELESS",
    "upgrade": "NULL_NA",
    "gnaf_pid": "GAVIC411083318"
   }
  },
  {
   "type": "Feature",
   "geometry": {
    "type": "Point",
    "coordinates": [
     143.61784746,
     -36.07950741
    ]
   },
   "properties": {
    "name": "45 BOORT-WYCHEPROOF ROAD CATUMNAL 3537",
    "locID": "ChIJ9fYgB3BE2moRpqRT-emcM3c",
    "tech": "WIRELESS",
    "upgrade": "UNKNOWN",
    "gnaf_pid": "GAVIC414380118"
   }
  },
  {
   "type": "Feature",
   "geometry": {
    "type": "Point",
    "coordinates": [
     143.61784746,
     -36.07950741
    ]
   },
   "properties": {
    "name": "52 BOORT-WYCHEPROOF ROAD CATUMNAL 3537",
    "locID": "ChIJ9fYgB3BE2moREXfKyp2wTJo",
    "tech": "WIRELESS",
    "upgrade": "UNKNOWN",
    "gnaf_pid": "GAVIC414380119"
   }
  },
  {
   "type": "Feature",
   "geometry": {
    "type": "Point",
    "coordinates": [
     143.61784746,
     -36.07950741
    ]
   },
   "properties": {
    "name": "53 BOORT-WYCHEPROOF ROAD CATUMNAL 3537",
    "locID": "ChIJ9fYgB3BE2moR1XIKf7GbZ0I",
    "tech": "WIRELESS",
    "upgrade": "UNKNOWN",
    "gnaf_pid": "GAVIC414380120"
   }
  },
  {
   "type": "Feature",
   "geometry": {
    "type": "Point",
    "coordinates": [
     143.61784746,
     -36.07950741
    ]
   },
   "properties": {
    "name": "54 BOORT-WYCHEPROOF ROAD CATUMNAL 3537",
    "locID": "ChIJ9fYgB3BE2moRfLDLUKp53Ns",
    "tech": "WIRELESS",
    "upgrade": "UNKNOWN",
    "gnaf_pid": "GAVIC414380121"
   }
  },
  {
   "type": "Feature",
   "geometry": {
    "type": "Point",
    "coordinates": [
     143.61784746,
     -36.07950741
    ]
   },
   "properties": {
    "name": "51 BOORT-WYCHEPROOF ROAD CATUMNAL 3537",
    "locID": "ChIJ9fYgB3BE2moRwv8fkTmDPF4",
    "tech": "WIRELESS",
    "upgrade": "UNKNOWN",
    "gnaf_pid": "GAVIC414380122"
   }
  },
  {
   "type": "Feature",
   "geometry": {
    "type": "Point",
    "coordinates": [
     143.60390553,
     -36.0851896
    ]
   },
   "properties": {
    "name": "86 ALLISONS ROAD CATUMNAL 3537",
    "locID": "LOC000047005681",
    "tech": "WIRELESS",
    "upgrade": "NULL_NA",
    "gnaf_pid": "GAVIC422033192"
   }
  },
  {
   "type": "Feature",
   "geometry": {
    "type": "Point",
    "coordinates": [
     143.61299111,
     -36.07868744
    ]
   },
   "properties": {
    "name": "1100 BOORT-WYCHEPROOF ROAD CATUMNAL 3537",
    "locID": "LOC000083979297",
    "tech": "WIRELESS",
    "upgrade": "NULL_NA",
    "gnaf_pid": "GAVIC422129589"
   }
  },
  {
   "type": "Feature",
   "geometry": {
    "type": "Point",
    "coordinates": [
     143.580331,
     -36.07666858
    ]
   },
   "properties": {
    "name": "1404 BOORT-WYCHEPROOF ROAD CATUMNAL 3537",
    "locID": "ChIJT4HrNaFE2moRatoO-Mny_OI",
    "tech": "WIRELESS",
    "upgrade": "UNKNOWN",
    "gnaf_pid": "GAVIC422129590"
   }
  },
  {
   "type": "Feature",
   "geometry": {
    "type": "Point",
    "coordinates": [
     143.63426588,
     -36.05898301
    ]
   },
   "properties": {
    "name": "242 LANYON ROAD CATUMNAL 3537",
    "locID": "LOC000004261632",
    "tech": "WIRELESS",
    "upgrade": "NULL_NA",
    "gnaf_pid": "GAVIC422163165"
   }
  },
  {
   "type": "Feature",
   "geometry": {
    "type": "Point",
    "coordinates": [
     143.60316869,
     -36.09223022
    ]
   },
   "properties": {
    "name": "134 REEDS ROAD CATUMNAL 3537",
    "locID": "ChIJS_uxxHlD2moR-PLUk8kL5hE",
    "tech": "WIRELESS",
    "upgrade": "UNKNOWN",
    "gnaf_pid": "GAVIC423114069"
   }
  },
  {
   "type": "Feature",
   "geometry": {
    "type": "Point",
    "coordinates": [
     143.64369966,
     -36.09146084
    ]
   },
   "properties": {
    "name": "94 OAKPARK ROAD CATUMNAL 3537",
    "locID": "LOC000043224251",
    "tech": "WIRELESS",
    "upgrade": "NULL_NA",
    "gnaf_pid": "GAVIC423991047"
   }
  },
  {
   "type": "Feature",
   "geometry": {
    "type": "Point",
    "coordinates": [
     143.66009169,
     -36.05969043
    ]
   },
   "properties": {
    "name": "266 BARRAPORT SOUTH ROAD CATUMNAL 3537",
    "locID": "LOC000091801387",
    "tech": "SATELLITE",
    "upgrade": "NULL_NA",
    "gnaf_pid": "GAVIC424249948"
   }
  },
  {
   "type": "Feature",
   "geometry": {
    "type": "Point",
    "coordinates": [
     143.63705232,
     -36.09624001
    ]
   },
   "properties": {
    "name": "43 MCRORIE ROAD CATUMNAL 3537",
    "locID": "ChIJN3BJyfdD2moRIbLSi9Um9eA",
    "tech": "WIRELESS",
    "upgrade": "UNKNOWN",
    "gnaf_pid": "GAVIC425538467"
   }
  }
 ]
}