{
 "type": "FeatureCollection",
 "generated": "2023-10-23T21:11:35.289899",
 "suburb": "COONOOER WEST",
 "features": [
  {
   "type": "Feature",
   "geometry": {
    "type": "Point",
    "coordinates": [
     143.18358376,
     -36.43184145
    ]
   },
   "properties": {
    "name": "80 LANFRANKIE ROAD COONOOER WEST 3477",
    "locID": "LOC000038040509",
    "tech": "SATELLITE",
    "upgrade": "NULL_NA",
    "gnaf_pid": "GAVIC422034250"
   }
  },
  {
   "type": "Feature",
   "geometry": {
    "type": "Point",
    "coordinates": [
     143.25821347,
     -36.4225179
    ]
   },
   "properties": {
    "name": "1605 BURRUMBITE ROAD COONOOER WEST 3477",
    "locID": "LOC000040364071",
    "tech": "WIRELESS",
    "upgrade": "NULL_NA",
    "gnaf_pid": "GAVIC422132614"
   }
  },
  {
   "type": "Feature",
   "geometry": {
    "type": "Point",
    "coordinates": [
     143.19803634,
     -36.42445769
    ]
   },
   "properties": {
    "name": "35 DUNSTAN ROAD COONOOER WEST 3477",
    "locID": "LOC000078948045",
    "tech": "SATELLITE",
    "upgrade": "NULL_NA",
    "gnaf_pid": "GAVIC422143540"
   }
  },
  {
   "type": "Feature",
   "geometry": {
    "type": "Point",
    "coordinates": [
     143.26469977,
     -36.41449914
    ]
   },
   "properties": {
    "name": "236 LEWIS ROAD COONOOER WEST 3477",
    "locID": "LOC000053992288",
    "tech": "SATELLITE",
    "upgrade": "NULL_NA",
    "gnaf_pid": "GAVIC422164128"
   }
  },
  {
   "type": "Feature",
   "geometry": {
    "type": "Point",
    "coordinates": [
     143.27898655,
     -36.41442159
    ]
   },
   "properties": {
    "name": "364 LEWIS ROAD COONOOER WEST 3477",
    "locID": "LOC000006936574",
    "tech": "SATELLITE",
    "upgrade": "NULL_NA",
    "gnaf_pid": "GAVIC422164129"
   }
  },
  {
   "type": "Feature",
   "geometry": {
    "type": "Point",
    "coordinates": [
     143.23818886,
     -36.42026661
    ]
   },
   "properties": {
    "name": "120 NICHOLLS DAM ROAD COONOOER WEST 3477",
    "locID": "LOC000030995923",
    "tech": "SATELLITE",
    "upgrade": "NULL_NA",
    "gnaf_pid": "GAVIC422177050"
   }
  },
  {
   "type": "Feature",
   "geometry": {
    "type": "Point",
    "coordinates": [
     143.24964099,
     -36.40603963
    ]
   },
   "properties": {
    "name": "102 VALPINE ROAD COONOOER WEST 3477",
    "locID": "LOC000071733144",
    "tech": "SATELLITE",
    "upgrade": "NULL_NA",
    "gnaf_pid": "GAVIC423371423"
   }
  },
  {
   "type": "Feature",
   "geometry": {
    "type": "Point",
    "coordinates": [
     143.25087804,
     -36.40641623
    ]
   },
   "properties": {
    "name": "122 VALPINE ROAD COONOOER WEST 3477",
    "locID": "LOC000096781906",
    "tech": "WIRELESS",
    "upgrade": "NULL_NA",
    "gnaf_pid": "GAVIC423371424"
   }
  }
 ]
}