{
 "type": "FeatureCollection",
 "generated": "2024-07-05T15:46:25.295294",
 "suburb": "COPE COPE",
 "features": [
  {
   "type": "Feature",
   "geometry": {
    "type": "Point",
    "coordinates": [
     143.14410241,
     -36.45077297
    ]
   },
   "properties": {
    "name": "900 SWANWATER NORTH ROAD COPE COPE 3480",
    "locID": "LOC000066130150",
    "tech": "SATELLITE",
    "upgrade": "NULL_NA",
    "gnaf_pid": "GAVIC422030555",
    "tech_change_status": "Not Planned"
   }
  },
  {
   "type": "Feature",
   "geometry": {
    "type": "Point",
    "coordinates": [
     142.98495499,
     -36.43277554
    ]
   },
   "properties": {
    "name": "465 DONALD-AVON PLAINS ROAD COPE COPE 3480",
    "locID": "LOC000124970543",
    "tech": "WIRELESS",
    "upgrade": "NULL_NA",
    "gnaf_pid": "GAVIC422142360",
    "tech_change_status": "Not Planned",
    "program_type": "Fixed Wireless and Satellite Upgrade Program",
    "target_eligibility_quarter": "Dec 2024"
   }
  },
  {
   "type": "Feature",
   "geometry": {
    "type": "Point",
    "coordinates": [
     143.08896887,
     -36.48285406
    ]
   },
   "properties": {
    "name": "170 GOLDSBURY ROAD COPE COPE 3480",
    "locID": "LOC000070273745",
    "tech": "WIRELESS",
    "upgrade": "NULL_NA",
    "gnaf_pid": "GAVIC422150362",
    "tech_change_status": "Not Planned",
    "program_type": "Fixed Wireless and Satellite Upgrade Program",
    "target_eligibility_quarter": "Dec 2024"
   }
  },
  {
   "type": "Feature",
   "geometry": {
    "type": "Point",
    "coordinates": [
     142.98750218,
     -36.47895406
    ]
   },
   "properties": {
    "name": "405A GREWAR ROAD COPE COPE 3480",
    "locID": "LOC000003551286",
    "tech": "WIRELESS",
    "upgrade": "NULL_NA",
    "gnaf_pid": "GAVIC422152486",
    "tech_change_status": "Not Planned",
    "program_type": "Fixed Wireless and Satellite Upgrade Program",
    "target_eligibility_quarter": "Dec 2024"
   }
  },
  {
   "type": "Feature",
   "geometry": {
    "type": "Point",
    "coordinates": [
     142.95247326,
     -36.4753618
    ]
   },
   "properties": {
    "name": "85 GREWAR ROAD COPE COPE 3480",
    "locID": "LOC000106806745",
    "tech": "SATELLITE",
    "upgrade": "NULL_NA",
    "gnaf_pid": "GAVIC422152488",
    "tech_change_status": "Not Planned"
   }
  },
  {
   "type": "Feature",
   "geometry": {
    "type": "Point",
    "coordinates": [
     143.08353419,
     -36.50038385
    ]
   },
   "properties": {
    "name": "27 SPARROW ROAD COPE COPE 3480",
    "locID": "LOC000071053364",
    "tech": "WIRELESS",
    "upgrade": "NULL_NA",
    "gnaf_pid": "GAVIC422191525",
    "tech_change_status": "Not Planned",
    "program_type": "Fixed Wireless and Satellite Upgrade Program",
    "target_eligibility_quarter": "Dec 2024"
   }
  },
  {
   "type": "Feature",
   "geometry": {
    "type": "Point",
    "coordinates": [
     143.0824142,
     -36.50025016
    ]
   },
   "properties": {
    "name": "37 SPARROW ROAD COPE COPE 3480",
    "locID": "LOC000124784540",
    "tech": "SATELLITE",
    "upgrade": "NULL_NA",
    "gnaf_pid": "GAVIC422191526",
    "tech_change_status": "Not Planned"
   }
  },
  {
   "type": "Feature",
   "geometry": {
    "type": "Point",
    "coordinates": [
     143.15582458,
     -36.45161652
    ]
   },
   "properties": {
    "name": "1005 SWANWATER NORTH ROAD COPE COPE 3480",
    "locID": "LOC000002740914",
    "tech": "SATELLITE",
    "upgrade": "NULL_NA",
    "gnaf_pid": "GAVIC422194511",
    "tech_change_status": "Not Planned"
   }
  },
  {
   "type": "Feature",
   "geometry": {
    "type": "Point",
    "coordinates": [
     143.05131953,
     -36.44340855
    ]
   },
   "properties": {
    "name": "55 SWANWATER NORTH ROAD COPE COPE 3480",
    "locID": "LOC000075579396",
    "tech": "SATELLITE",
    "upgrade": "NULL_NA",
    "gnaf_pid": "GAVIC422194513",
    "tech_change_status": "Not Planned"
   }
  },
  {
   "type": "Feature",
   "geometry": {
    "type": "Point",
    "coordinates": [
     143.11207451,
     -36.44656434
    ]
   },
   "properties": {
    "name": "607 SWANWATER NORTH ROAD COPE COPE 3480",
    "locID": "LOC000082157784",
    "tech": "WIRELESS",
    "upgrade": "NULL_NA",
    "gnaf_pid": "GAVIC422194514",
    "tech_change_status": "Not Planned",
    "program_type": "Fixed Wireless and Satellite Upgrade Program",
    "target_eligibility_quarter": "Dec 2024"
   }
  },
  {
   "type": "Feature",
   "geometry": {
    "type": "Point",
    "coordinates": [
     143.1194633,
     -36.44721131
    ]
   },
   "properties": {
    "name": "677 SWANWATER NORTH ROAD COPE COPE 3480",
    "locID": "LOC000103278028",
    "tech": "SATELLITE",
    "upgrade": "NULL_NA",
    "gnaf_pid": "GAVIC422194515",
    "tech_change_status": "Not Planned"
   }
  },
  {
   "type": "Feature",
   "geometry": {
    "type": "Point",
    "coordinates": [
     143.08508466,
     -36.4622099
    ]
   },
   "properties": {
    "name": "198 GOLDSBURY NORTH ROAD COPE COPE 3480",
    "locID": "LOC000070472511",
    "tech": "WIRELESS",
    "upgrade": "NULL_NA",
    "gnaf_pid": "GAVIC423216971",
    "tech_change_status": "Not Planned",
    "program_type": "Fixed Wireless and Satellite Upgrade Program",
    "target_eligibility_quarter": "Dec 2024"
   }
  },
  {
   "type": "Feature",
   "geometry": {
    "type": "Point",
    "coordinates": [
     143.05105918,
     -36.48350055
    ]
   },
   "properties": {
    "name": "113 LEEDER ROAD COPE COPE 3480",
    "locID": "LOC000034780382",
    "tech": "SATELLITE",
    "upgrade": "NULL_NA",
    "gnaf_pid": "GAVIC423222454",
    "tech_change_status": "Not Planned"
   }
  },
  {
   "type": "Feature",
   "geometry": {
    "type": "Point",
    "coordinates": [
     143.07364309,
     -36.43855835
    ]
   },
   "properties": {
    "name": "60 A MCCLELLANDS ROAD COPE COPE 3480",
    "locID": "LOC000101974403",
    "tech": "WIRELESS",
    "upgrade": "NULL_NA",
    "gnaf_pid": "GAVIC423502205",
    "tech_change_status": "Not Planned",
    "program_type": "Fixed Wireless and Satellite Upgrade Program",
    "target_eligibility_quarter": "Dec 2024"
   }
  },
  {
   "type": "Feature",
   "geometry": {
    "type": "Point",
    "coordinates": [
     143.0244344,
     -36.45706096
    ]
   },
   "properties": {
    "name": "318 BROWN LAKE ROAD COPE COPE 3480",
    "locID": "LOC000058011137",
    "tech": "WIRELESS",
    "upgrade": "NULL_NA",
    "gnaf_pid": "GAVIC423503473",
    "tech_change_status": "Not Planned",
    "program_type": "Fixed Wireless and Satellite Upgrade Program",
    "target_eligibility_quarter": "Dec 2024"
   }
  },
  {
   "type": "Feature",
   "geometry": {
    "type": "Point",
    "coordinates": [
     142.95880751,
     -36.4595459
    ]
   },
   "properties": {
    "name": "845A DONALD-AVON PLAINS ROAD COPE COPE 3480",
    "locID": "LOC000124909072",
    "tech": "WIRELESS",
    "upgrade": "NULL_NA",
    "gnaf_pid": "GAVIC423879668",
    "tech_change_status": "Not Planned",
    "program_type": "Fixed Wireless and Satellite Upgrade Program",
    "target_eligibility_quarter": "Dec 2024"
   }
  },
  {
   "type": "Feature",
   "geometry": {
    "type": "Point",
    "coordinates": [
     143.05384739,
     -36.46511211
    ]
   },
   "properties": {
    "name": "4 MEMORIAL LANE COPE COPE 3480",
    "locID": "LOC000102171610",
    "tech": "WIRELESS",
    "upgrade": "NULL_NA",
    "gnaf_pid": "GAVIC424267476",
    "tech_change_status": "Not Planned",
    "program_type": "Fixed Wireless and Satellite Upgrade Program",
    "target_eligibility_quarter": "Dec 2024"
   }
  },
  {
   "type": "Feature",
   "geometry": {
    "type": "Point",
    "coordinates": [
     143.05327921,
     -36.4647253
    ]
   },
   "properties": {
    "name": "2171 TRAYNORS LAGOON ROAD COPE COPE 3480",
    "locID": "LOC000037873492",
    "tech": "WIRELESS",
    "upgrade": "NULL_NA",
    "gnaf_pid": "GAVIC424369012",
    "tech_change_status": "Not Planned",
    "program_type": "Fixed Wireless and Satellite Upgrade Program",
    "target_eligibility_quarter": "Dec 2024"
   }
  },
  {
   "type": "Feature",
   "geometry": {
    "type": "Point",
    "coordinates": [
     143.0539081,
     -36.46428186
    ]
   },
   "properties": {
    "name": "2176 TRAYNORS LAGOON ROAD COPE COPE 3480",
    "locID": "LOC000124961458",
    "tech": "WIRELESS",
    "upgrade": "NULL_NA",
    "gnaf_pid": "GAVIC424369013",
    "tech_change_status": "Not Planned",
    "program_type": "Fixed Wireless and Satellite Upgrade Program",
    "target_eligibility_quarter": "Dec 2024"
   }
  },
  {
   "type": "Feature",
   "geometry": {
    "type": "Point",
    "coordinates": [
     142.9588089,
     -36.45951879
    ]
   },
   "properties": {
    "name": "845 DONALD-AVON PLAINS ROAD COPE COPE 3480",
    "locID": "LOC000124909072",
    "tech": "WIRELESS",
    "upgrade": "NULL_NA",
    "gnaf_pid": "GAVIC425483289",
    "tech_change_status": "Not Planned",
    "program_type": "Fixed Wireless and Satellite Upgrade Program",
    "target_eligibility_quarter": "Dec 2024"
   }
  },
  {
   "type": "Feature",
   "geometry": {
    "type": "Point",
    "coordinates": [
     143.05576052,
     -36.46184589
    ]
   },
   "properties": {
    "name": "44 STATION STREET COPE COPE 3480",
    "locID": "LOC000149209639",
    "tech": "WIRELESS",
    "upgrade": "NULL_NA",
    "gnaf_pid": "GAVIC425690260",
    "tech_change_status": "Not Planned",
    "program_type": "Fixed Wireless and Satellite Upgrade Program",
    "target_eligibility_quarter": "Dec 2024"
   }
  }
 ]
}