{
 "type": "FeatureCollection",
 "generated": "2023-10-23T21:27:18.647386",
 "suburb": "CREEK VIEW",
 "features": [
  {
   "type": "Feature",
   "geometry": {
    "type": "Point",
    "coordinates": [
     144.66301838,
     -36.59832233
    ]
   },
   "properties": {
    "name": "1035 BENDIGO-MURCHISON ROAD CREEK VIEW 3551",
    "locID": "LOC100072024112",
    "tech": "SATELLITE",
    "upgrade": "NULL_NA",
    "gnaf_pid": "GAVIC425756405"
   }
  },
  {
   "type": "Feature",
   "geometry": {
    "type": "Point",
    "coordinates": [
     144.66699178,
     -36.59851738
    ]
   },
   "properties": {
    "name": "1064 BENDIGO-MURCHISON ROAD CREEK VIEW 3551",
    "locID": "LOC000058125592",
    "tech": "SATELLITE",
    "upgrade": "NULL_NA",
    "gnaf_pid": "GAVIC425756406"
   }
  },
  {
   "type": "Feature",
   "geometry": {
    "type": "Point",
    "coordinates": [
     144.59024475,
     -36.59460113
    ]
   },
   "properties": {
    "name": "375 BENDIGO-MURCHISON ROAD CREEK VIEW 3551",
    "locID": "LOC000016102452",
    "tech": "WIRELESS",
    "upgrade": "NULL_NA",
    "gnaf_pid": "GAVIC425756407"
   }
  },
  {
   "type": "Feature",
   "geometry": {
    "type": "Point",
    "coordinates": [
     144.60487866,
     -36.59847434
    ]
   },
   "properties": {
    "name": "508 BENDIGO-MURCHISON ROAD CREEK VIEW 3551",
    "locID": "LOC000010260170",
    "tech": "SATELLITE",
    "upgrade": "NULL_NA",
    "gnaf_pid": "GAVIC425756408"
   }
  },
  {
   "type": "Feature",
   "geometry": {
    "type": "Point",
    "coordinates": [
     144.64276446,
     -36.59831981
    ]
   },
   "properties": {
    "name": "851 BENDIGO-MURCHISON ROAD CREEK VIEW 3551",
    "locID": "Ejo4NTEgQmVuZGlnby1NdXJjaGlzb24gUm9hZCwgQ3JlZWsgVmlldyBWSUMgMzU1MSwgQXVzdHJhbGlhIi4qLAoUChIJRc6RUTfJ2WoRLB8YTzorEckSFAoSCVuIv9LgztlqEb5qHZhIHZsF",
    "tech": "SATELLITE",
    "upgrade": "UNKNOWN",
    "gnaf_pid": "GAVIC425756409"
   }
  },
  {
   "type": "Feature",
   "geometry": {
    "type": "Point",
    "coordinates": [
     144.64663104,
     -36.61306011
    ]
   },
   "properties": {
    "name": "58 BICKLEY ROAD CREEK VIEW 3551",
    "locID": "ChIJ_WXLXiLP2WoRavDKfjmhErA",
    "tech": "SATELLITE",
    "upgrade": "UNKNOWN",
    "gnaf_pid": "GAVIC425756410"
   }
  },
  {
   "type": "Feature",
   "geometry": {
    "type": "Point",
    "coordinates": [
     144.63588409,
     -36.59496707
    ]
   },
   "properties": {
    "name": "553 HOULDEN ROAD CREEK VIEW 3551",
    "locID": "EjA1NTMgSG91bGRlbiBSb2FkLCBDcmVlayBWaWV3IFZJQyAzNTUxLCBBdXN0cmFsaWEiLiosChQKEgkpyI70M8_ZahHqnZNf29QG6RIUChIJW4i_0uDO2WoRvmodmEgdmwU",
    "tech": "SATELLITE",
    "upgrade": "UNKNOWN",
    "gnaf_pid": "GAVIC425756636"
   }
  },
  {
   "type": "Feature",
   "geometry": {
    "type": "Point",
    "coordinates": [
     144.69201861,
     -36.61277663
    ]
   },
   "properties": {
    "name": "1164 MCNAMARA ROAD CREEK VIEW 3551",
    "locID": "ChIJ452un1XJ2WoRD8RfAbjhXB8",
    "tech": "SATELLITE",
    "upgrade": "UNKNOWN",
    "gnaf_pid": "GAVIC425756731"
   }
  },
  {
   "type": "Feature",
   "geometry": {
    "type": "Point",
    "coordinates": [
     144.61846161,
     -36.60385692
    ]
   },
   "properties": {
    "name": "1415 MUSKERRY EAST SCHOOL ROAD CREEK VIEW 3551",
    "locID": "ChIJGQOhd13P2WoRMNOYsmTnfhI",
    "tech": "SATELLITE",
    "upgrade": "UNKNOWN",
    "gnaf_pid": "GAVIC425756762"
   }
  },
  {
   "type": "Feature",
   "geometry": {
    "type": "Point",
    "coordinates": [
     144.65311131,
     -36.6194609
    ]
   },
   "properties": {
    "name": "3590 NORTHERN HIGHWAY CREEK VIEW 3551",
    "locID": "ChIJg85l5-DO2WoRrUozgq38rR8",
    "tech": "SATELLITE",
    "upgrade": "UNKNOWN",
    "gnaf_pid": "GAVIC425756784"
   }
  },
  {
   "type": "Feature",
   "geometry": {
    "type": "Point",
    "coordinates": [
     144.65313816,
     -36.60456324
    ]
   },
   "properties": {
    "name": "3756 NORTHERN HIGHWAY CREEK VIEW 3551",
    "locID": "ChIJnfbuNtbO2WoR9BqkZx9OnXA",
    "tech": "SATELLITE",
    "upgrade": "UNKNOWN",
    "gnaf_pid": "GAVIC425756785"
   }
  },
  {
   "type": "Feature",
   "geometry": {
    "type": "Point",
    "coordinates": [
     144.68666642,
     -36.61305133
    ]
   },
   "properties": {
    "name": "551 PAT TUOHEY ROAD CREEK VIEW 3551",
    "locID": "ChIJe8ciJK7O2WoRuobYgUHKKYI",
    "tech": "SATELLITE",
    "upgrade": "UNKNOWN",
    "gnaf_pid": "GAVIC425756800"
   }
  },
  {
   "type": "Feature",
   "geometry": {
    "type": "Point",
    "coordinates": [
     144.66124115,
     -36.62755211
    ]
   },
   "properties": {
    "name": "73 TUOHEY ROAD CREEK VIEW 3551",
    "locID": "ChIJZ4j8dePO2WoRXMtraIp9zBc",
    "tech": "SATELLITE",
    "upgrade": "UNKNOWN",
    "gnaf_pid": "GAVIC425756961"
   }
  },
  {
   "type": "Feature",
   "geometry": {
    "type": "Point",
    "coordinates": [
     144.60317468,
     -36.59823799
    ]
   },
   "properties": {
    "name": "493 BENDIGO-MURCHISON ROAD CREEK VIEW 3551",
    "locID": "ChIJxWL4avPF2WoR_t5_HHqYs8A",
    "tech": "SATELLITE",
    "upgrade": "UNKNOWN",
    "gnaf_pid": "GAVIC719617549"
   }
  }
 ]
}