{
 "type": "FeatureCollection",
 "generated": "2024-08-23T15:34:40.760222",
 "suburb": "DIMBOOLA",
 "features": [
  {
   "type": "Feature",
   "geometry": {
    "type": "Point",
    "coordinates": [
     142.0360005,
     -36.45660975
    ]
   },
   "properties": {
    "name": "15 ELLERMAN STREET DIMBOOLA 3414",
    "locID": "LOC000008692301",
    "tech": "WIRELESS",
    "upgrade": "NULL_NA",
    "gnaf_pid": "GAVIC411236239",
    "tech_change_status": "Not Planned",
    "program_type": "Fixed Wireless and Satellite Upgrade Program",
    "target_eligibility_quarter": "NA"
   }
  },
  {
   "type": "Feature",
   "geometry": {
    "type": "Point",
    "coordinates": [
     142.03566151,
     -36.46222783
    ]
   },
   "properties": {
    "name": "27 ST LEONARDS AVENUE DIMBOOLA 3414",
    "locID": "LOC000104274916",
    "tech": "FTTN",
    "upgrade": "FTTP",
    "gnaf_pid": "GAVIC411236241",
    "tech_change_status": "Eligible to Order",
    "program_type": "On-Demand N2P SDU/MDU Simple",
    "target_eligibility_quarter": "NA"
   }
  },
  {
   "type": "Feature",
   "geometry": {
    "type": "Point",
    "coordinates": [
     142.02563328,
     -36.45211703
    ]
   },
   "properties": {
    "name": "136 LLOYD STREET DIMBOOLA 3414",
    "locID": "LOC000114204382",
    "tech": "FTTN",
    "upgrade": "FTTP_SA",
    "gnaf_pid": "GAVIC411236245",
    "tech_change_status": "Eligible to Order",
    "program_type": "On-Demand N2P SDU/MDU Simple",
    "target_eligibility_quarter": "NA"
   }
  },
  {
   "type": "Feature",
   "geometry": {
    "type": "Point",
    "coordinates": [
     142.03534975,
     -36.45268775
    ]
   },
   "properties": {
    "name": "8 SCHOOL STREET DIMBOOLA 3414",
    "locID": "LOC000082250971",
    "tech": "FTTP",
    "upgrade": "FTTP_NA",
    "gnaf_pid": "GAVIC411236295",
    "tech_change_status": "Previous Tech Disconnected",
    "program_type": "On-Demand N2P SDU/MDU Simple",
    "target_eligibility_quarter": "NA"
   }
  },
  {
   "type": "Feature",
   "geometry": {
    "type": "Point",
    "coordinates": [
     142.0334518,
     -36.4599078
    ]
   },
   "properties": {
    "name": "3 CHURCH STREET DIMBOOLA 3414",
    "locID": "LOC000096586521",
    "tech": "FTTP",
    "upgrade": "FTTP_NA",
    "gnaf_pid": "GAVIC411236359",
    "tech_change_status": "Previous Tech Disconnected",
    "program_type": "On-Demand N2P SDU/MDU Simple",
    "target_eligibility_quarter": "NA"
   }
  },
  {
   "type": "Feature",
   "geometry": {
    "type": "Point",
    "coordinates": [
     142.01930695,
     -36.35065762
    ]
   },
   "properties": {
    "name": "973 DIMBOOLA-RAINBOW ROAD DIMBOOLA 3414",
    "locID": "LOC000003618107",
    "tech": "SATELLITE",
    "upgrade": "NULL_NA",
    "gnaf_pid": "GAVIC411238016",
    "tech_change_status": "Not Planned"
   }
  },
  {
   "type": "Feature",
   "geometry": {
    "type": "Point",
    "coordinates": [
     142.01300104,
     -36.44318953
    ]
   },
   "properties": {
    "name": "50 SWALLOWS LANE DIMBOOLA 3414",
    "locID": "LOC000007164425",
    "tech": "WIRELESS",
    "upgrade": "NULL_NA",
    "gnaf_pid": "GAVIC411238905",
    "tech_change_status": "Not Planned",
    "program_type": "Fixed Wireless and Satellite Upgrade Program",
    "target_eligibility_quarter": "NA"
   }
  },
  {
   "type": "Feature",
   "geometry": {
    "type": "Point",
    "coordinates": [
     142.03378333,
     -36.4544639
    ]
   },
   "properties": {
    "name": "60 UPPER REGIONS STREET DIMBOOLA 3414",
    "locID": "LOC000016856457",
    "tech": "FTTN",
    "upgrade": "FTTP_SA",
    "gnaf_pid": "GAVIC411238912",
    "tech_change_status": "Eligible to Order",
    "program_type": "On-Demand N2P SDU/MDU Simple",
    "target_eligibility_quarter": "NA"
   }
  },
  {
   "type": "Feature",
   "geometry": {
    "type": "Point",
    "coordinates": [
     142.04075106,
     -36.45832471
    ]
   },
   "properties": {
    "name": "15 MALVERN ROAD DIMBOOLA 3414",
    "locID": "LOC000060953910",
    "tech": "WIRELESS",
    "upgrade": "NULL_NA",
    "gnaf_pid": "GAVIC411238931",
    "tech_change_status": "Not Planned",
    "program_type": "Fixed Wireless and Satellite Upgrade Program",
    "target_eligibility_quarter": "NA"
   }
  },
  {
   "type": "Feature",
   "geometry": {
    "type": "Point",
    "coordinates": [
     142.03556649,
     -36.46263508
    ]
   },
   "properties": {
    "name": "22 ST LEONARDS AVENUE DIMBOOLA 3414",
    "locID": "LOC000040638019",
    "tech": "WIRELESS",
    "upgrade": "FTTN",
    "gnaf_pid": "GAVIC411238933",
    "tech_change_status": "Eligible to Order",
    "program_type": "Fixed Wireless and Satellite Upgrade Program",
    "target_eligibility_quarter": "NA"
   }
  },
  {
   "type": "Feature",
   "geometry": {
    "type": "Point",
    "coordinates": [
     142.02291235,
     -36.44595925
    ]
   },
   "properties": {
    "name": "72 FAITH STREET DIMBOOLA 3414",
    "locID": "LOC000102719391",
    "tech": "FTTN",
    "upgrade": "FTTP",
    "gnaf_pid": "GAVIC411238941",
    "tech_change_status": "Eligible to Order",
    "program_type": "On-Demand N2P SDU/MDU Simple",
    "target_eligibility_quarter": "NA"
   }
  },
  {
   "type": "Feature",
   "geometry": {
    "type": "Point",
    "coordinates": [
     142.02671663,
     -36.45213249
    ]
   },
   "properties": {
    "name": "UNIT 3, 132 LLOYD STREET DIMBOOLA 3414",
    "locID": "LOC000081273930",
    "tech": "FTTN",
    "upgrade": "FTTP_SA",
    "gnaf_pid": "GAVIC411238943",
    "tech_change_status": "Eligible to Order",
    "program_type": "On-Demand N2P SDU/MDU Simple",
    "target_eligibility_quarter": "NA"
   }
  },
  {
   "type": "Feature",
   "geometry": {
    "type": "Point",
    "coordinates": [
     142.03824838,
     -36.46149539
    ]
   },
   "properties": {
    "name": "36 ST LEONARDS AVENUE DIMBOOLA 3414",
    "locID": "LOC000109785773",
    "tech": "FTTN",
    "upgrade": "FTTP",
    "gnaf_pid": "GAVIC411241065",
    "tech_change_status": "Eligible to Order",
    "program_type": "On-Demand N2P SDU/MDU Simple",
    "target_eligibility_quarter": "NA"
   }
  },
  {
   "type": "Feature",
   "geometry": {
    "type": "Point",
    "coordinates": [
     142.02470473,
     -36.45158729
    ]
   },
   "properties": {
    "name": "UNIT 3, 141 LLOYD STREET DIMBOOLA 3414",
    "locID": "LOC000050952549",
    "tech": "FTTC",
    "upgrade": "FTTP_NA",
    "gnaf_pid": "GAVIC411241590",
    "tech_change_status": "MDU Complex Eligible To Apply"
   }
  },
  {
   "type": "Feature",
   "geometry": {
    "type": "Point",
    "coordinates": [
     142.02930921,
     -36.45457716
    ]
   },
   "properties": {
    "name": "39 WIMMERA STREET DIMBOOLA 3414",
    "locID": "LOC000070786682",
    "tech": "FTTC",
    "upgrade": "FTTP_SA",
    "gnaf_pid": "GAVIC411242561",
    "tech_change_status": "Eligible to Order"
   }
  },
  {
   "type": "Feature",
   "geometry": {
    "type": "Point",
    "coordinates": [
     142.02886214,
     -36.45336296
    ]
   },
   "properties": {
    "name": "UNIT 2, 47 CHURCH STREET DIMBOOLA 3414",
    "locID": "LOC000011110329",
    "tech": "FTTC",
    "upgrade": "FTTP_SA",
    "gnaf_pid": "GAVIC411242564",
    "tech_change_status": "Eligible to Order"
   }
  },
  {
   "type": "Feature",
   "geometry": {
    "type": "Point",
    "coordinates": [
     142.0315175,
     -36.45912815
    ]
   },
   "properties": {
    "name": "9 DENHAM STREET DIMBOOLA 3414",
    "locID": "LOC000104687873",
    "tech": "FTTN",
    "upgrade": "FTTP_SA",
    "gnaf_pid": "GAVIC411242569",
    "tech_change_status": "Eligible to Order",
    "program_type": "On-Demand N2P SDU/MDU Simple",
    "target_eligibility_quarter": "NA"
   }
  },
  {
   "type": "Feature",
   "geometry": {
    "type": "Point",
    "coordinates": [
     142.02564181,
     -36.45141687
    ]
   },
   "properties": {
    "name": "13 NORMANBY STREET DIMBOOLA 3414",
    "locID": "LOC000124619239",
    "tech": "FTTP",
    "upgrade": "FTTP_NA",
    "gnaf_pid": "GAVIC411243141",
    "tech_change_status": "Previous Tech Disconnected",
    "program_type": "On-Demand N2P SDU/MDU Simple",
    "target_eligibility_quarter": "NA"
   }
  },
  {
   "type": "Feature",
   "geometry": {
    "type": "Point",
    "coordinates": [
     142.03535623,
     -36.45371634
    ]
   },
   "properties": {
    "name": "2 SCHOOL STREET DIMBOOLA 3414",
    "locID": "LOC000065785317",
    "tech": "WIRELESS",
    "upgrade": "NULL_NA",
    "gnaf_pid": "GAVIC411243317",
    "tech_change_status": "Not Planned",
    "program_type": "Fixed Wireless and Satellite Upgrade Program",
    "target_eligibility_quarter": "NA"
   }
  },
  {
   "type": "Feature",
   "geometry": {
    "type": "Point",
    "coordinates": [
     142.03909539,
     -36.45011148
    ]
   },
   "properties": {
    "name": "103 WIMMERA STREET DIMBOOLA 3414",
    "locID": "LOC000085404768",
    "tech": "FTTP",
    "upgrade": "FTTP_NA",
    "gnaf_pid": "GAVIC411243326",
    "tech_change_status": "Previous Tech Disconnected",
    "program_type": "On-Demand N2P SDU/MDU Simple",
    "target_eligibility_quarter": "NA"
   }
  },
  {
   "type": "Feature",
   "geometry": {
    "type": "Point",
    "coordinates": [
     142.01628695,
     -36.43806223
    ]
   },
   "properties": {
    "name": "81 NHILL ROAD DIMBOOLA 3414",
    "locID": "LOC000096717184",
    "tech": "WIRELESS",
    "upgrade": "NULL_NA",
    "gnaf_pid": "GAVIC411243425",
    "tech_change_status": "Not Planned",
    "program_type": "Fixed Wireless and Satellite Upgrade Program",
    "target_eligibility_quarter": "NA"
   }
  },
  {
   "type": "Feature",
   "geometry": {
    "type": "Point",
    "coordinates": [
     142.02484688,
     -36.45287226
    ]
   },
   "properties": {
    "name": "9 CHAPEL STREET DIMBOOLA 3414",
    "locID": "LOC000102829408",
    "tech": "FTTN",
    "upgrade": "FTTP_SA",
    "gnaf_pid": "GAVIC411244041",
    "tech_change_status": "Eligible to Order",
    "program_type": "On-Demand N2P SDU/MDU Simple",
    "target_eligibility_quarter": "NA"
   }
  },
  {
   "type": "Feature",
   "geometry": {
    "type": "Point",
    "coordinates": [
     142.02925785,
     -36.45602924
    ]
   },
   "properties": {
    "name": "15 VICTORIA STREET DIMBOOLA 3414",
    "locID": "LOC000113222842",
    "tech": "FTTC",
    "upgrade": "FTTP_SA",
    "gnaf_pid": "GAVIC411244043",
    "tech_change_status": "Eligible to Order"
   }
  },
  {
   "type": "Feature",
   "geometry": {
    "type": "Point",
    "coordinates": [
     142.02385818,
     -36.45690993
    ]
   },
   "properties": {
    "name": "1A WIMMERA STREET DIMBOOLA 3414",
    "locID": "LOC000083681232",
    "tech": "FTTC",
    "upgrade": "FTTP_SA",
    "gnaf_pid": "GAVIC411244060",
    "tech_change_status": "Eligible to Order"
   }
  },
  {
   "type": "Feature",
   "geometry": {
    "type": "Point",
    "coordinates": [
     142.04170715,
     -36.45887779
    ]
   },
   "properties": {
    "name": "9 WILLIAM STREET DIMBOOLA 3414",
    "locID": "LOC000027909888",
    "tech": "WIRELESS",
    "upgrade": "NULL_NA",
    "gnaf_pid": "GAVIC411244067",
    "tech_change_status": "Not Planned",
    "program_type": "Fixed Wireless and Satellite Upgrade Program",
    "target_eligibility_quarter": "NA"
   }
  },
  {
   "type": "Feature",
   "geometry": {
    "type": "Point",
    "coordinates": [
     142.02677144,
     -36.45474409
    ]
   },
   "properties": {
    "name": "89 LLOYD STREET DIMBOOLA 3414",
    "locID": "LOC000058771492",
    "tech": "FTTC",
    "upgrade": "FTTP_SA",
    "gnaf_pid": "GAVIC411244074",
    "tech_change_status": "Eligible to Order"
   }
  },
  {
   "type": "Feature",
   "geometry": {
    "type": "Point",
    "coordinates": [
     142.02672103,
     -36.44619429
    ]
   },
   "properties": {
    "name": "21 GEORGE STREET DIMBOOLA 3414",
    "locID": "LOC000114355289",
    "tech": "FTTP",
    "upgrade": "FTTP_NA",
    "gnaf_pid": "GAVIC411244339",
    "tech_change_status": "Previous Tech Disconnected",
    "program_type": "On-Demand N2P SDU/MDU Simple",
    "target_eligibility_quarter": "NA"
   }
  },
  {
   "type": "Feature",
   "geometry": {
    "type": "Point",
    "coordinates": [
     142.03309828,
     -36.45685081
    ]
   },
   "properties": {
    "name": "7 HINDMARSH STREET DIMBOOLA 3414",
    "locID": "LOC000018077468",
    "tech": "FTTC",
    "upgrade": "FTTP_SA",
    "gnaf_pid": "GAVIC411247039",
    "tech_change_status": "Eligible to Order"
   }
  },
  {
   "type": "Feature",
   "geometry": {
    "type": "Point",
    "coordinates": [
     142.0323721,
     -36.46057565
    ]
   },
   "properties": {
    "name": "9 PARK STREET DIMBOOLA 3414",
    "locID": "LOC000094076671",
    "tech": "FTTN",
    "upgrade": "FTTP_SA",
    "gnaf_pid": "GAVIC411247047",
    "tech_change_status": "Eligible to Order",
    "program_type": "On-Demand N2P SDU/MDU Simple",
    "target_eligibility_quarter": "NA"
   }
  },
  {
   "type": "Feature",
   "geometry": {
    "type": "Point",
    "coordinates": [
     142.0293832,
     -36.44560439
    ]
   },
   "properties": {
    "name": "120 ELLERMAN STREET DIMBOOLA 3414",
    "locID": "LOC000061840255",
    "tech": "FTTN",
    "upgrade": "FTTP",
    "gnaf_pid": "GAVIC411249712",
    "tech_change_status": "Eligible to Order",
    "program_type": "On-Demand N2P SDU/MDU Simple",
    "target_eligibility_quarter": "NA"
   }
  },
  {
   "type": "Feature",
   "geometry": {
    "type": "Point",
    "coordinates": [
     141.96860654,
     -36.37627868
    ]
   },
   "properties": {
    "name": "361 RIVER ROAD DIMBOOLA 3414",
    "locID": "LOC000010266609",
    "tech": "SATELLITE",
    "upgrade": "NULL_NA",
    "gnaf_pid": "GAVIC411249713",
    "tech_change_status": "Not Planned"
   }
  },
  {
   "type": "Feature",
   "geometry": {
    "type": "Point",
    "coordinates": [
     142.02470473,
     -36.45158729
    ]
   },
   "properties": {
    "name": "UNIT 1, 141 LLOYD STREET DIMBOOLA 3414",
    "locID": "LOC000050952549",
    "tech": "FTTC",
    "upgrade": "FTTP_NA",
    "gnaf_pid": "GAVIC411249758",
    "tech_change_status": "MDU Complex Eligible To Apply"
   }
  },
  {
   "type": "Feature",
   "geometry": {
    "type": "Point",
    "coordinates": [
     142.02410231,
     -36.45254599
    ]
   },
   "properties": {
    "name": "12 NORMANBY STREET DIMBOOLA 3414",
    "locID": "LOC000083667563",
    "tech": "FTTP",
    "upgrade": "FTTP_NA",
    "gnaf_pid": "GAVIC411249821",
    "tech_change_status": "Previous Tech Disconnected",
    "program_type": "On-Demand N2P SDU/MDU Simple",
    "target_eligibility_quarter": "NA"
   }
  },
  {
   "type": "Feature",
   "geometry": {
    "type": "Point",
    "coordinates": [
     142.02395016,
     -36.44825679
    ]
   },
   "properties": {
    "name": "4 HOPE STREET DIMBOOLA 3414",
    "locID": "LOC000003924305",
    "tech": "FTTP",
    "upgrade": "FTTP_NA",
    "gnaf_pid": "GAVIC411249836",
    "tech_change_status": "Previous Tech Disconnected",
    "program_type": "On-Demand N2P SDU/MDU Simple",
    "target_eligibility_quarter": "NA"
   }
  },
  {
   "type": "Feature",
   "geometry": {
    "type": "Point",
    "coordinates": [
     142.02071514,
     -36.44689701
    ]
   },
   "properties": {
    "name": "62 FAITH STREET DIMBOOLA 3414",
    "locID": "LOC000067029958",
    "tech": "FTTC",
    "upgrade": "FTTP_SA",
    "gnaf_pid": "GAVIC411251650",
    "tech_change_status": "Eligible to Order"
   }
  },
  {
   "type": "Feature",
   "geometry": {
    "type": "Point",
    "coordinates": [
     142.03412578,
     -36.4537362
    ]
   },
   "properties": {
    "name": "45 ELLERMAN STREET DIMBOOLA 3414",
    "locID": "LOC000034385315",
    "tech": "FTTN",
    "upgrade": "FTTP_SA",
    "gnaf_pid": "GAVIC411252026",
    "tech_change_status": "Eligible to Order",
    "program_type": "On-Demand N2P SDU/MDU Simple",
    "target_eligibility_quarter": "NA"
   }
  },
  {
   "type": "Feature",
   "geometry": {
    "type": "Point",
    "coordinates": [
     142.02526655,
     -36.45350999
    ]
   },
   "properties": {
    "name": "1A CHAPEL STREET DIMBOOLA 3414",
    "locID": "LOC000084936788",
    "tech": "FTTP",
    "upgrade": "FTTP_NA",
    "gnaf_pid": "GAVIC411253130",
    "tech_change_status": "Previous Tech Disconnected",
    "program_type": "On-Demand N2P SDU/MDU Simple",
    "target_eligibility_quarter": "NA"
   }
  },
  {
   "type": "Feature",
   "geometry": {
    "type": "Point",
    "coordinates": [
     142.02822979,
     -36.45504274
    ]
   },
   "properties": {
    "name": "27 WIMMERA STREET DIMBOOLA 3414",
    "locID": "LOC000096873836",
    "tech": "FTTP",
    "upgrade": "NULL_NA",
    "gnaf_pid": "GAVIC411253849"
   }
  },
  {
   "type": "Feature",
   "geometry": {
    "type": "Point",
    "coordinates": [
     142.1608141,
     -36.45233289
    ]
   },
   "properties": {
    "name": "990 KORNHEIM ROAD DIMBOOLA 3414",
    "locID": "LOC000001929043",
    "tech": "WIRELESS",
    "upgrade": "NULL_NA",
    "gnaf_pid": "GAVIC411253854",
    "tech_change_status": "Not Planned",
    "program_type": "Fixed Wireless and Satellite Upgrade Program",
    "target_eligibility_quarter": "Dec 2024"
   }
  },
  {
   "type": "Feature",
   "geometry": {
    "type": "Point",
    "coordinates": [
     142.0258427,
     -36.4524369
    ]
   },
   "properties": {
    "name": "UNIT 1, 132 LLOYD STREET DIMBOOLA 3414",
    "locID": "LOC000081273930",
    "tech": "FTTN",
    "upgrade": "FTTP_SA",
    "gnaf_pid": "GAVIC411253932",
    "tech_change_status": "Eligible to Order",
    "program_type": "On-Demand N2P SDU/MDU Simple",
    "target_eligibility_quarter": "NA"
   }
  },
  {
   "type": "Feature",
   "geometry": {
    "type": "Point",
    "coordinates": [
     142.03331779,
     -36.45629058
    ]
   },
   "properties": {
    "name": "12 HINDMARSH STREET DIMBOOLA 3414",
    "locID": "LOC000027708607",
    "tech": "FTTC",
    "upgrade": "FTTP_SA",
    "gnaf_pid": "GAVIC411254219",
    "tech_change_status": "Eligible to Order"
   }
  },
  {
   "type": "Feature",
   "geometry": {
    "type": "Point",
    "coordinates": [
     142.02599676,
     -36.45235757
    ]
   },
   "properties": {
    "name": "UNIT 2, 132 LLOYD STREET DIMBOOLA 3414",
    "locID": "LOC000081573143",
    "tech": "FTTN",
    "upgrade": "FTTP_SA",
    "gnaf_pid": "GAVIC411254321",
    "tech_change_status": "Eligible to Order",
    "program_type": "On-Demand N2P SDU/MDU Simple",
    "target_eligibility_quarter": "NA"
   }
  },
  {
   "type": "Feature",
   "geometry": {
    "type": "Point",
    "coordinates": [
     142.02683446,
     -36.45610893
    ]
   },
   "properties": {
    "name": "14A WIMMERA STREET DIMBOOLA 3414",
    "locID": "LOC000066394217",
    "tech": "FTTC",
    "upgrade": "FTTP_SA",
    "gnaf_pid": "GAVIC411254323",
    "tech_change_status": "Eligible to Order"
   }
  },
  {
   "type": "Feature",
   "geometry": {
    "type": "Point",
    "coordinates": [
     142.03058361,
     -36.45464136
    ]
   },
   "properties": {
    "name": "UNIT 1, 40 CHURCH STREET DIMBOOLA 3414",
    "locID": "LOC000029376211",
    "tech": "FTTC",
    "upgrade": "FTTP_NA",
    "gnaf_pid": "GAVIC411254625",
    "tech_change_status": "MDU Complex Eligible To Apply"
   }
  },
  {
   "type": "Feature",
   "geometry": {
    "type": "Point",
    "coordinates": [
     142.02424525,
     -36.44813003
    ]
   },
   "properties": {
    "name": "8 HOPE STREET DIMBOOLA 3414",
    "locID": "LOC000114819316",
    "tech": "FTTP",
    "upgrade": "FTTP_NA",
    "gnaf_pid": "GAVIC411254639",
    "tech_change_status": "Previous Tech Disconnected",
    "program_type": "On-Demand N2P SDU/MDU Simple",
    "target_eligibility_quarter": "NA"
   }
  },
  {
   "type": "Feature",
   "geometry": {
    "type": "Point",
    "coordinates": [
     142.03750259,
     -36.46181231
    ]
   },
   "properties": {
    "name": "32 ST LEONARDS AVENUE DIMBOOLA 3414",
    "locID": "LOC000062034353",
    "tech": "FTTN",
    "upgrade": "FTTP_SA",
    "gnaf_pid": "GAVIC411254778",
    "tech_change_status": "Eligible to Order",
    "program_type": "On-Demand N2P SDU/MDU Simple",
    "target_eligibility_quarter": "NA"
   }
  },
  {
   "type": "Feature",
   "geometry": {
    "type": "Point",
    "coordinates": [
     142.02365785,
     -36.45227041
    ]
   },
   "properties": {
    "name": "7 NORMANBY STREET DIMBOOLA 3414",
    "locID": "LOC000007068186",
    "tech": "FTTC",
    "upgrade": "FTTP_SA",
    "gnaf_pid": "GAVIC411255189",
    "tech_change_status": "Eligible to Order"
   }
  },
  {
   "type": "Feature",
   "geometry": {
    "type": "Point",
    "coordinates": [
     142.03050624,
     -36.45451544
    ]
   },
   "properties": {
    "name": "UNIT 2, 40 CHURCH STREET DIMBOOLA 3414",
    "locID": "LOC000029410015",
    "tech": "FTTC",
    "upgrade": "FTTP_NA",
    "gnaf_pid": "GAVIC411255223",
    "tech_change_status": "MDU Complex Eligible To Apply"
   }
  },
  {
   "type": "Feature",
   "geometry": {
    "type": "Point",
    "coordinates": [
     142.0269868,
     -36.45604393
    ]
   },
   "properties": {
    "name": "14 WIMMERA STREET DIMBOOLA 3414",
    "locID": "LOC000066394217",
    "tech": "FTTC",
    "upgrade": "FTTP_SA",
    "gnaf_pid": "GAVIC411255226",
    "tech_change_status": "Eligible to Order"
   }
  },
  {
   "type": "Feature",
   "geometry": {
    "type": "Point",
    "coordinates": [
     142.0269868,
     -36.45604393
    ]
   },
   "properties": {
    "name": "14B WIMMERA STREET DIMBOOLA 3414",
    "locID": "LOC000066448719",
    "tech": "FTTC",
    "upgrade": "FTTP_SA",
    "gnaf_pid": "GAVIC411256083",
    "tech_change_status": "Eligible to Order"
   }
  },
  {
   "type": "Feature",
   "geometry": {
    "type": "Point",
    "coordinates": [
     142.02470473,
     -36.45158729
    ]
   },
   "properties": {
    "name": "UNIT 2, 141 LLOYD STREET DIMBOOLA 3414",
    "locID": "LOC000050952549",
    "tech": "FTTC",
    "upgrade": "FTTP_NA",
    "gnaf_pid": "GAVIC411256087",
    "tech_change_status": "MDU Complex Eligible To Apply"
   }
  },
  {
   "type": "Feature",
   "geometry": {
    "type": "Point",
    "coordinates": [
     142.02076948,
     -36.44953463
    ]
   },
   "properties": {
    "name": "11 ELIZABETH STREET DIMBOOLA 3414",
    "locID": "LOC000058256731",
    "tech": "FTTC",
    "upgrade": "FTTP_SA",
    "gnaf_pid": "GAVIC411257041",
    "tech_change_status": "Eligible to Order"
   }
  },
  {
   "type": "Feature",
   "geometry": {
    "type": "Point",
    "coordinates": [
     142.03309431,
     -36.4558052
    ]
   },
   "properties": {
    "name": "16 HIGH STREET DIMBOOLA 3414",
    "locID": "LOC000044636511",
    "tech": "FTTP",
    "upgrade": "NULL_NA",
    "gnaf_pid": "GAVIC411257045"
   }
  },
  {
   "type": "Feature",
   "geometry": {
    "type": "Point",
    "coordinates": [
     142.02587139,
     -36.44743145
    ]
   },
   "properties": {
    "name": "28 HOPE STREET DIMBOOLA 3414",
    "locID": "LOC000030041033",
    "tech": "FTTN",
    "upgrade": "FTTP",
    "gnaf_pid": "GAVIC411258576",
    "tech_change_status": "Eligible to Order",
    "program_type": "On-Demand N2P SDU/MDU Simple",
    "target_eligibility_quarter": "NA"
   }
  },
  {
   "type": "Feature",
   "geometry": {
    "type": "Point",
    "coordinates": [
     142.03086283,
     -36.46011221
    ]
   },
   "properties": {
    "name": "26 LLOYD STREET DIMBOOLA 3414",
    "locID": "LOC000025068456",
    "tech": "FTTN",
    "upgrade": "FTTP_SA",
    "gnaf_pid": "GAVIC411258717",
    "tech_change_status": "Eligible to Order",
    "program_type": "On-Demand N2P SDU/MDU Simple",
    "target_eligibility_quarter": "NA"
   }
  },
  {
   "type": "Feature",
   "geometry": {
    "type": "Point",
    "coordinates": [
     142.07075682,
     -36.47671942
    ]
   },
   "properties": {
    "name": "30 EY ROAD DIMBOOLA 3414",
    "locID": "LOC000096340631",
    "tech": "WIRELESS",
    "upgrade": "NULL_NA",
    "gnaf_pid": "GAVIC411258719",
    "tech_change_status": "Not Planned",
    "program_type": "Fixed Wireless and Satellite Upgrade Program",
    "target_eligibility_quarter": "NA"
   }
  },
  {
   "type": "Feature",
   "geometry": {
    "type": "Point",
    "coordinates": [
     142.03419072,
     -36.45383586
    ]
   },
   "properties": {
    "name": "43 ELLERMAN STREET DIMBOOLA 3414",
    "locID": "LOC000030261272",
    "tech": "FTTP",
    "upgrade": "FTTP_NA",
    "gnaf_pid": "GAVIC411258924",
    "tech_change_status": "Previous Tech Disconnected",
    "program_type": "On-Demand N2P SDU/MDU Simple",
    "target_eligibility_quarter": "NA"
   }
  },
  {
   "type": "Feature",
   "geometry": {
    "type": "Point",
    "coordinates": [
     142.02732266,
     -36.4480177
    ]
   },
   "properties": {
    "name": "61 ANDERSON STREET DIMBOOLA 3414",
    "locID": "LOC000048946140",
    "tech": "FTTP",
    "upgrade": "NULL_NA",
    "gnaf_pid": "GAVIC411258930",
    "tech_change_status": "Previous Tech Disconnected",
    "program_type": "On-Demand N2P SDU/MDU Simple",
    "target_eligibility_quarter": "NA"
   }
  },
  {
   "type": "Feature",
   "geometry": {
    "type": "Point",
    "coordinates": [
     142.02337236,
     -36.44866793
    ]
   },
   "properties": {
    "name": "168 LLOYD STREET DIMBOOLA 3414",
    "locID": "LOC000114178862",
    "tech": "FTTP",
    "upgrade": "FTTP_NA",
    "gnaf_pid": "GAVIC411258931",
    "tech_change_status": "Previous Tech Disconnected",
    "program_type": "On-Demand N2P SDU/MDU Simple",
    "target_eligibility_quarter": "NA"
   }
  },
  {
   "type": "Feature",
   "geometry": {
    "type": "Point",
    "coordinates": [
     142.03779789,
     -36.46168685
    ]
   },
   "properties": {
    "name": "34 ST LEONARDS AVENUE DIMBOOLA 3414",
    "locID": "LOC000058258833",
    "tech": "FTTN",
    "upgrade": "FTTP",
    "gnaf_pid": "GAVIC411260951",
    "tech_change_status": "Eligible to Order",
    "program_type": "On-Demand N2P SDU/MDU Simple",
    "target_eligibility_quarter": "NA"
   }
  },
  {
   "type": "Feature",
   "geometry": {
    "type": "Point",
    "coordinates": [
     142.0305732,
     -36.45640704
    ]
   },
   "properties": {
    "name": "3 HIGH STREET DIMBOOLA 3414",
    "locID": "LOC000058190472",
    "tech": "FTTC",
    "upgrade": "FTTP_NA",
    "gnaf_pid": "GAVIC411260954",
    "tech_change_status": "MDU Complex Eligible To Apply"
   }
  },
  {
   "type": "Feature",
   "geometry": {
    "type": "Point",
    "coordinates": [
     142.02689794,
     -36.44646399
    ]
   },
   "properties": {
    "name": "27 GEORGE STREET DIMBOOLA 3414",
    "locID": "LOC000102321541",
    "tech": "FTTN",
    "upgrade": "FTTP_SA",
    "gnaf_pid": "GAVIC411261996",
    "tech_change_status": "Eligible to Order",
    "program_type": "On-Demand N2P SDU/MDU Simple",
    "target_eligibility_quarter": "NA"
   }
  },
  {
   "type": "Feature",
   "geometry": {
    "type": "Point",
    "coordinates": [
     142.02847083,
     -36.45481225
    ]
   },
   "properties": {
    "name": "25 VICTORIA STREET DIMBOOLA 3414",
    "locID": "LOC000030961458",
    "tech": "FTTC",
    "upgrade": "FTTP_SA",
    "gnaf_pid": "GAVIC411264101",
    "tech_change_status": "Eligible to Order"
   }
  },
  {
   "type": "Feature",
   "geometry": {
    "type": "Point",
    "coordinates": [
     142.02700198,
     -36.4490809
    ]
   },
   "properties": {
    "name": "1 MONTROSE STREET DIMBOOLA 3414",
    "locID": "LOC000060294307",
    "tech": "FTTN",
    "upgrade": "FTTP_SA",
    "gnaf_pid": "GAVIC411264111",
    "tech_change_status": "Eligible to Order",
    "program_type": "On-Demand N2P SDU/MDU Simple",
    "target_eligibility_quarter": "NA"
   }
  },
  {
   "type": "Feature",
   "geometry": {
    "type": "Point",
    "coordinates": [
     142.02347016,
     -36.45004188
    ]
   },
   "properties": {
    "name": "32-36 ANDERSON STREET DIMBOOLA 3414",
    "locID": "LOC000015951351",
    "tech": "FTTN",
    "upgrade": "FTTP_NA",
    "gnaf_pid": "GAVIC414288872",
    "tech_change_status": "MDU Complex Eligible To Apply",
    "program_type": "Customer-initiated N2P MDU Complex"
   }
  },
  {
   "type": "Feature",
   "geometry": {
    "type": "Point",
    "coordinates": [
     142.0305732,
     -36.45640704
    ]
   },
   "properties": {
    "name": "UNIT 2, 3-5 HIGH STREET DIMBOOLA 3414",
    "locID": "LOC000022074935",
    "tech": "WIRELESS",
    "upgrade": "NULL_NA",
    "gnaf_pid": "GAVIC414306218",
    "tech_change_status": "Not Planned",
    "program_type": "Fixed Wireless and Satellite Upgrade Program",
    "target_eligibility_quarter": "NA"
   }
  },
  {
   "type": "Feature",
   "geometry": {
    "type": "Point",
    "coordinates": [
     142.03163938,
     -36.45460948
    ]
   },
   "properties": {
    "name": "27 HINDMARSH STREET DIMBOOLA 3414",
    "locID": "LOC000084435279",
    "tech": "FTTC",
    "upgrade": "FTTP_SA",
    "gnaf_pid": "GAVIC414317810",
    "tech_change_status": "Eligible to Order"
   }
  },
  {
   "type": "Feature",
   "geometry": {
    "type": "Point",
    "coordinates": [
     142.04102614,
     -36.4580223
    ]
   },
   "properties": {
    "name": "16-18 MALVERN ROAD DIMBOOLA 3414",
    "locID": "LOC100078139876",
    "tech": "WIRELESS",
    "upgrade": "NULL_NA",
    "gnaf_pid": "GAVIC414323406",
    "tech_change_status": "Not Planned",
    "program_type": "Fixed Wireless and Satellite Upgrade Program",
    "target_eligibility_quarter": "NA"
   }
  },
  {
   "type": "Feature",
   "geometry": {
    "type": "Point",
    "coordinates": [
     142.02694936,
     -36.4550153
    ]
   },
   "properties": {
    "name": "77 LLOYD STREET DIMBOOLA 3414",
    "locID": "LOC000073956972",
    "tech": "FTTC",
    "upgrade": "FTTP_SA",
    "gnaf_pid": "GAVIC414323976",
    "tech_change_status": "Eligible to Order"
   }
  },
  {
   "type": "Feature",
   "geometry": {
    "type": "Point",
    "coordinates": [
     142.0274955,
     -36.45496323
    ]
   },
   "properties": {
    "name": "70 LLOYD STREET DIMBOOLA 3414",
    "locID": "LOC000062296431",
    "tech": "FTTC",
    "upgrade": "FTTP_SA",
    "gnaf_pid": "GAVIC414323980",
    "tech_change_status": "Eligible to Order"
   }
  },
  {
   "type": "Feature",
   "geometry": {
    "type": "Point",
    "coordinates": [
     142.02694936,
     -36.4550153
    ]
   },
   "properties": {
    "name": "73 LLOYD STREET DIMBOOLA 3414",
    "locID": "LOC000051088497",
    "tech": "FTTC",
    "upgrade": "FTTP_SA",
    "gnaf_pid": "GAVIC414323981",
    "tech_change_status": "Eligible to Order"
   }
  },
  {
   "type": "Feature",
   "geometry": {
    "type": "Point",
    "coordinates": [
     142.02706753,
     -36.45430974
    ]
   },
   "properties": {
    "name": "102 LLOYD STREET DIMBOOLA 3414",
    "locID": "LOC000075066638",
    "tech": "FTTP",
    "upgrade": "NULL_NA",
    "gnaf_pid": "GAVIC414323983"
   }
  },
  {
   "type": "Feature",
   "geometry": {
    "type": "Point",
    "coordinates": [
     142.03688861,
     -36.46170595
    ]
   },
   "properties": {
    "name": "29 ST LEONARDS AVENUE DIMBOOLA 3414",
    "locID": "LOC000024820470",
    "tech": "FTTN",
    "upgrade": "FTTP",
    "gnaf_pid": "GAVIC414324481",
    "tech_change_status": "New Tech Connected",
    "program_type": "On-Demand N2P SDU/MDU Simple",
    "target_eligibility_quarter": "NA"
   }
  },
  {
   "type": "Feature",
   "geometry": {
    "type": "Point",
    "coordinates": [
     142.03874057,
     -36.45689438
    ]
   },
   "properties": {
    "name": "6-26 HORSHAM ROAD DIMBOOLA 3414",
    "locID": "LOC000168751785",
    "tech": "WIRELESS",
    "upgrade": "NULL_NA",
    "gnaf_pid": "GAVIC414328474",
    "tech_change_status": "Not Planned",
    "program_type": "Fixed Wireless and Satellite Upgrade Program",
    "target_eligibility_quarter": "NA"
   }
  },
  {
   "type": "Feature",
   "geometry": {
    "type": "Point",
    "coordinates": [
     142.02694936,
     -36.4550153
    ]
   },
   "properties": {
    "name": "75 LLOYD STREET DIMBOOLA 3414",
    "locID": "LOC000101342208",
    "tech": "FTTC",
    "upgrade": "FTTP_SA",
    "gnaf_pid": "GAVIC414329209",
    "tech_change_status": "Eligible to Order"
   }
  },
  {
   "type": "Feature",
   "geometry": {
    "type": "Point",
    "coordinates": [
     142.02788151,
     -36.45644008
    ]
   },
   "properties": {
    "name": "57 LLOYD STREET DIMBOOLA 3414",
    "locID": "LOC000057841400",
    "tech": "FTTC",
    "upgrade": "FTTP_SA",
    "gnaf_pid": "GAVIC414329216",
    "tech_change_status": "Eligible to Order"
   }
  },
  {
   "type": "Feature",
   "geometry": {
    "type": "Point",
    "coordinates": [
     142.02632239,
     -36.45405957
    ]
   },
   "properties": {
    "name": "113 LLOYD STREET DIMBOOLA 3414",
    "locID": "LOC000071886496",
    "tech": "FTTC",
    "upgrade": "FTTP_SA",
    "gnaf_pid": "GAVIC414329221",
    "tech_change_status": "Eligible to Order"
   }
  },
  {
   "type": "Feature",
   "geometry": {
    "type": "Point",
    "coordinates": [
     142.02431582,
     -36.45010142
    ]
   },
   "properties": {
    "name": "154-158 LLOYD STREET DIMBOOLA 3414",
    "locID": "LOC000022575058",
    "tech": "FTTP",
    "upgrade": "FTTP_NA",
    "gnaf_pid": "GAVIC414329223",
    "tech_change_status": "Previous Tech Disconnected",
    "program_type": "On-Demand N2P SDU/MDU Simple",
    "target_eligibility_quarter": "NA"
   }
  },
  {
   "type": "Feature",
   "geometry": {
    "type": "Point",
    "coordinates": [
     142.02704378,
     -36.45318897
    ]
   },
   "properties": {
    "name": "15-19 LOCHIEL STREET DIMBOOLA 3414",
    "locID": "LOC000006991826",
    "tech": "FTTN",
    "upgrade": "FTTP_SA",
    "gnaf_pid": "GAVIC414329243",
    "tech_change_status": "Eligible to Order",
    "program_type": "On-Demand N2P SDU/MDU Simple",
    "target_eligibility_quarter": "NA"
   }
  },
  {
   "type": "Feature",
   "geometry": {
    "type": "Point",
    "coordinates": [
     142.04101202,
     -36.4593145
    ]
   },
   "properties": {
    "name": "7 WILLIAM STREET DIMBOOLA 3414",
    "locID": "LOC000079936920",
    "tech": "WIRELESS",
    "upgrade": "NULL_NA",
    "gnaf_pid": "GAVIC414330773",
    "tech_change_status": "Not Planned",
    "program_type": "Fixed Wireless and Satellite Upgrade Program",
    "target_eligibility_quarter": "NA"
   }
  },
  {
   "type": "Feature",
   "geometry": {
    "type": "Point",
    "coordinates": [
     142.04207645,
     -36.45864578
    ]
   },
   "properties": {
    "name": "11 WILLIAM STREET DIMBOOLA 3414",
    "locID": "LOC000003499607",
    "tech": "WIRELESS",
    "upgrade": "NULL_NA",
    "gnaf_pid": "GAVIC414330774",
    "tech_change_status": "Not Planned",
    "program_type": "Fixed Wireless and Satellite Upgrade Program",
    "target_eligibility_quarter": "NA"
   }
  },
  {
   "type": "Feature",
   "geometry": {
    "type": "Point",
    "coordinates": [
     142.04262073,
     -36.45825182
    ]
   },
   "properties": {
    "name": "15 WILLIAM STREET DIMBOOLA 3414",
    "locID": "LOC000073072908",
    "tech": "WIRELESS",
    "upgrade": "NULL_NA",
    "gnaf_pid": "GAVIC414330778",
    "tech_change_status": "Not Planned",
    "program_type": "Fixed Wireless and Satellite Upgrade Program",
    "target_eligibility_quarter": "NA"
   }
  },
  {
   "type": "Feature",
   "geometry": {
    "type": "Point",
    "coordinates": [
     142.03994418,
     -36.45951126
    ]
   },
   "properties": {
    "name": "2 WILLIAM STREET DIMBOOLA 3414",
    "locID": "LOC000070394017",
    "tech": "WIRELESS",
    "upgrade": "NULL_NA",
    "gnaf_pid": "GAVIC414330779",
    "tech_change_status": "Not Planned",
    "program_type": "Fixed Wireless and Satellite Upgrade Program",
    "target_eligibility_quarter": "NA"
   }
  },
  {
   "type": "Feature",
   "geometry": {
    "type": "Point",
    "coordinates": [
     142.01529813,
     -36.44917252
    ]
   },
   "properties": {
    "name": "4 FAITH STREET DIMBOOLA 3414",
    "locID": "LOC000073855371",
    "tech": "FTTC",
    "upgrade": "FTTP_SA",
    "gnaf_pid": "GAVIC419674994",
    "tech_change_status": "Eligible to Order"
   }
  },
  {
   "type": "Feature",
   "geometry": {
    "type": "Point",
    "coordinates": [
     142.03195715,
     -36.45673078
    ]
   },
   "properties": {
    "name": "24 CHURCH STREET DIMBOOLA 3414",
    "locID": "LOC000082331599",
    "tech": "FTTC",
    "upgrade": "FTTP_SA",
    "gnaf_pid": "GAVIC419674998",
    "tech_change_status": "Eligible to Order"
   }
  },
  {
   "type": "Feature",
   "geometry": {
    "type": "Point",
    "coordinates": [
     142.03388349,
     -36.45715948
    ]
   },
   "properties": {
    "name": "2 HINDMARSH STREET DIMBOOLA 3414",
    "locID": "LOC000059438938",
    "tech": "FTTC",
    "upgrade": "FTTP_SA",
    "gnaf_pid": "GAVIC419674999",
    "tech_change_status": "Eligible to Order"
   }
  },
  {
   "type": "Feature",
   "geometry": {
    "type": "Point",
    "coordinates": [
     142.03644725,
     -36.45821177
    ]
   },
   "properties": {
    "name": "24 UPPER REGIONS STREET DIMBOOLA 3414",
    "locID": "LOC000038606066",
    "tech": "WIRELESS",
    "upgrade": "NULL_NA",
    "gnaf_pid": "GAVIC419675001",
    "tech_change_status": "Not Planned",
    "program_type": "Fixed Wireless and Satellite Upgrade Program",
    "target_eligibility_quarter": "NA"
   }
  },
  {
   "type": "Feature",
   "geometry": {
    "type": "Point",
    "coordinates": [
     142.03563641,
     -36.45515839
    ]
   },
   "properties": {
    "name": "32 ELLERMAN STREET DIMBOOLA 3414",
    "locID": "LOC000124558839",
    "tech": "WIRELESS",
    "upgrade": "NULL_NA",
    "gnaf_pid": "GAVIC419675002",
    "tech_change_status": "Not Planned",
    "program_type": "Fixed Wireless and Satellite Upgrade Program",
    "target_eligibility_quarter": "NA"
   }
  },
  {
   "type": "Feature",
   "geometry": {
    "type": "Point",
    "coordinates": [
     142.02964471,
     -36.45825156
    ]
   },
   "properties": {
    "name": "38 LLOYD STREET DIMBOOLA 3414",
    "locID": "LOC000104529161",
    "tech": "FTTC",
    "upgrade": "FTTP_SA",
    "gnaf_pid": "GAVIC419675003",
    "tech_change_status": "Eligible to Order"
   }
  },
  {
   "type": "Feature",
   "geometry": {
    "type": "Point",
    "coordinates": [
     142.03291883,
     -36.4580114
    ]
   },
   "properties": {
    "name": "18 MCDONALD STREET DIMBOOLA 3414",
    "locID": "LOC000030150098",
    "tech": "WIRELESS",
    "upgrade": "FTTC",
    "gnaf_pid": "GAVIC419675004",
    "tech_change_status": "Eligible to Order"
   }
  },
  {
   "type": "Feature",
   "geometry": {
    "type": "Point",
    "coordinates": [
     142.03087116,
     -36.46168327
    ]
   },
   "properties": {
    "name": "4 PARK STREET DIMBOOLA 3414",
    "locID": "LOC000094070007",
    "tech": "FTTN",
    "upgrade": "FTTP_SA",
    "gnaf_pid": "GAVIC419675007",
    "tech_change_status": "Eligible to Order",
    "program_type": "On-Demand N2P SDU/MDU Simple",
    "target_eligibility_quarter": "NA"
   }
  },
  {
   "type": "Feature",
   "geometry": {
    "type": "Point",
    "coordinates": [
     142.03704262,
     -36.45115773
    ]
   },
   "properties": {
    "name": "81 WIMMERA STREET DIMBOOLA 3414",
    "locID": "LOC000044726737",
    "tech": "FTTP",
    "upgrade": "NULL_NA",
    "gnaf_pid": "GAVIC419675691",
    "program_type": "On-Demand N2P SDU/MDU Simple",
    "target_eligibility_quarter": "NA"
   }
  },
  {
   "type": "Feature",
   "geometry": {
    "type": "Point",
    "coordinates": [
     142.02851254,
     -36.4451655
    ]
   },
   "properties": {
    "name": "131 ELLERMAN STREET DIMBOOLA 3414",
    "locID": "LOC000016869040",
    "tech": "FTTN",
    "upgrade": "FTTP_SA",
    "gnaf_pid": "GAVIC419675882",
    "tech_change_status": "Eligible to Order",
    "program_type": "On-Demand N2P SDU/MDU Simple",
    "target_eligibility_quarter": "NA"
   }
  },
  {
   "type": "Feature",
   "geometry": {
    "type": "Point",
    "coordinates": [
     142.02983503,
     -36.44718061
    ]
   },
   "properties": {
    "name": "101 ELLERMAN STREET DIMBOOLA 3414",
    "locID": "LOC000030961064",
    "tech": "FTTN",
    "upgrade": "FTTP_SA",
    "gnaf_pid": "GAVIC419675883",
    "tech_change_status": "Eligible to Order",
    "program_type": "On-Demand N2P SDU/MDU Simple",
    "target_eligibility_quarter": "NA"
   }
  },
  {
   "type": "Feature",
   "geometry": {
    "type": "Point",
    "coordinates": [
     142.03486115,
     -36.45230789
    ]
   },
   "properties": {
    "name": "61 WIMMERA STREET DIMBOOLA 3414",
    "locID": "LOC000028035815",
    "tech": "FTTN",
    "upgrade": "FTTP_SA",
    "gnaf_pid": "GAVIC419675884",
    "tech_change_status": "Eligible to Order",
    "program_type": "On-Demand N2P SDU/MDU Simple",
    "target_eligibility_quarter": "NA"
   }
  },
  {
   "type": "Feature",
   "geometry": {
    "type": "Point",
    "coordinates": [
     142.03018595,
     -36.45147505
    ]
   },
   "properties": {
    "name": "32 HINDMARSH STREET DIMBOOLA 3414",
    "locID": "LOC000067018202",
    "tech": "FTTP",
    "upgrade": "NULL_NA",
    "gnaf_pid": "GAVIC419675885",
    "program_type": "On-Demand N2P SDU/MDU Simple",
    "target_eligibility_quarter": "NA"
   }
  },
  {
   "type": "Feature",
   "geometry": {
    "type": "Point",
    "coordinates": [
     142.02865003,
     -36.45165551
    ]
   },
   "properties": {
    "name": "50 CHURCH STREET DIMBOOLA 3414",
    "locID": "LOC000018531121",
    "tech": "FTTN",
    "upgrade": "FTTP",
    "gnaf_pid": "GAVIC419675886",
    "tech_change_status": "Eligible to Order",
    "program_type": "On-Demand N2P SDU/MDU Simple",
    "target_eligibility_quarter": "NA"
   }
  },
  {
   "type": "Feature",
   "geometry": {
    "type": "Point",
    "coordinates": [
     142.02773483,
     -36.45621598
    ]
   },
   "properties": {
    "name": "59 LLOYD STREET DIMBOOLA 3414",
    "locID": "LOC000042483128",
    "tech": "FTTC",
    "upgrade": "FTTP_SA",
    "gnaf_pid": "GAVIC419675888",
    "tech_change_status": "Eligible to Order"
   }
  },
  {
   "type": "Feature",
   "geometry": {
    "type": "Point",
    "coordinates": [
     142.03493659,
     -36.45151991
    ]
   },
   "properties": {
    "name": "3 SCHOOL STREET DIMBOOLA 3414",
    "locID": "LOC100074373580",
    "tech": "FTTN",
    "upgrade": "FTTP_SA",
    "gnaf_pid": "GAVIC419675890",
    "tech_change_status": "Eligible to Order",
    "program_type": "On-Demand N2P SDU/MDU Simple",
    "target_eligibility_quarter": "NA"
   }
  },
  {
   "type": "Feature",
   "geometry": {
    "type": "Point",
    "coordinates": [
     142.03788026,
     -36.4547997
    ]
   },
   "properties": {
    "name": "2 NEW STREET DIMBOOLA 3414",
    "locID": "LOC000016141340",
    "tech": "WIRELESS",
    "upgrade": "NULL_NA",
    "gnaf_pid": "GAVIC419721709",
    "tech_change_status": "Not Planned",
    "program_type": "Fixed Wireless and Satellite Upgrade Program",
    "target_eligibility_quarter": "NA"
   }
  },
  {
   "type": "Feature",
   "geometry": {
    "type": "Point",
    "coordinates": [
     142.02721956,
     -36.45074188
    ]
   },
   "properties": {
    "name": "25 NORMANBY STREET DIMBOOLA 3414",
    "locID": "LOC000063734950",
    "tech": "FTTP",
    "upgrade": "FTTP_NA",
    "gnaf_pid": "GAVIC419722261",
    "tech_change_status": "Previous Tech Disconnected",
    "program_type": "On-Demand N2P SDU/MDU Simple",
    "target_eligibility_quarter": "NA"
   }
  },
  {
   "type": "Feature",
   "geometry": {
    "type": "Point",
    "coordinates": [
     142.03095824,
     -36.45624097
    ]
   },
   "properties": {
    "name": "7 HIGH STREET DIMBOOLA 3414",
    "locID": "LOC000069094796",
    "tech": "FTTC",
    "upgrade": "FTTP_SA",
    "gnaf_pid": "GAVIC419722265",
    "tech_change_status": "Eligible to Order"
   }
  },
  {
   "type": "Feature",
   "geometry": {
    "type": "Point",
    "coordinates": [
     142.0268604,
     -36.45399331
    ]
   },
   "properties": {
    "name": "112-114 LLOYD STREET DIMBOOLA 3414",
    "locID": "LOC000016074582",
    "tech": "FTTC",
    "upgrade": "FTTP_SA",
    "gnaf_pid": "GAVIC419725265",
    "tech_change_status": "Eligible to Order"
   }
  },
  {
   "type": "Feature",
   "geometry": {
    "type": "Point",
    "coordinates": [
     142.02249111,
     -36.44733095
    ]
   },
   "properties": {
    "name": "182 LLOYD STREET DIMBOOLA 3414",
    "locID": "LOC000057425339",
    "tech": "FTTN",
    "upgrade": "FTTP_SA",
    "gnaf_pid": "GAVIC419725271",
    "tech_change_status": "Eligible to Order",
    "program_type": "On-Demand N2P SDU/MDU Simple",
    "target_eligibility_quarter": "NA"
   }
  },
  {
   "type": "Feature",
   "geometry": {
    "type": "Point",
    "coordinates": [
     142.0277726,
     -36.4512001
    ]
   },
   "properties": {
    "name": "63 CHURCH STREET DIMBOOLA 3414",
    "locID": "LOC000092019136",
    "tech": "FTTP",
    "upgrade": "FTTP_NA",
    "gnaf_pid": "GAVIC419726592",
    "tech_change_status": "Previous Tech Disconnected",
    "program_type": "On-Demand N2P SDU/MDU Simple",
    "target_eligibility_quarter": "NA"
   }
  },
  {
   "type": "Feature",
   "geometry": {
    "type": "Point",
    "coordinates": [
     142.03589315,
     -36.4554415
    ]
   },
   "properties": {
    "name": "1 HORSHAM ROAD DIMBOOLA 3414",
    "locID": "LOC000100893991",
    "tech": "WIRELESS",
    "upgrade": "NULL_NA",
    "gnaf_pid": "GAVIC419727459",
    "tech_change_status": "Not Planned",
    "program_type": "Fixed Wireless and Satellite Upgrade Program",
    "target_eligibility_quarter": "NA"
   }
  },
  {
   "type": "Feature",
   "geometry": {
    "type": "Point",
    "coordinates": [
     142.03069923,
     -36.45570208
    ]
   },
   "properties": {
    "name": "27 CHURCH STREET DIMBOOLA 3414",
    "locID": "LOC000014689282",
    "tech": "FTTC",
    "upgrade": "FTTP_SA",
    "gnaf_pid": "GAVIC419733982",
    "tech_change_status": "Eligible to Order"
   }
  },
  {
   "type": "Feature",
   "geometry": {
    "type": "Point",
    "coordinates": [
     142.03252242,
     -36.45849391
    ]
   },
   "properties": {
    "name": "15 CHURCH STREET DIMBOOLA 3414",
    "locID": "LOC000071568000",
    "tech": "FTTC",
    "upgrade": "FTTP_SA",
    "gnaf_pid": "GAVIC419733984",
    "tech_change_status": "Eligible to Order"
   }
  },
  {
   "type": "Feature",
   "geometry": {
    "type": "Point",
    "coordinates": [
     142.03239956,
     -36.45487768
    ]
   },
   "properties": {
    "name": "22 HINDMARSH STREET DIMBOOLA 3414",
    "locID": "LOC000056672448",
    "tech": "FTTC",
    "upgrade": "FTTP_SA",
    "gnaf_pid": "GAVIC419734509",
    "tech_change_status": "Eligible to Order"
   }
  },
  {
   "type": "Feature",
   "geometry": {
    "type": "Point",
    "coordinates": [
     142.0285485,
     -36.4515
    ]
   },
   "properties": {
    "name": "52 CHURCH STREET DIMBOOLA 3414",
    "locID": "LOC000065577488",
    "tech": "FTTN",
    "upgrade": "FTTP",
    "gnaf_pid": "GAVIC419734513",
    "tech_change_status": "Eligible to Order",
    "program_type": "On-Demand N2P SDU/MDU Simple",
    "target_eligibility_quarter": "NA"
   }
  },
  {
   "type": "Feature",
   "geometry": {
    "type": "Point",
    "coordinates": [
     142.02870821,
     -36.45010621
    ]
   },
   "properties": {
    "name": "35 NORMANBY STREET DIMBOOLA 3414",
    "locID": "LOC000042587089",
    "tech": "FTTN",
    "upgrade": "FTTP_SA",
    "gnaf_pid": "GAVIC419734515",
    "tech_change_status": "Eligible to Order",
    "program_type": "On-Demand N2P SDU/MDU Simple",
    "target_eligibility_quarter": "NA"
   }
  },
  {
   "type": "Feature",
   "geometry": {
    "type": "Point",
    "coordinates": [
     142.02873587,
     -36.45686501
    ]
   },
   "properties": {
    "name": "46 LLOYD STREET DIMBOOLA 3414",
    "locID": "LOC000046542064",
    "tech": "FTTC",
    "upgrade": "FTTP_SA",
    "gnaf_pid": "GAVIC419735766",
    "tech_change_status": "Eligible to Order"
   }
  },
  {
   "type": "Feature",
   "geometry": {
    "type": "Point",
    "coordinates": [
     142.02919483,
     -36.45339181
    ]
   },
   "properties": {
    "name": "45 CHURCH STREET DIMBOOLA 3414",
    "locID": "LOC000059448770",
    "tech": "FTTC",
    "upgrade": "FTTP_SA",
    "gnaf_pid": "GAVIC419735768",
    "tech_change_status": "Eligible to Order"
   }
  },
  {
   "type": "Feature",
   "geometry": {
    "type": "Point",
    "coordinates": [
     142.02855841,
     -36.45405669
    ]
   },
   "properties": {
    "name": "36-38 VICTORIA STREET DIMBOOLA 3414",
    "locID": "LOC000124558904",
    "tech": "FTTP",
    "upgrade": "NULL_NA",
    "gnaf_pid": "GAVIC419735769"
   }
  },
  {
   "type": "Feature",
   "geometry": {
    "type": "Point",
    "coordinates": [
     142.0262006,
     -36.4454009
    ]
   },
   "properties": {
    "name": "31 GEORGE STREET DIMBOOLA 3414",
    "locID": "LOC000044756642",
    "tech": "FTTN",
    "upgrade": "FTTP_SA",
    "gnaf_pid": "GAVIC419743555",
    "tech_change_status": "Eligible to Order",
    "program_type": "On-Demand N2P SDU/MDU Simple",
    "target_eligibility_quarter": "NA"
   }
  },
  {
   "type": "Feature",
   "geometry": {
    "type": "Point",
    "coordinates": [
     142.0256225,
     -36.4504817
    ]
   },
   "properties": {
    "name": "8 ACACIA STREET DIMBOOLA 3414",
    "locID": "LOC000024274515",
    "tech": "FTTP",
    "upgrade": "FTTP_NA",
    "gnaf_pid": "GAVIC419743557",
    "tech_change_status": "Previous Tech Disconnected",
    "program_type": "On-Demand N2P SDU/MDU Simple",
    "target_eligibility_quarter": "NA"
   }
  },
  {
   "type": "Feature",
   "geometry": {
    "type": "Point",
    "coordinates": [
     142.025591,
     -36.45293623
    ]
   },
   "properties": {
    "name": "127 LLOYD STREET DIMBOOLA 3414",
    "locID": "LOC000067707535",
    "tech": "FTTP",
    "upgrade": "FTTP_NA",
    "gnaf_pid": "GAVIC419766761",
    "tech_change_status": "Previous Tech Disconnected",
    "program_type": "On-Demand N2P SDU/MDU Simple",
    "target_eligibility_quarter": "NA"
   }
  },
  {
   "type": "Feature",
   "geometry": {
    "type": "Point",
    "coordinates": [
     142.03071015,
     -36.45444845
    ]
   },
   "properties": {
    "name": "42 WIMMERA STREET DIMBOOLA 3414",
    "locID": "LOC000039473562",
    "tech": "FTTC",
    "upgrade": "FTTP_SA",
    "gnaf_pid": "GAVIC419766765",
    "tech_change_status": "Eligible to Order"
   }
  },
  {
   "type": "Feature",
   "geometry": {
    "type": "Point",
    "coordinates": [
     142.025234,
     -36.44891066
    ]
   },
   "properties": {
    "name": "41 ANDERSON STREET DIMBOOLA 3414",
    "locID": "LOC000083620061",
    "tech": "FTTN",
    "upgrade": "FTTP_SA",
    "gnaf_pid": "GAVIC419767517",
    "tech_change_status": "Eligible to Order",
    "program_type": "On-Demand N2P SDU/MDU Simple",
    "target_eligibility_quarter": "NA"
   }
  },
  {
   "type": "Feature",
   "geometry": {
    "type": "Point",
    "coordinates": [
     142.02598151,
     -36.44859109
    ]
   },
   "properties": {
    "name": "49 ANDERSON STREET DIMBOOLA 3414",
    "locID": "LOC000092646374",
    "tech": "FTTN",
    "upgrade": "FTTP_SA",
    "gnaf_pid": "GAVIC419767518",
    "tech_change_status": "Eligible to Order",
    "program_type": "On-Demand N2P SDU/MDU Simple",
    "target_eligibility_quarter": "NA"
   }
  },
  {
   "type": "Feature",
   "geometry": {
    "type": "Point",
    "coordinates": [
     142.02633406,
     -36.44844037
    ]
   },
   "properties": {
    "name": "55 ANDERSON STREET DIMBOOLA 3414",
    "locID": "LOC000010274169",
    "tech": "FTTN",
    "upgrade": "FTTP_SA",
    "gnaf_pid": "GAVIC419767519",
    "tech_change_status": "Eligible to Order",
    "program_type": "On-Demand N2P SDU/MDU Simple",
    "target_eligibility_quarter": "NA"
   }
  },
  {
   "type": "Feature",
   "geometry": {
    "type": "Point",
    "coordinates": [
     142.0270164,
     -36.44693953
    ]
   },
   "properties": {
    "name": "36 HOPE STREET DIMBOOLA 3414",
    "locID": "LOC000056732361",
    "tech": "FTTP",
    "upgrade": "FTTP_NA",
    "gnaf_pid": "GAVIC419767522",
    "tech_change_status": "Previous Tech Disconnected",
    "program_type": "On-Demand N2P SDU/MDU Simple",
    "target_eligibility_quarter": "NA"
   }
  },
  {
   "type": "Feature",
   "geometry": {
    "type": "Point",
    "coordinates": [
     142.02479939,
     -36.45083985
    ]
   },
   "properties": {
    "name": "148 LLOYD STREET DIMBOOLA 3414",
    "locID": "LOC000094178617",
    "tech": "FTTP",
    "upgrade": "FTTP_NA",
    "gnaf_pid": "GAVIC419767523",
    "tech_change_status": "Previous Tech Disconnected",
    "program_type": "On-Demand N2P SDU/MDU Simple",
    "target_eligibility_quarter": "NA"
   }
  },
  {
   "type": "Feature",
   "geometry": {
    "type": "Point",
    "coordinates": [
     142.02526068,
     -36.4492738
    ]
   },
   "properties": {
    "name": "40 ANDERSON STREET DIMBOOLA 3414",
    "locID": "LOC000098895780",
    "tech": "FTTN",
    "upgrade": "FTTP_SA",
    "gnaf_pid": "GAVIC419767527",
    "tech_change_status": "Eligible to Order",
    "program_type": "On-Demand N2P SDU/MDU Simple",
    "target_eligibility_quarter": "NA"
   }
  },
  {
   "type": "Feature",
   "geometry": {
    "type": "Point",
    "coordinates": [
     142.0267434,
     -36.45470135
    ]
   },
   "properties": {
    "name": "91 LLOYD STREET DIMBOOLA 3414",
    "locID": "LOC000071981535",
    "tech": "FTTP",
    "upgrade": "NULL_NA",
    "gnaf_pid": "GAVIC419772095"
   }
  },
  {
   "type": "Feature",
   "geometry": {
    "type": "Point",
    "coordinates": [
     142.02682259,
     -36.45482205
    ]
   },
   "properties": {
    "name": "85 LLOYD STREET DIMBOOLA 3414",
    "locID": "LOC000081900294",
    "tech": "FTTC",
    "upgrade": "FTTP_SA",
    "gnaf_pid": "GAVIC419772096",
    "tech_change_status": "Eligible to Order"
   }
  },
  {
   "type": "Feature",
   "geometry": {
    "type": "Point",
    "coordinates": [
     142.02719413,
     -36.45450305
    ]
   },
   "properties": {
    "name": "92 LLOYD STREET DIMBOOLA 3414",
    "locID": "LOC000012134205",
    "tech": "FTTC",
    "upgrade": "FTTP_SA",
    "gnaf_pid": "GAVIC419772100",
    "tech_change_status": "Eligible to Order"
   }
  },
  {
   "type": "Feature",
   "geometry": {
    "type": "Point",
    "coordinates": [
     142.03631761,
     -36.45204605
    ]
   },
   "properties": {
    "name": "72 WIMMERA STREET DIMBOOLA 3414",
    "locID": "LOC000015240133",
    "tech": "FTTP",
    "upgrade": "NULL_NA",
    "gnaf_pid": "GAVIC419773563",
    "program_type": "On-Demand N2P SDU/MDU Simple",
    "target_eligibility_quarter": "NA"
   }
  },
  {
   "type": "Feature",
   "geometry": {
    "type": "Point",
    "coordinates": [
     142.03671531,
     -36.45187613
    ]
   },
   "properties": {
    "name": "76 WIMMERA STREET DIMBOOLA 3414",
    "locID": "LOC000027733045",
    "tech": "FTTN",
    "upgrade": "FTTP_SA",
    "gnaf_pid": "GAVIC419773565",
    "tech_change_status": "Eligible to Order",
    "program_type": "On-Demand N2P SDU/MDU Simple",
    "target_eligibility_quarter": "NA"
   }
  },
  {
   "type": "Feature",
   "geometry": {
    "type": "Point",
    "coordinates": [
     142.03322601,
     -36.4523555
    ]
   },
   "properties": {
    "name": "55 ELLERMAN STREET DIMBOOLA 3414",
    "locID": "LOC000066211931",
    "tech": "FTTP",
    "upgrade": "FTTP_NA",
    "gnaf_pid": "GAVIC419773568",
    "tech_change_status": "Previous Tech Disconnected",
    "program_type": "On-Demand N2P SDU/MDU Simple",
    "target_eligibility_quarter": "NA"
   }
  },
  {
   "type": "Feature",
   "geometry": {
    "type": "Point",
    "coordinates": [
     142.02339487,
     -36.44970856
    ]
   },
   "properties": {
    "name": "161 LLOYD STREET DIMBOOLA 3414",
    "locID": "LOC000073485407",
    "tech": "FTTC",
    "upgrade": "FTTP_SA",
    "gnaf_pid": "GAVIC419773835",
    "tech_change_status": "Eligible to Order"
   }
  },
  {
   "type": "Feature",
   "geometry": {
    "type": "Point",
    "coordinates": [
     142.02386069,
     -36.45030521
    ]
   },
   "properties": {
    "name": "155 LLOYD STREET DIMBOOLA 3414",
    "locID": "LOC000102201603",
    "tech": "FTTC",
    "upgrade": "FTTP_SA",
    "gnaf_pid": "GAVIC419773836",
    "tech_change_status": "Eligible to Order"
   }
  },
  {
   "type": "Feature",
   "geometry": {
    "type": "Point",
    "coordinates": [
     142.02247325,
     -36.45047016
    ]
   },
   "properties": {
    "name": "22 ANDERSON STREET DIMBOOLA 3414",
    "locID": "LOC000077252920",
    "tech": "FTTC",
    "upgrade": "FTTP_SA",
    "gnaf_pid": "GAVIC419773838",
    "tech_change_status": "Eligible to Order"
   }
  },
  {
   "type": "Feature",
   "geometry": {
    "type": "Point",
    "coordinates": [
     142.02229911,
     -36.45054482
    ]
   },
   "properties": {
    "name": "20 ANDERSON STREET DIMBOOLA 3414",
    "locID": "LOC000020233623",
    "tech": "FTTC",
    "upgrade": "FTTP_SA",
    "gnaf_pid": "GAVIC419773839",
    "tech_change_status": "Eligible to Order"
   }
  },
  {
   "type": "Feature",
   "geometry": {
    "type": "Point",
    "coordinates": [
     142.02125019,
     -36.44983775
    ]
   },
   "properties": {
    "name": "10 ELIZABETH STREET DIMBOOLA 3414",
    "locID": "LOC000098252888",
    "tech": "FTTC",
    "upgrade": "FTTP_SA",
    "gnaf_pid": "GAVIC419774564",
    "tech_change_status": "Eligible to Order"
   }
  },
  {
   "type": "Feature",
   "geometry": {
    "type": "Point",
    "coordinates": [
     142.02134163,
     -36.44942755
    ]
   },
   "properties": {
    "name": "5 ELIZABETH STREET DIMBOOLA 3414",
    "locID": "LOC000014791143",
    "tech": "FTTC",
    "upgrade": "FTTP_SA",
    "gnaf_pid": "GAVIC419774571",
    "tech_change_status": "Eligible to Order"
   }
  },
  {
   "type": "Feature",
   "geometry": {
    "type": "Point",
    "coordinates": [
     142.0224925,
     -36.44821879
    ]
   },
   "properties": {
    "name": "177 LLOYD STREET DIMBOOLA 3414",
    "locID": "LOC000060260091",
    "tech": "FTTC",
    "upgrade": "FTTP_SA",
    "gnaf_pid": "GAVIC419774574",
    "tech_change_status": "Eligible to Order"
   }
  },
  {
   "type": "Feature",
   "geometry": {
    "type": "Point",
    "coordinates": [
     142.02220822,
     -36.44937002
    ]
   },
   "properties": {
    "name": "4 ANNA STREET DIMBOOLA 3414",
    "locID": "LOC000045022958",
    "tech": "FTTC",
    "upgrade": "FTTP_SA",
    "gnaf_pid": "GAVIC419774575",
    "tech_change_status": "Eligible to Order"
   }
  },
  {
   "type": "Feature",
   "geometry": {
    "type": "Point",
    "coordinates": [
     142.02289178,
     -36.4499227
    ]
   },
   "properties": {
    "name": "25 ANDERSON STREET DIMBOOLA 3414",
    "locID": "LOC000102480820",
    "tech": "FTTC",
    "upgrade": "FTTP_SA",
    "gnaf_pid": "GAVIC419774576",
    "tech_change_status": "Eligible to Order"
   }
  },
  {
   "type": "Feature",
   "geometry": {
    "type": "Point",
    "coordinates": [
     142.03202715,
     -36.4543049
    ]
   },
   "properties": {
    "name": "26 HINDMARSH STREET DIMBOOLA 3414",
    "locID": "LOC000015948727",
    "tech": "FTTC",
    "upgrade": "FTTP_SA",
    "gnaf_pid": "GAVIC419781889",
    "tech_change_status": "Eligible to Order"
   }
  },
  {
   "type": "Feature",
   "geometry": {
    "type": "Point",
    "coordinates": [
     142.02213814,
     -36.45061385
    ]
   },
   "properties": {
    "name": "18 ANDERSON STREET DIMBOOLA 3414",
    "locID": "LOC000105841667",
    "tech": "FTTC",
    "upgrade": "FTTP_SA",
    "gnaf_pid": "GAVIC419783573",
    "tech_change_status": "Eligible to Order"
   }
  },
  {
   "type": "Feature",
   "geometry": {
    "type": "Point",
    "coordinates": [
     142.02583366,
     -36.44484145
    ]
   },
   "properties": {
    "name": "37 GEORGE STREET DIMBOOLA 3414",
    "locID": "LOC000087245484",
    "tech": "FTTN",
    "upgrade": "FTTP_SA",
    "gnaf_pid": "GAVIC419783576",
    "tech_change_status": "Eligible to Order",
    "program_type": "On-Demand N2P SDU/MDU Simple",
    "target_eligibility_quarter": "NA"
   }
  },
  {
   "type": "Feature",
   "geometry": {
    "type": "Point",
    "coordinates": [
     142.0237026,
     -36.44799189
    ]
   },
   "properties": {
    "name": "3 HOPE STREET DIMBOOLA 3414",
    "locID": "LOC000045562768",
    "tech": "FTTP",
    "upgrade": "FTTP_NA",
    "gnaf_pid": "GAVIC419783581",
    "tech_change_status": "Previous Tech Disconnected",
    "program_type": "On-Demand N2P SDU/MDU Simple",
    "target_eligibility_quarter": "NA"
   }
  },
  {
   "type": "Feature",
   "geometry": {
    "type": "Point",
    "coordinates": [
     142.02450864,
     -36.4476456
    ]
   },
   "properties": {
    "name": "11 HOPE STREET DIMBOOLA 3414",
    "locID": "LOC000067907568",
    "tech": "FTTN",
    "upgrade": "FTTP",
    "gnaf_pid": "GAVIC419783583",
    "tech_change_status": "Eligible to Order",
    "program_type": "On-Demand N2P SDU/MDU Simple",
    "target_eligibility_quarter": "NA"
   }
  },
  {
   "type": "Feature",
   "geometry": {
    "type": "Point",
    "coordinates": [
     142.04020503,
     -36.45706331
    ]
   },
   "properties": {
    "name": "28 HORSHAM ROAD DIMBOOLA 3414",
    "locID": "LOC000006963188",
    "tech": "WIRELESS",
    "upgrade": "NULL_NA",
    "gnaf_pid": "GAVIC419786378",
    "tech_change_status": "Not Planned",
    "program_type": "Fixed Wireless and Satellite Upgrade Program",
    "target_eligibility_quarter": "NA"
   }
  },
  {
   "type": "Feature",
   "geometry": {
    "type": "Point",
    "coordinates": [
     142.040514,
     -36.45796153
    ]
   },
   "properties": {
    "name": "14 MALVERN ROAD DIMBOOLA 3414",
    "locID": "LOC000006959839",
    "tech": "WIRELESS",
    "upgrade": "NULL_NA",
    "gnaf_pid": "GAVIC419788171",
    "tech_change_status": "Not Planned",
    "program_type": "Fixed Wireless and Satellite Upgrade Program",
    "target_eligibility_quarter": "NA"
   }
  },
  {
   "type": "Feature",
   "geometry": {
    "type": "Point",
    "coordinates": [
     142.03180554,
     -36.46154795
    ]
   },
   "properties": {
    "name": "20 LLOYD STREET DIMBOOLA 3414",
    "locID": "LOC000057930137",
    "tech": "FTTN",
    "upgrade": "FTTP_SA",
    "gnaf_pid": "GAVIC419788176",
    "tech_change_status": "Eligible to Order",
    "program_type": "On-Demand N2P SDU/MDU Simple",
    "target_eligibility_quarter": "NA"
   }
  },
  {
   "type": "Feature",
   "geometry": {
    "type": "Point",
    "coordinates": [
     142.03450459,
     -36.46013165
    ]
   },
   "properties": {
    "name": "18-22 PARK STREET DIMBOOLA 3414",
    "locID": "LOC000096859352",
    "tech": "FTTN",
    "upgrade": "FTTP_SA",
    "gnaf_pid": "GAVIC419788180",
    "tech_change_status": "Eligible to Order",
    "program_type": "On-Demand N2P SDU/MDU Simple",
    "target_eligibility_quarter": "NA"
   }
  },
  {
   "type": "Feature",
   "geometry": {
    "type": "Point",
    "coordinates": [
     142.03539854,
     -36.4597493
    ]
   },
   "properties": {
    "name": "26 PARK STREET DIMBOOLA 3414",
    "locID": "LOC000081674437",
    "tech": "FTTN",
    "upgrade": "FTTP_SA",
    "gnaf_pid": "GAVIC419788181",
    "tech_change_status": "Eligible to Order",
    "program_type": "On-Demand N2P SDU/MDU Simple",
    "target_eligibility_quarter": "NA"
   }
  },
  {
   "type": "Feature",
   "geometry": {
    "type": "Point",
    "coordinates": [
     142.03559136,
     -36.45966682
    ]
   },
   "properties": {
    "name": "28 PARK STREET DIMBOOLA 3414",
    "locID": "LOC000039086055",
    "tech": "FTTN",
    "upgrade": "FTTP_SA",
    "gnaf_pid": "GAVIC419788182",
    "tech_change_status": "Eligible to Order",
    "program_type": "On-Demand N2P SDU/MDU Simple",
    "target_eligibility_quarter": "NA"
   }
  },
  {
   "type": "Feature",
   "geometry": {
    "type": "Point",
    "coordinates": [
     142.02981298,
     -36.44625888
    ]
   },
   "properties": {
    "name": "112 ELLERMAN STREET DIMBOOLA 3414",
    "locID": "LOC000066684787",
    "tech": "FTTN",
    "upgrade": "FTTP_SA",
    "gnaf_pid": "GAVIC419788184",
    "tech_change_status": "Eligible to Order",
    "program_type": "On-Demand N2P SDU/MDU Simple",
    "target_eligibility_quarter": "NA"
   }
  },
  {
   "type": "Feature",
   "geometry": {
    "type": "Point",
    "coordinates": [
     142.03533755,
     -36.45051969
    ]
   },
   "properties": {
    "name": "10 SCHOOL STREET DIMBOOLA 3414",
    "locID": "LOC000017118651",
    "tech": "FTTN",
    "upgrade": "FTTP_SA",
    "gnaf_pid": "GAVIC419788185",
    "tech_change_status": "Eligible to Order",
    "program_type": "On-Demand N2P SDU/MDU Simple",
    "target_eligibility_quarter": "NA"
   }
  },
  {
   "type": "Feature",
   "geometry": {
    "type": "Point",
    "coordinates": [
     142.03151978,
     -36.46201034
    ]
   },
   "properties": {
    "name": "17 LLOYD STREET DIMBOOLA 3414",
    "locID": "LOC000060401559",
    "tech": "FTTP",
    "upgrade": "FTTP_NA",
    "gnaf_pid": "GAVIC419822519",
    "tech_change_status": "Previous Tech Disconnected",
    "program_type": "On-Demand N2P SDU/MDU Simple",
    "target_eligibility_quarter": "NA"
   }
  },
  {
   "type": "Feature",
   "geometry": {
    "type": "Point",
    "coordinates": [
     142.02882878,
     -36.45700807
    ]
   },
   "properties": {
    "name": "44 LLOYD STREET DIMBOOLA 3414",
    "locID": "LOC000096455376",
    "tech": "FTTC",
    "upgrade": "FTTP_SA",
    "gnaf_pid": "GAVIC419825466",
    "tech_change_status": "Eligible to Order"
   }
  },
  {
   "type": "Feature",
   "geometry": {
    "type": "Point",
    "coordinates": [
     142.02116046,
     -36.44610075
    ]
   },
   "properties": {
    "name": "1 NHILL ROAD DIMBOOLA 3414",
    "locID": "LOC000080949293",
    "tech": "FTTC",
    "upgrade": "FTTP_SA",
    "gnaf_pid": "GAVIC419825993",
    "tech_change_status": "Eligible to Order"
   }
  },
  {
   "type": "Feature",
   "geometry": {
    "type": "Point",
    "coordinates": [
     142.0242877,
     -36.4509495
    ]
   },
   "properties": {
    "name": "149 LLOYD STREET DIMBOOLA 3414",
    "locID": "LOC000040932160",
    "tech": "FTTC",
    "upgrade": "FTTP_SA",
    "gnaf_pid": "GAVIC419825996",
    "tech_change_status": "Eligible to Order"
   }
  },
  {
   "type": "Feature",
   "geometry": {
    "type": "Point",
    "coordinates": [
     142.035504,
     -36.452393
    ]
   },
   "properties": {
    "name": "66 WIMMERA STREET DIMBOOLA 3414",
    "locID": "LOC000044221073",
    "tech": "WIRELESS",
    "upgrade": "FTTN",
    "gnaf_pid": "GAVIC419825998",
    "tech_change_status": "Eligible to Order",
    "program_type": "Fixed Wireless and Satellite Upgrade Program",
    "target_eligibility_quarter": "NA"
   }
  },
  {
   "type": "Feature",
   "geometry": {
    "type": "Point",
    "coordinates": [
     142.02563331,
     -36.45300061
    ]
   },
   "properties": {
    "name": "125 LLOYD STREET DIMBOOLA 3414",
    "locID": "LOC000074693819",
    "tech": "FTTN",
    "upgrade": "FTTP_SA",
    "gnaf_pid": "GAVIC419827327",
    "tech_change_status": "Eligible to Order",
    "program_type": "On-Demand N2P SDU/MDU Simple",
    "target_eligibility_quarter": "NA"
   }
  },
  {
   "type": "Feature",
   "geometry": {
    "type": "Point",
    "coordinates": [
     142.02815908,
     -36.45597693
    ]
   },
   "properties": {
    "name": "60 LLOYD STREET DIMBOOLA 3414",
    "locID": "LOC000005187956",
    "tech": "FTTC",
    "upgrade": "FTTP_SA",
    "gnaf_pid": "GAVIC419827328",
    "tech_change_status": "Eligible to Order"
   }
  },
  {
   "type": "Feature",
   "geometry": {
    "type": "Point",
    "coordinates": [
     142.02826923,
     -36.44434758
    ]
   },
   "properties": {
    "name": "10 ELLERMAN STREET DIMBOOLA 3414",
    "locID": "LOC000032133981",
    "tech": "WIRELESS",
    "upgrade": "NULL_NA",
    "gnaf_pid": "GAVIC419828196",
    "tech_change_status": "Not Planned",
    "program_type": "Fixed Wireless and Satellite Upgrade Program",
    "target_eligibility_quarter": "NA"
   }
  },
  {
   "type": "Feature",
   "geometry": {
    "type": "Point",
    "coordinates": [
     142.03540041,
     -36.45927809
    ]
   },
   "properties": {
    "name": "25 PARK STREET DIMBOOLA 3414",
    "locID": "LOC000059371405",
    "tech": "FTTN",
    "upgrade": "FTTP_SA",
    "gnaf_pid": "GAVIC419834722",
    "tech_change_status": "Eligible to Order",
    "program_type": "On-Demand N2P SDU/MDU Simple",
    "target_eligibility_quarter": "NA"
   }
  },
  {
   "type": "Feature",
   "geometry": {
    "type": "Point",
    "coordinates": [
     142.023901,
     -36.447906
    ]
   },
   "properties": {
    "name": "5 HOPE STREET DIMBOOLA 3414",
    "locID": "LOC000081150807",
    "tech": "FTTN",
    "upgrade": "FTTP_SA",
    "gnaf_pid": "GAVIC419846376",
    "tech_change_status": "Eligible to Order",
    "program_type": "On-Demand N2P SDU/MDU Simple",
    "target_eligibility_quarter": "NA"
   }
  },
  {
   "type": "Feature",
   "geometry": {
    "type": "Point",
    "coordinates": [
     142.03126834,
     -36.45567994
    ]
   },
   "properties": {
    "name": "26 CHURCH STREET DIMBOOLA 3414",
    "locID": "LOC000002712408",
    "tech": "FTTC",
    "upgrade": "FTTP_SA",
    "gnaf_pid": "GAVIC419846378",
    "tech_change_status": "Eligible to Order"
   }
  },
  {
   "type": "Feature",
   "geometry": {
    "type": "Point",
    "coordinates": [
     142.0366505,
     -36.45932008
    ]
   },
   "properties": {
    "name": "1 NURSERY ROAD DIMBOOLA 3414",
    "locID": "LOC000101657401",
    "tech": "WIRELESS",
    "upgrade": "NULL_NA",
    "gnaf_pid": "GAVIC419846400",
    "tech_change_status": "Not Planned",
    "program_type": "Fixed Wireless and Satellite Upgrade Program",
    "target_eligibility_quarter": "NA"
   }
  },
  {
   "type": "Feature",
   "geometry": {
    "type": "Point",
    "coordinates": [
     142.03988569,
     -36.46002209
    ]
   },
   "properties": {
    "name": "1 WILLIAM STREET DIMBOOLA 3414",
    "locID": "LOC000072661232",
    "tech": "WIRELESS",
    "upgrade": "NULL_NA",
    "gnaf_pid": "GAVIC419846401",
    "tech_change_status": "Not Planned",
    "program_type": "Fixed Wireless and Satellite Upgrade Program",
    "target_eligibility_quarter": "NA"
   }
  },
  {
   "type": "Feature",
   "geometry": {
    "type": "Point",
    "coordinates": [
     142.03252169,
     -36.4560487
    ]
   },
   "properties": {
    "name": "16A HIGH STREET DIMBOOLA 3414",
    "locID": "LOC000044440578",
    "tech": "FTTC",
    "upgrade": "FTTP_SA",
    "gnaf_pid": "GAVIC419963159",
    "tech_change_status": "Eligible to Order"
   }
  },
  {
   "type": "Feature",
   "geometry": {
    "type": "Point",
    "coordinates": [
     142.03405272,
     -36.45487635
    ]
   },
   "properties": {
    "name": "56 UPPER REGIONS STREET DIMBOOLA 3414",
    "locID": "LOC000026107487",
    "tech": "FTTN",
    "upgrade": "FTTP_SA",
    "gnaf_pid": "GAVIC419963162",
    "tech_change_status": "Eligible to Order",
    "program_type": "On-Demand N2P SDU/MDU Simple",
    "target_eligibility_quarter": "NA"
   }
  },
  {
   "type": "Feature",
   "geometry": {
    "type": "Point",
    "coordinates": [
     142.03582111,
     -36.45633411
    ]
   },
   "properties": {
    "name": "19 ELLERMAN STREET DIMBOOLA 3414",
    "locID": "LOC000051644912",
    "tech": "WIRELESS",
    "upgrade": "NULL_NA",
    "gnaf_pid": "GAVIC419963164",
    "tech_change_status": "Not Planned",
    "program_type": "Fixed Wireless and Satellite Upgrade Program",
    "target_eligibility_quarter": "NA"
   }
  },
  {
   "type": "Feature",
   "geometry": {
    "type": "Point",
    "coordinates": [
     142.02861056,
     -36.4453149
    ]
   },
   "properties": {
    "name": "129 ELLERMAN STREET DIMBOOLA 3414",
    "locID": "LOC000101699535",
    "tech": "FTTN",
    "upgrade": "FTTP",
    "gnaf_pid": "GAVIC419963168",
    "tech_change_status": "Eligible to Order",
    "program_type": "On-Demand N2P SDU/MDU Simple",
    "target_eligibility_quarter": "NA"
   }
  },
  {
   "type": "Feature",
   "geometry": {
    "type": "Point",
    "coordinates": [
     142.03364516,
     -36.45211411
    ]
   },
   "properties": {
    "name": "56 ELLERMAN STREET DIMBOOLA 3414",
    "locID": "LOC000095066423",
    "tech": "FTTN",
    "upgrade": "FTTP_SA",
    "gnaf_pid": "GAVIC419963169",
    "tech_change_status": "Eligible to Order",
    "program_type": "On-Demand N2P SDU/MDU Simple",
    "target_eligibility_quarter": "NA"
   }
  },
  {
   "type": "Feature",
   "geometry": {
    "type": "Point",
    "coordinates": [
     142.03376356,
     -36.45229438
    ]
   },
   "properties": {
    "name": "54 ELLERMAN STREET DIMBOOLA 3414",
    "locID": "LOC000092018424",
    "tech": "FTTN",
    "upgrade": "FTTP_SA",
    "gnaf_pid": "GAVIC419963170",
    "tech_change_status": "Eligible to Order",
    "program_type": "On-Demand N2P SDU/MDU Simple",
    "target_eligibility_quarter": "NA"
   }
  },
  {
   "type": "Feature",
   "geometry": {
    "type": "Point",
    "coordinates": [
     142.03955259,
     -36.45257104
    ]
   },
   "properties": {
    "name": "51 HIGH STREET DIMBOOLA 3414",
    "locID": "LOC000022074935",
    "tech": "WIRELESS",
    "upgrade": "NULL_NA",
    "gnaf_pid": "GAVIC419963171",
    "tech_change_status": "Not Planned",
    "program_type": "Fixed Wireless and Satellite Upgrade Program",
    "target_eligibility_quarter": "NA"
   }
  },
  {
   "type": "Feature",
   "geometry": {
    "type": "Point",
    "coordinates": [
     142.0196055,
     -36.37417608
    ]
   },
   "properties": {
    "name": "700 DIMBOOLA-RAINBOW ROAD DIMBOOLA 3414",
    "locID": "LOC000006261068",
    "tech": "WIRELESS",
    "upgrade": "NULL_NA",
    "gnaf_pid": "GAVIC419969516",
    "tech_change_status": "Not Planned",
    "program_type": "Fixed Wireless and Satellite Upgrade Program",
    "target_eligibility_quarter": "NA"
   }
  },
  {
   "type": "Feature",
   "geometry": {
    "type": "Point",
    "coordinates": [
     142.01711718,
     -36.44837271
    ]
   },
   "properties": {
    "name": "24 FAITH STREET DIMBOOLA 3414",
    "locID": "LOC000092343676",
    "tech": "FTTC",
    "upgrade": "FTTP_SA",
    "gnaf_pid": "GAVIC419969517",
    "tech_change_status": "Eligible to Order"
   }
  },
  {
   "type": "Feature",
   "geometry": {
    "type": "Point",
    "coordinates": [
     142.0181223,
     -36.44799889
    ]
   },
   "properties": {
    "name": "32 FAITH STREET DIMBOOLA 3414",
    "locID": "LOC000094838960",
    "tech": "FTTC",
    "upgrade": "FTTP_SA",
    "gnaf_pid": "GAVIC419969518",
    "tech_change_status": "Eligible to Order"
   }
  },
  {
   "type": "Feature",
   "geometry": {
    "type": "Point",
    "coordinates": [
     142.0277602,
     -36.44783063
    ]
   },
   "properties": {
    "name": "65 ANDERSON STREET DIMBOOLA 3414",
    "locID": "LOC000039683964",
    "tech": "FTTN",
    "upgrade": "FTTP_SA",
    "gnaf_pid": "GAVIC419969519",
    "tech_change_status": "Eligible to Order",
    "program_type": "On-Demand N2P SDU/MDU Simple",
    "target_eligibility_quarter": "NA"
   }
  },
  {
   "type": "Feature",
   "geometry": {
    "type": "Point",
    "coordinates": [
     142.03307075,
     -36.4512335
    ]
   },
   "properties": {
    "name": "64 ELLERMAN STREET DIMBOOLA 3414",
    "locID": "LOC000075248401",
    "tech": "FTTN",
    "upgrade": "FTTP_SA",
    "gnaf_pid": "GAVIC419977310",
    "tech_change_status": "Eligible to Order",
    "program_type": "On-Demand N2P SDU/MDU Simple",
    "target_eligibility_quarter": "NA"
   }
  },
  {
   "type": "Feature",
   "geometry": {
    "type": "Point",
    "coordinates": [
     142.0358319,
     -36.45416324
    ]
   },
   "properties": {
    "name": "17 HIGH STREET DIMBOOLA 3414",
    "locID": "LOC000061992295",
    "tech": "WIRELESS",
    "upgrade": "NULL_NA",
    "gnaf_pid": "GAVIC420012986",
    "tech_change_status": "Not Planned",
    "program_type": "Fixed Wireless and Satellite Upgrade Program",
    "target_eligibility_quarter": "NA"
   }
  },
  {
   "type": "Feature",
   "geometry": {
    "type": "Point",
    "coordinates": [
     142.0280497,
     -36.45580851
    ]
   },
   "properties": {
    "name": "62 LLOYD STREET DIMBOOLA 3414",
    "locID": "LOC000059792843",
    "tech": "FTTC",
    "upgrade": "FTTP_SA",
    "gnaf_pid": "GAVIC420022644",
    "tech_change_status": "Eligible to Order"
   }
  },
  {
   "type": "Feature",
   "geometry": {
    "type": "Point",
    "coordinates": [
     142.02714135,
     -36.44846719
    ]
   },
   "properties": {
    "name": "58 ANDERSON STREET DIMBOOLA 3414",
    "locID": "LOC000023866375",
    "tech": "FTTN",
    "upgrade": "FTTP_SA",
    "gnaf_pid": "GAVIC420022645",
    "tech_change_status": "Eligible to Order",
    "program_type": "On-Demand N2P SDU/MDU Simple",
    "target_eligibility_quarter": "NA"
   }
  },
  {
   "type": "Feature",
   "geometry": {
    "type": "Point",
    "coordinates": [
     142.027473,
     -36.45063366
    ]
   },
   "properties": {
    "name": "27 NORMANBY STREET DIMBOOLA 3414",
    "locID": "LOC000003620341",
    "tech": "FTTP",
    "upgrade": "FTTP_NA",
    "gnaf_pid": "GAVIC420022676",
    "tech_change_status": "Previous Tech Disconnected",
    "program_type": "On-Demand N2P SDU/MDU Simple",
    "target_eligibility_quarter": "NA"
   }
  },
  {
   "type": "Feature",
   "geometry": {
    "type": "Point",
    "coordinates": [
     142.02335456,
     -36.45111938
    ]
   },
   "properties": {
    "name": "22 MOULDER STREET DIMBOOLA 3414",
    "locID": "LOC000033479607",
    "tech": "FTTC",
    "upgrade": "FTTP_SA",
    "gnaf_pid": "GAVIC420023082",
    "tech_change_status": "Eligible to Order"
   }
  },
  {
   "type": "Feature",
   "geometry": {
    "type": "Point",
    "coordinates": [
     142.02964304,
     -36.45661947
    ]
   },
   "properties": {
    "name": "3 VICTORIA STREET DIMBOOLA 3414",
    "locID": "LOC000185486953",
    "tech": "FTTN",
    "upgrade": "NULL_NA",
    "gnaf_pid": "GAVIC420023292",
    "tech_change_status": "Not Planned"
   }
  },
  {
   "type": "Feature",
   "geometry": {
    "type": "Point",
    "coordinates": [
     142.0283481,
     -36.4537338
    ]
   },
   "properties": {
    "name": "44 VICTORIA STREET DIMBOOLA 3414",
    "locID": "LOC000013000938",
    "tech": "FTTC",
    "upgrade": "FTTP_SA",
    "gnaf_pid": "GAVIC420023293",
    "tech_change_status": "Eligible to Order"
   }
  },
  {
   "type": "Feature",
   "geometry": {
    "type": "Point",
    "coordinates": [
     142.03074433,
     -36.45680895
    ]
   },
   "properties": {
    "name": "4 HIGH STREET DIMBOOLA 3414",
    "locID": "LOC000058457068",
    "tech": "FTTC",
    "upgrade": "FTTP_NA",
    "gnaf_pid": "GAVIC420023977",
    "tech_change_status": "MDU Complex Eligible To Apply"
   }
  },
  {
   "type": "Feature",
   "geometry": {
    "type": "Point",
    "coordinates": [
     142.03283393,
     -36.45300203
    ]
   },
   "properties": {
    "name": "72 UPPER REGIONS STREET DIMBOOLA 3414",
    "locID": "LOC000124567106",
    "tech": "FTTP",
    "upgrade": "FTTP_NA",
    "gnaf_pid": "GAVIC420024629",
    "tech_change_status": "Previous Tech Disconnected",
    "program_type": "On-Demand N2P SDU/MDU Simple",
    "target_eligibility_quarter": "NA"
   }
  },
  {
   "type": "Feature",
   "geometry": {
    "type": "Point",
    "coordinates": [
     142.02804695,
     -36.45275645
    ]
   },
   "properties": {
    "name": "25 LOCHIEL STREET DIMBOOLA 3414",
    "locID": "LOC000005215028",
    "tech": "FTTN",
    "upgrade": "FTTP_SA",
    "gnaf_pid": "GAVIC420025847",
    "tech_change_status": "Eligible to Order",
    "program_type": "On-Demand N2P SDU/MDU Simple",
    "target_eligibility_quarter": "NA"
   }
  },
  {
   "type": "Feature",
   "geometry": {
    "type": "Point",
    "coordinates": [
     142.02843016,
     -36.45259263
    ]
   },
   "properties": {
    "name": "31 LOCHIEL STREET DIMBOOLA 3414",
    "locID": "LOC000031907134",
    "tech": "FTTN",
    "upgrade": "FTTP_SA",
    "gnaf_pid": "GAVIC420025848",
    "tech_change_status": "Eligible to Order",
    "program_type": "On-Demand N2P SDU/MDU Simple",
    "target_eligibility_quarter": "NA"
   }
  },
  {
   "type": "Feature",
   "geometry": {
    "type": "Point",
    "coordinates": [
     142.0324176,
     -36.45833154
    ]
   },
   "properties": {
    "name": "17 CHURCH STREET DIMBOOLA 3414",
    "locID": "LOC000034320103",
    "tech": "FTTC",
    "upgrade": "FTTP_SA",
    "gnaf_pid": "GAVIC420031553",
    "tech_change_status": "Eligible to Order"
   }
  },
  {
   "type": "Feature",
   "geometry": {
    "type": "Point",
    "coordinates": [
     142.03232691,
     -36.45223249
    ]
   },
   "properties": {
    "name": "80 UPPER REGIONS STREET DIMBOOLA 3414",
    "locID": "LOC000106470129",
    "tech": "FTTN",
    "upgrade": "FTTP_SA",
    "gnaf_pid": "GAVIC420034881",
    "tech_change_status": "Eligible to Order",
    "program_type": "On-Demand N2P SDU/MDU Simple",
    "target_eligibility_quarter": "NA"
   }
  },
  {
   "type": "Feature",
   "geometry": {
    "type": "Point",
    "coordinates": [
     142.03466139,
     -36.45366671
    ]
   },
   "properties": {
    "name": "44 ELLERMAN STREET DIMBOOLA 3414",
    "locID": "LOC000063414574",
    "tech": "FTTP",
    "upgrade": "FTTP_NA",
    "gnaf_pid": "GAVIC420034883",
    "tech_change_status": "Previous Tech Disconnected",
    "program_type": "On-Demand N2P SDU/MDU Simple",
    "target_eligibility_quarter": "NA"
   }
  },
  {
   "type": "Feature",
   "geometry": {
    "type": "Point",
    "coordinates": [
     142.03105784,
     -36.45536068
    ]
   },
   "properties": {
    "name": "30 CHURCH STREET DIMBOOLA 3414",
    "locID": "LOC000002043857",
    "tech": "FTTC",
    "upgrade": "FTTP_SA",
    "gnaf_pid": "GAVIC420034884",
    "tech_change_status": "Eligible to Order"
   }
  },
  {
   "type": "Feature",
   "geometry": {
    "type": "Point",
    "coordinates": [
     142.03622406,
     -36.45563986
    ]
   },
   "properties": {
    "name": "3 HORSHAM ROAD DIMBOOLA 3414",
    "locID": "LOC000094953574",
    "tech": "WIRELESS",
    "upgrade": "NULL_NA",
    "gnaf_pid": "GAVIC420037722",
    "tech_change_status": "Not Planned",
    "program_type": "Fixed Wireless and Satellite Upgrade Program",
    "target_eligibility_quarter": "NA"
   }
  },
  {
   "type": "Feature",
   "geometry": {
    "type": "Point",
    "coordinates": [
     142.03660781,
     -36.4558319
    ]
   },
   "properties": {
    "name": "7 HORSHAM ROAD DIMBOOLA 3414",
    "locID": "LOC000051043774",
    "tech": "WIRELESS",
    "upgrade": "NULL_NA",
    "gnaf_pid": "GAVIC420037723",
    "tech_change_status": "Not Planned",
    "program_type": "Fixed Wireless and Satellite Upgrade Program",
    "target_eligibility_quarter": "NA"
   }
  },
  {
   "type": "Feature",
   "geometry": {
    "type": "Point",
    "coordinates": [
     142.02571143,
     -36.45061645
    ]
   },
   "properties": {
    "name": "6 ACACIA STREET DIMBOOLA 3414",
    "locID": "LOC000027581398",
    "tech": "FTTP",
    "upgrade": "FTTP_NA",
    "gnaf_pid": "GAVIC420037725",
    "tech_change_status": "Previous Tech Disconnected",
    "program_type": "On-Demand N2P SDU/MDU Simple",
    "target_eligibility_quarter": "NA"
   }
  },
  {
   "type": "Feature",
   "geometry": {
    "type": "Point",
    "coordinates": [
     142.02938964,
     -36.4536911
    ]
   },
   "properties": {
    "name": "41 CHURCH STREET DIMBOOLA 3414",
    "locID": "LOC000066890355",
    "tech": "FTTC",
    "upgrade": "FTTP_SA",
    "gnaf_pid": "GAVIC420040190",
    "tech_change_status": "Eligible to Order"
   }
  },
  {
   "type": "Feature",
   "geometry": {
    "type": "Point",
    "coordinates": [
     142.02974548,
     -36.4520295
    ]
   },
   "properties": {
    "name": "41 LOCHIEL STREET DIMBOOLA 3414",
    "locID": "LOC000036006780",
    "tech": "FTTN",
    "upgrade": "FTTP_SA",
    "gnaf_pid": "GAVIC420041342",
    "tech_change_status": "Eligible to Order",
    "program_type": "On-Demand N2P SDU/MDU Simple",
    "target_eligibility_quarter": "NA"
   }
  },
  {
   "type": "Feature",
   "geometry": {
    "type": "Point",
    "coordinates": [
     142.02595003,
     -36.45260094
    ]
   },
   "properties": {
    "name": "130 LLOYD STREET DIMBOOLA 3414",
    "locID": "LOC000005311988",
    "tech": "FTTN",
    "upgrade": "FTTP_SA",
    "gnaf_pid": "GAVIC420050270",
    "tech_change_status": "Eligible to Order",
    "program_type": "On-Demand N2P SDU/MDU Simple",
    "target_eligibility_quarter": "NA"
   }
  },
  {
   "type": "Feature",
   "geometry": {
    "type": "Point",
    "coordinates": [
     142.02118793,
     -36.44949393
    ]
   },
   "properties": {
    "name": "7 ELIZABETH STREET DIMBOOLA 3414",
    "locID": "LOC000083515475",
    "tech": "FTTC",
    "upgrade": "FTTP_SA",
    "gnaf_pid": "GAVIC420066355",
    "tech_change_status": "Eligible to Order"
   }
  },
  {
   "type": "Feature",
   "geometry": {
    "type": "Point",
    "coordinates": [
     142.0217553,
     -36.44709188
    ]
   },
   "properties": {
    "name": "185 LLOYD STREET DIMBOOLA 3414",
    "locID": "LOC000027613118",
    "tech": "FTTC",
    "upgrade": "FTTP_SA",
    "gnaf_pid": "GAVIC420066357",
    "tech_change_status": "Eligible to Order"
   }
  },
  {
   "type": "Feature",
   "geometry": {
    "type": "Point",
    "coordinates": [
     142.02280633,
     -36.44869594
    ]
   },
   "properties": {
    "name": "171 LLOYD STREET DIMBOOLA 3414",
    "locID": "LOC000005136357",
    "tech": "FTTC",
    "upgrade": "FTTP_SA",
    "gnaf_pid": "GAVIC420066362",
    "tech_change_status": "Eligible to Order"
   }
  },
  {
   "type": "Feature",
   "geometry": {
    "type": "Point",
    "coordinates": [
     142.02177999,
     -36.44872406
    ]
   },
   "properties": {
    "name": "12 ANNA STREET DIMBOOLA 3414",
    "locID": "LOC000031155133",
    "tech": "FTTC",
    "upgrade": "FTTP_SA",
    "gnaf_pid": "GAVIC420066364",
    "tech_change_status": "Eligible to Order"
   }
  },
  {
   "type": "Feature",
   "geometry": {
    "type": "Point",
    "coordinates": [
     142.08116344,
     -36.45248311
    ]
   },
   "properties": {
    "name": "250 KORNHEIM ROAD DIMBOOLA 3414",
    "locID": "LOC000071088695",
    "tech": "WIRELESS",
    "upgrade": "NULL_NA",
    "gnaf_pid": "GAVIC420066461",
    "tech_change_status": "Not Planned",
    "program_type": "Fixed Wireless and Satellite Upgrade Program",
    "target_eligibility_quarter": "NA"
   }
  },
  {
   "type": "Feature",
   "geometry": {
    "type": "Point",
    "coordinates": [
     142.02912485,
     -36.45328436
    ]
   },
   "properties": {
    "name": "UNIT 1, 47 CHURCH STREET DIMBOOLA 3414",
    "locID": "LOC000011034850",
    "tech": "FTTC",
    "upgrade": "FTTP_SA",
    "gnaf_pid": "GAVIC420066467",
    "tech_change_status": "Eligible to Order"
   }
  },
  {
   "type": "Feature",
   "geometry": {
    "type": "Point",
    "coordinates": [
     142.02450545,
     -36.45663038
    ]
   },
   "properties": {
    "name": "3 WIMMERA STREET DIMBOOLA 3414",
    "locID": "LOC000035363726",
    "tech": "FTTC",
    "upgrade": "FTTP_SA",
    "gnaf_pid": "GAVIC420072472",
    "tech_change_status": "Eligible to Order"
   }
  },
  {
   "type": "Feature",
   "geometry": {
    "type": "Point",
    "coordinates": [
     142.0286029,
     -36.45666033
    ]
   },
   "properties": {
    "name": "48 LLOYD STREET DIMBOOLA 3414",
    "locID": "LOC000020327223",
    "tech": "FTTC",
    "upgrade": "FTTP_SA",
    "gnaf_pid": "GAVIC420075253",
    "tech_change_status": "Eligible to Order"
   }
  },
  {
   "type": "Feature",
   "geometry": {
    "type": "Point",
    "coordinates": [
     142.02916488,
     -36.45588956
    ]
   },
   "properties": {
    "name": "17 VICTORIA STREET DIMBOOLA 3414",
    "locID": "LOC000067867430",
    "tech": "FTTC",
    "upgrade": "FTTP_SA",
    "gnaf_pid": "GAVIC420075256",
    "tech_change_status": "Eligible to Order"
   }
  },
  {
   "type": "Feature",
   "geometry": {
    "type": "Point",
    "coordinates": [
     142.02172024,
     -36.44963391
    ]
   },
   "properties": {
    "name": "4 ELIZABETH STREET DIMBOOLA 3414",
    "locID": "LOC000080628963",
    "tech": "FTTC",
    "upgrade": "FTTP_SA",
    "gnaf_pid": "GAVIC420078049",
    "tech_change_status": "Eligible to Order"
   }
  },
  {
   "type": "Feature",
   "geometry": {
    "type": "Point",
    "coordinates": [
     142.0215577,
     -36.4497044
    ]
   },
   "properties": {
    "name": "6 ELIZABETH STREET DIMBOOLA 3414",
    "locID": "LOC000037126469",
    "tech": "FTTC",
    "upgrade": "FTTP_SA",
    "gnaf_pid": "GAVIC420078050",
    "tech_change_status": "Eligible to Order"
   }
  },
  {
   "type": "Feature",
   "geometry": {
    "type": "Point",
    "coordinates": [
     142.02167299,
     -36.44928449
    ]
   },
   "properties": {
    "name": "1 ELIZABETH STREET DIMBOOLA 3414",
    "locID": "LOC000085382040",
    "tech": "FTTC",
    "upgrade": "FTTP",
    "gnaf_pid": "GAVIC420078055",
    "tech_change_status": "New Tech Connected"
   }
  },
  {
   "type": "Feature",
   "geometry": {
    "type": "Point",
    "coordinates": [
     142.03906191,
     -36.45278103
    ]
   },
   "properties": {
    "name": "47 HIGH STREET DIMBOOLA 3414",
    "locID": "LOC000079240323",
    "tech": "WIRELESS",
    "upgrade": "NULL_NA",
    "gnaf_pid": "GAVIC420078833",
    "tech_change_status": "Not Planned",
    "program_type": "Fixed Wireless and Satellite Upgrade Program",
    "target_eligibility_quarter": "NA"
   }
  },
  {
   "type": "Feature",
   "geometry": {
    "type": "Point",
    "coordinates": [
     142.0284646,
     -36.44885919
    ]
   },
   "properties": {
    "name": "9 GEORGE STREET DIMBOOLA 3414",
    "locID": "LOC000101989651",
    "tech": "FTTP",
    "upgrade": "FTTP_NA",
    "gnaf_pid": "GAVIC420078835",
    "tech_change_status": "Previous Tech Disconnected",
    "program_type": "On-Demand N2P SDU/MDU Simple",
    "target_eligibility_quarter": "NA"
   }
  },
  {
   "type": "Feature",
   "geometry": {
    "type": "Point",
    "coordinates": [
     142.03433355,
     -36.45253205
    ]
   },
   "properties": {
    "name": "57 WIMMERA STREET DIMBOOLA 3414",
    "locID": "LOC000069956353",
    "tech": "FTTN",
    "upgrade": "FTTP_SA",
    "gnaf_pid": "GAVIC420078836",
    "tech_change_status": "Eligible to Order",
    "program_type": "On-Demand N2P SDU/MDU Simple",
    "target_eligibility_quarter": "NA"
   }
  },
  {
   "type": "Feature",
   "geometry": {
    "type": "Point",
    "coordinates": [
     142.03162057,
     -36.45115459
    ]
   },
   "properties": {
    "name": "88 UPPER REGIONS STREET DIMBOOLA 3414",
    "locID": "LOC000027750338",
    "tech": "FTTN",
    "upgrade": "FTTP_SA",
    "gnaf_pid": "GAVIC420078837",
    "tech_change_status": "Eligible to Order",
    "program_type": "On-Demand N2P SDU/MDU Simple",
    "target_eligibility_quarter": "NA"
   }
  },
  {
   "type": "Feature",
   "geometry": {
    "type": "Point",
    "coordinates": [
     142.03146291,
     -36.45091269
    ]
   },
   "properties": {
    "name": "90 UPPER REGIONS STREET DIMBOOLA 3414",
    "locID": "LOC000027979388",
    "tech": "FTTN",
    "upgrade": "FTTP_SA",
    "gnaf_pid": "GAVIC420078838",
    "tech_change_status": "Eligible to Order",
    "program_type": "On-Demand N2P SDU/MDU Simple",
    "target_eligibility_quarter": "NA"
   }
  },
  {
   "type": "Feature",
   "geometry": {
    "type": "Point",
    "coordinates": [
     142.01517814,
     -36.49658451
    ]
   },
   "properties": {
    "name": "540 HORSESHOE BEND ROAD DIMBOOLA 3414",
    "locID": "LOC000124581316",
    "tech": "WIRELESS",
    "upgrade": "NULL_NA",
    "gnaf_pid": "GAVIC420078841",
    "tech_change_status": "Not Planned",
    "program_type": "Fixed Wireless and Satellite Upgrade Program",
    "target_eligibility_quarter": "NA"
   }
  },
  {
   "type": "Feature",
   "geometry": {
    "type": "Point",
    "coordinates": [
     142.03882516,
     -36.45796455
    ]
   },
   "properties": {
    "name": "8 MALVERN ROAD DIMBOOLA 3414",
    "locID": "LOC000068292015",
    "tech": "WIRELESS",
    "upgrade": "NULL_NA",
    "gnaf_pid": "GAVIC420079071",
    "tech_change_status": "Not Planned",
    "program_type": "Fixed Wireless and Satellite Upgrade Program",
    "target_eligibility_quarter": "NA"
   }
  },
  {
   "type": "Feature",
   "geometry": {
    "type": "Point",
    "coordinates": [
     142.02818794,
     -36.45183412
    ]
   },
   "properties": {
    "name": "57 CHURCH STREET DIMBOOLA 3414",
    "locID": "LOC000074297170",
    "tech": "FTTN",
    "upgrade": "FTTP_SA",
    "gnaf_pid": "GAVIC420080799",
    "tech_change_status": "Eligible to Order",
    "program_type": "On-Demand N2P SDU/MDU Simple",
    "target_eligibility_quarter": "NA"
   }
  },
  {
   "type": "Feature",
   "geometry": {
    "type": "Point",
    "coordinates": [
     142.0267957,
     -36.45478108
    ]
   },
   "properties": {
    "name": "87 LLOYD STREET DIMBOOLA 3414",
    "locID": "LOC000007017561",
    "tech": "FTTC",
    "upgrade": "FTTP_SA",
    "gnaf_pid": "GAVIC420086867",
    "tech_change_status": "Eligible to Order"
   }
  },
  {
   "type": "Feature",
   "geometry": {
    "type": "Point",
    "coordinates": [
     142.02309871,
     -36.44587926
    ]
   },
   "properties": {
    "name": "74 FAITH STREET DIMBOOLA 3414",
    "locID": "LOC000028474958",
    "tech": "FTTP",
    "upgrade": "FTTP_NA",
    "gnaf_pid": "GAVIC420087121",
    "tech_change_status": "Previous Tech Disconnected",
    "program_type": "On-Demand N2P SDU/MDU Simple",
    "target_eligibility_quarter": "NA"
   }
  },
  {
   "type": "Feature",
   "geometry": {
    "type": "Point",
    "coordinates": [
     142.03374758,
     -36.46341199
    ]
   },
   "properties": {
    "name": "6-8 ST LEONARDS AVENUE DIMBOOLA 3414",
    "locID": "LOC000124563011",
    "tech": "FTTN",
    "upgrade": "FTTP",
    "gnaf_pid": "GAVIC420087890",
    "tech_change_status": "Eligible to Order",
    "program_type": "On-Demand N2P SDU/MDU Simple",
    "target_eligibility_quarter": "NA"
   }
  },
  {
   "type": "Feature",
   "geometry": {
    "type": "Point",
    "coordinates": [
     142.0367674,
     -36.46212475
    ]
   },
   "properties": {
    "name": "28 ST LEONARDS AVENUE DIMBOOLA 3414",
    "locID": "LOC000059589818",
    "tech": "WIRELESS",
    "upgrade": "FTTN",
    "gnaf_pid": "GAVIC420087892",
    "tech_change_status": "Eligible to Order",
    "program_type": "Fixed Wireless and Satellite Upgrade Program",
    "target_eligibility_quarter": "NA"
   }
  },
  {
   "type": "Feature",
   "geometry": {
    "type": "Point",
    "coordinates": [
     142.0374255,
     -36.45099442
    ]
   },
   "properties": {
    "name": "85 WIMMERA STREET DIMBOOLA 3414",
    "locID": "LOC000095406384",
    "tech": "FTTP",
    "upgrade": "FTTP_NA",
    "gnaf_pid": "GAVIC420087894",
    "tech_change_status": "Previous Tech Disconnected",
    "program_type": "On-Demand N2P SDU/MDU Simple",
    "target_eligibility_quarter": "NA"
   }
  },
  {
   "type": "Feature",
   "geometry": {
    "type": "Point",
    "coordinates": [
     142.03770945,
     -36.45145134
    ]
   },
   "properties": {
    "name": "86 WIMMERA STREET DIMBOOLA 3414",
    "locID": "LOC000072880672",
    "tech": "FTTN",
    "upgrade": "FTTP_SA",
    "gnaf_pid": "GAVIC420087896",
    "tech_change_status": "Eligible to Order",
    "program_type": "On-Demand N2P SDU/MDU Simple",
    "target_eligibility_quarter": "NA"
   }
  },
  {
   "type": "Feature",
   "geometry": {
    "type": "Point",
    "coordinates": [
     142.04137665,
     -36.458398
    ]
   },
   "properties": {
    "name": "17 MALVERN ROAD DIMBOOLA 3414",
    "locID": "LOC000003658150",
    "tech": "WIRELESS",
    "upgrade": "NULL_NA",
    "gnaf_pid": "GAVIC420089856",
    "tech_change_status": "Not Planned",
    "program_type": "Fixed Wireless and Satellite Upgrade Program",
    "target_eligibility_quarter": "NA"
   }
  },
  {
   "type": "Feature",
   "geometry": {
    "type": "Point",
    "coordinates": [
     142.03969291,
     -36.45849611
    ]
   },
   "properties": {
    "name": "7 MALVERN ROAD DIMBOOLA 3414",
    "locID": "LOC000051457455",
    "tech": "WIRELESS",
    "upgrade": "NULL_NA",
    "gnaf_pid": "GAVIC420089857",
    "tech_change_status": "Not Planned",
    "program_type": "Fixed Wireless and Satellite Upgrade Program",
    "target_eligibility_quarter": "NA"
   }
  },
  {
   "type": "Feature",
   "geometry": {
    "type": "Point",
    "coordinates": [
     142.02326648,
     -36.45078315
    ]
   },
   "properties": {
    "name": "23 MOULDER STREET DIMBOOLA 3414",
    "locID": "LOC000070458920",
    "tech": "FTTC",
    "upgrade": "FTTP_SA",
    "gnaf_pid": "GAVIC420091448",
    "tech_change_status": "Eligible to Order"
   }
  },
  {
   "type": "Feature",
   "geometry": {
    "type": "Point",
    "coordinates": [
     142.02263826,
     -36.4503994
    ]
   },
   "properties": {
    "name": "24 ANDERSON STREET DIMBOOLA 3414",
    "locID": "LOC000089527174",
    "tech": "FTTC",
    "upgrade": "FTTP_SA",
    "gnaf_pid": "GAVIC420091449",
    "tech_change_status": "Eligible to Order"
   }
  },
  {
   "type": "Feature",
   "geometry": {
    "type": "Point",
    "coordinates": [
     142.02133467,
     -36.45095835
    ]
   },
   "properties": {
    "name": "8 ANDERSON STREET DIMBOOLA 3414",
    "locID": "LOC000054497296",
    "tech": "FTTC",
    "upgrade": "FTTP_SA",
    "gnaf_pid": "GAVIC420091450",
    "tech_change_status": "Eligible to Order"
   }
  },
  {
   "type": "Feature",
   "geometry": {
    "type": "Point",
    "coordinates": [
     142.02115344,
     -36.45103605
    ]
   },
   "properties": {
    "name": "6 ANDERSON STREET DIMBOOLA 3414",
    "locID": "LOC000045491693",
    "tech": "FTTC",
    "upgrade": "FTTP_SA",
    "gnaf_pid": "GAVIC420091451",
    "tech_change_status": "Eligible to Order"
   }
  },
  {
   "type": "Feature",
   "geometry": {
    "type": "Point",
    "coordinates": [
     142.02280534,
     -36.44781109
    ]
   },
   "properties": {
    "name": "176 LLOYD STREET DIMBOOLA 3414",
    "locID": "LOC000083702884",
    "tech": "FTTN",
    "upgrade": "FTTP_SA",
    "gnaf_pid": "GAVIC420091455",
    "tech_change_status": "Eligible to Order",
    "program_type": "On-Demand N2P SDU/MDU Simple",
    "target_eligibility_quarter": "NA"
   }
  },
  {
   "type": "Feature",
   "geometry": {
    "type": "Point",
    "coordinates": [
     142.02290964,
     -36.44797045
    ]
   },
   "properties": {
    "name": "174 LLOYD STREET DIMBOOLA 3414",
    "locID": "LOC000020983242",
    "tech": "FTTN",
    "upgrade": "FTTP_SA",
    "gnaf_pid": "GAVIC420091456",
    "tech_change_status": "Eligible to Order",
    "program_type": "On-Demand N2P SDU/MDU Simple",
    "target_eligibility_quarter": "NA"
   }
  },
  {
   "type": "Feature",
   "geometry": {
    "type": "Point",
    "coordinates": [
     142.02927705,
     -36.45097234
    ]
   },
   "properties": {
    "name": "41 HINDMARSH STREET DIMBOOLA 3414",
    "locID": "LOC000058206183",
    "tech": "FTTP",
    "upgrade": "FTTP_NA",
    "gnaf_pid": "GAVIC420113870",
    "tech_change_status": "Previous Tech Disconnected",
    "program_type": "On-Demand N2P SDU/MDU Simple",
    "target_eligibility_quarter": "NA"
   }
  },
  {
   "type": "Feature",
   "geometry": {
    "type": "Point",
    "coordinates": [
     142.02817393,
     -36.45346638
    ]
   },
   "properties": {
    "name": "48 VICTORIA STREET DIMBOOLA 3414",
    "locID": "LOC000082101080",
    "tech": "FTTC",
    "upgrade": "FTTP_SA",
    "gnaf_pid": "GAVIC420122560",
    "tech_change_status": "Eligible to Order"
   }
  },
  {
   "type": "Feature",
   "geometry": {
    "type": "Point",
    "coordinates": [
     142.03697796,
     -36.45949848
    ]
   },
   "properties": {
    "name": "3 NURSERY ROAD DIMBOOLA 3414",
    "locID": "LOC000022952331",
    "tech": "FTTN",
    "upgrade": "FTTP_SA",
    "gnaf_pid": "GAVIC420129101",
    "tech_change_status": "Eligible to Order",
    "program_type": "On-Demand N2P SDU/MDU Simple",
    "target_eligibility_quarter": "NA"
   }
  },