{
 "type": "FeatureCollection",
 "generated": "2023-10-24T03:48:17.783527",
 "suburb": "FOREST HILL",
 "features": [
  {
   "type": "Feature",
   "geometry": {
    "type": "Point",
    "coordinates": [
     145.16778705,
     -37.83406291
    ]
   },
   "properties": {
    "name": "261 CANTERBURY ROAD FOREST HILL 3131",
    "locID": "ChIJz7X-ijA_1moRRjViHNkRwU0",
    "tech": "HFC",
    "upgrade": "UNKNOWN",
    "gnaf_pid": "GAVIC411366624"
   }
  },
  {
   "type": "Feature",
   "geometry": {
    "type": "Point",
    "coordinates": [
     145.17595746,
     -37.83133201
    ]
   },
   "properties": {
    "name": "UNIT 1, 15 WICKHAM AVENUE FOREST HILL 3131",
    "locID": "LOC000063630691",
    "tech": "HFC",
    "upgrade": "NULL_NA",
    "gnaf_pid": "GAVIC411381451"
   }
  },
  {
   "type": "Feature",
   "geometry": {
    "type": "Point",
    "coordinates": [
     145.16568725,
     -37.8439648
    ]
   },
   "properties": {
    "name": "9 PARKLAND PLACE FOREST HILL 3131",
    "locID": "LOC000061561718",
    "tech": "HFC",
    "upgrade": "NULL_NA",
    "gnaf_pid": "GAVIC411382965"
   }
  },
  {
   "type": "Feature",
   "geometry": {
    "type": "Point",
    "coordinates": [
     145.16563783,
     -37.84422202
    ]
   },
   "properties": {
    "name": "18 PARKLAND PLACE FOREST HILL 3131",
    "locID": "LOC000022073659",
    "tech": "HFC",
    "upgrade": "NULL_NA",
    "gnaf_pid": "GAVIC411386654"
   }
  },
  {
   "type": "Feature",
   "geometry": {
    "type": "Point",
    "coordinates": [
     145.17980181,
     -37.83628971
    ]
   },
   "properties": {
    "name": "8 ALLISON ROAD FOREST HILL 3131",
    "locID": "LOC000066853165",
    "tech": "HFC",
    "upgrade": "NULL_NA",
    "gnaf_pid": "GAVIC411386685"
   }
  },
  {
   "type": "Feature",
   "geometry": {
    "type": "Point",
    "coordinates": [
     145.16568725,
     -37.8439648
    ]
   },
   "properties": {
    "name": "3 PARKLAND PLACE FOREST HILL 3131",
    "locID": "LOC000049210287",
    "tech": "HFC",
    "upgrade": "NULL_NA",
    "gnaf_pid": "GAVIC411390305"
   }
  },
  {
   "type": "Feature",
   "geometry": {
    "type": "Point",
    "coordinates": [
     145.16563783,
     -37.84422202
    ]
   },
   "properties": {
    "name": "6 PARKLAND PLACE FOREST HILL 3131",
    "locID": "LOC000104592367",
    "tech": "HFC",
    "upgrade": "NULL_NA",
    "gnaf_pid": "GAVIC411390307"
   }
  },
  {
   "type": "Feature",
   "geometry": {
    "type": "Point",
    "coordinates": [
     145.182766,
     -37.839522
    ]
   },
   "properties": {
    "name": "UNIT 2, 103 HUSBAND ROAD FOREST HILL 3131",
    "locID": "LOC000019391808",
    "tech": "HFC",
    "upgrade": "NULL_NA",
    "gnaf_pid": "GAVIC411393220"
   }
  },
  {
   "type": "Feature",
   "geometry": {
    "type": "Point",
    "coordinates": [
     145.168555,
     -37.846637
    ]
   },
   "properties": {
    "name": "UNIT 1, 16 LOWANA CRESCENT FOREST HILL 3131",
    "locID": "LOC000046155258",
    "tech": "HFC",
    "upgrade": "NULL_NA",
    "gnaf_pid": "GAVIC411394567"
   }
  },
  {
   "type": "Feature",
   "geometry": {
    "type": "Point",
    "coordinates": [
     145.16482985,
     -37.8441406
    ]
   },
   "properties": {
    "name": "321 MAHONEYS ROAD FOREST HILL 3131",
    "locID": "LOC000043461610",
    "tech": "FTTN",
    "upgrade": "FTTP_NA",
    "gnaf_pid": "GAVIC411394844"
   }
  },
  {
   "type": "Feature",
   "geometry": {
    "type": "Point",
    "coordinates": [
     145.16563783,
     -37.84422202
    ]
   },
   "properties": {
    "name": "4 PARKLAND PLACE FOREST HILL 3131",
    "locID": "LOC000084753217",
    "tech": "HFC",
    "upgrade": "NULL_NA",
    "gnaf_pid": "GAVIC411395403"
   }
  },
  {
   "type": "Feature",
   "geometry": {
    "type": "Point",
    "coordinates": [
     145.16563783,
     -37.84422202
    ]
   },
   "properties": {
    "name": "16 PARKLAND PLACE FOREST HILL 3131",
    "locID": "LOC000072775140",
    "tech": "HFC",
    "upgrade": "NULL_NA",
    "gnaf_pid": "GAVIC411395408"
   }
  },
  {
   "type": "Feature",
   "geometry": {
    "type": "Point",
    "coordinates": [
     145.17195615,
     -37.82940046
    ]
   },
   "properties": {
    "name": "UNIT 1, 9 MORLOC STREET FOREST HILL 3131",
    "locID": "LOC000003601891",
    "tech": "HFC",
    "upgrade": "NULL_NA",
    "gnaf_pid": "GAVIC411397710"
   }
  },
  {
   "type": "Feature",
   "geometry": {
    "type": "Point",
    "coordinates": [
     145.169263,
     -37.829445
    ]
   },
   "properties": {
    "name": "36A MORLOC STREET FOREST HILL 3131",
    "locID": "ChIJZV0cQjI_1moRy4wC72J4W1Q",
    "tech": "HFC",
    "upgrade": "UNKNOWN",
    "gnaf_pid": "GAVIC411398680"
   }
  },
  {
   "type": "Feature",
   "geometry": {
    "type": "Point",
    "coordinates": [
     145.171326,
     -37.833179
    ]
   },
   "properties": {
    "name": "UNIT 2, 5 PRATICO COURT FOREST HILL 3131",
    "locID": "LOC000093981809",
    "tech": "HFC",
    "upgrade": "NULL_NA",
    "gnaf_pid": "GAVIC411398681"
   }
  },
  {
   "type": "Feature",
   "geometry": {
    "type": "Point",
    "coordinates": [
     145.182811,
     -37.835123
    ]
   },
   "properties": {
    "name": "UNIT 2, 6 FELICIA GROVE FOREST HILL 3131",
    "locID": "LOC000089205579",
    "tech": "HFC",
    "upgrade": "NULL_NA",
    "gnaf_pid": "GAVIC411398697"
   }
  },
  {
   "type": "Feature",
   "geometry": {
    "type": "Point",
    "coordinates": [
     145.17770348,
     -37.83403236
    ]
   },
   "properties": {
    "name": "13A WILL STREET FOREST HILL 3131",
    "locID": "LOC000044998971",
    "tech": "HFC",
    "upgrade": "NULL_NA",
    "gnaf_pid": "GAVIC411398704"
   }
  },
  {
   "type": "Feature",
   "geometry": {
    "type": "Point",
    "coordinates": [
     145.18280139,
     -37.83483901
    ]
   },
   "properties": {
    "name": "UNIT 1, 6 FELICIA GROVE FOREST HILL 3131",
    "locID": "LOC000088915247",
    "tech": "HFC",
    "upgrade": "NULL_NA",
    "gnaf_pid": "GAVIC411398708"
   }
  },
  {
   "type": "Feature",
   "geometry": {
    "type": "Point",
    "coordinates": [
     145.17268196,
     -37.84291666
    ]
   },
   "properties": {
    "name": "15 JOLIMONT ROAD FOREST HILL 3131",
    "locID": "ChIJfxvHCiM_1moRS_e7Zv--qp8",
    "tech": "HFC",
    "upgrade": "UNKNOWN",
    "gnaf_pid": "GAVIC411398721"
   }
  },
  {
   "type": "Feature",
   "geometry": {
    "type": "Point",
    "coordinates": [
     145.16563783,
     -37.84422202
    ]
   },
   "properties": {
    "name": "8 PARKLAND PLACE FOREST HILL 3131",
    "locID": "LOC000033546916",
    "tech": "HFC",
    "upgrade": "NULL_NA",
    "gnaf_pid": "GAVIC411401006"
   }
  },
  {
   "type": "Feature",
   "geometry": {
    "type": "Point",
    "coordinates": [
     145.16568725,
     -37.8439648
    ]
   },
   "properties": {
    "name": "5 PARKLAND PLACE FOREST HILL 3131",
    "locID": "LOC000047277772",
    "tech": "HFC",
    "upgrade": "NULL_NA",
    "gnaf_pid": "GAVIC411401007"
   }
  },
  {
   "type": "Feature",
   "geometry": {
    "type": "Point",
    "coordinates": [
     145.16573563,
     -37.84394417
    ]
   },
   "properties": {
    "name": "90 BARTER CRESCENT FOREST HILL 3131",
    "locID": "LOC000096371171",
    "tech": "HFC",
    "upgrade": "NULL_NA",
    "gnaf_pid": "GAVIC411401010"
   }
  },
  {
   "type": "Feature",
   "geometry": {
    "type": "Point",
    "coordinates": [
     145.179863,
     -37.83603458
    ]
   },
   "properties": {
    "name": "UNIT 1, 4 ALLISON ROAD FOREST HILL 3131",
    "locID": "LOC000073530530",
    "tech": "HFC",
    "upgrade": "NULL_NA",
    "gnaf_pid": "GAVIC411403136"
   }
  },
  {
   "type": "Feature",
   "geometry": {
    "type": "Point",
    "coordinates": [
     145.1786492,
     -37.83461614
    ]
   },
   "properties": {
    "name": "14A WILL STREET FOREST HILL 3131",
    "locID": "ChIJYZD2eSk_1moRAbnDduEW53k",
    "tech": "HFC",
    "upgrade": "UNKNOWN",
    "gnaf_pid": "GAVIC411403167"
   }
  },
  {
   "type": "Feature",
   "geometry": {
    "type": "Point",
    "coordinates": [
     145.1612698,
     -37.83875475
    ]
   },
   "properties": {
    "name": "43A JACKSON STREET FOREST HILL 3131",
    "locID": "LOC000056275948",
    "tech": "HFC",
    "upgrade": "NULL_NA",
    "gnaf_pid": "GAVIC411403724"
   }
  },
  {
   "type": "Feature",
   "geometry": {
    "type": "Point",
    "coordinates": [
     145.172141,
     -37.843724
    ]
   },
   "properties": {
    "name": "UNIT 2, 1 TADEDOR COURT FOREST HILL 3131",
    "locID": "LOC000066192276",
    "tech": "HFC",
    "upgrade": "NULL_NA",
    "gnaf_pid": "GAVIC411407619"
   }
  },
  {
   "type": "Feature",
   "geometry": {
    "type": "Point",
    "coordinates": [
     145.180696,
     -37.842355
    ]
   },
   "properties": {
    "name": "UNIT 2, 11 WINGROVE STREET FOREST HILL 3131",
    "locID": "LOC000007020098",
    "tech": "HFC",
    "upgrade": "NULL_NA",
    "gnaf_pid": "GAVIC411407623"
   }
  },
  {
   "type": "Feature",
   "geometry": {
    "type": "Point",
    "coordinates": [
     145.16917508,
     -37.84050244
    ]
   },
   "properties": {
    "name": "FLAT 2, 2 JACANA ROAD FOREST HILL 3131",
    "locID": "LOC000038980279",
    "tech": "HFC",
    "upgrade": "NULL_NA",
    "gnaf_pid": "GAVIC411409494"
   }
  },
  {
   "type": "Feature",
   "geometry": {
    "type": "Point",
    "coordinates": [
     145.16636137,
     -37.83657309
    ]
   },
   "properties": {
    "name": "79 MAHONEYS ROAD FOREST HILL 3131",
    "locID": "LOC000062409169",
    "tech": "HFC",
    "upgrade": "NULL_NA",
    "gnaf_pid": "GAVIC411409588"
   }
  },
  {
   "type": "Feature",
   "geometry": {
    "type": "Point",
    "coordinates": [
     145.171326,
     -37.833179
    ]
   },
   "properties": {
    "name": "UNIT 1, 5 PRATICO COURT FOREST HILL 3131",
    "locID": "LOC000093981809",
    "tech": "HFC",
    "upgrade": "NULL_NA",
    "gnaf_pid": "GAVIC411410091"
   }
  },
  {
   "type": "Feature",
   "geometry": {
    "type": "Point",
    "coordinates": [
     145.17182774,
     -37.82946146
    ]
   },
   "properties": {
    "name": "UNIT 2, 9 MORLOC STREET FOREST HILL 3131",
    "locID": "LOC000003967825",
    "tech": "HFC",
    "upgrade": "NULL_NA",
    "gnaf_pid": "GAVIC411410112"
   }
  },
  {
   "type": "Feature",
   "geometry": {
    "type": "Point",
    "coordinates": [
     145.17994834,
     -37.83536585
    ]
   },
   "properties": {
    "name": "345A CANTERBURY ROAD FOREST HILL 3131",
    "locID": "LOC000114039326",
    "tech": "HFC",
    "upgrade": "NULL_NA",
    "gnaf_pid": "GAVIC411410361"
   }
  },
  {
   "type": "Feature",
   "geometry": {
    "type": "Point",
    "coordinates": [
     145.182339,
     -37.835153
    ]
   },
   "properties": {
    "name": "12A FELICIA GROVE FOREST HILL 3131",
    "locID": "ChIJ3Y8049U-1moRl2TCYDfm-0U",
    "tech": "HFC",
    "upgrade": "UNKNOWN",
    "gnaf_pid": "GAVIC411410363"
   }
  },
  {
   "type": "Feature",
   "geometry": {
    "type": "Point",
    "coordinates": [
     145.1746261,
     -37.83408898
    ]
   },
   "properties": {
    "name": "UNIT 1, 305 CANTERBURY ROAD FOREST HILL 3131",
    "locID": "LOC000097999082",
    "tech": "HFC",
    "upgrade": "NULL_NA",
    "gnaf_pid": "GAVIC411410475"
   }
  },
  {
   "type": "Feature",
   "geometry": {
    "type": "Point",
    "coordinates": [
     145.182766,
     -37.839522
    ]
   },
   "properties": {
    "name": "UNIT 3, 103 HUSBAND ROAD FOREST HILL 3131",
    "locID": "LOC000019465585",
    "tech": "HFC",
    "upgrade": "NULL_NA",
    "gnaf_pid": "GAVIC411410564"
   }
  },
  {
   "type": "Feature",
   "geometry": {
    "type": "Point",
    "coordinates": [
     145.16812055,
     -37.82861759
    ]
   },
   "properties": {
    "name": "1 WATTLE COURT FOREST HILL 3131",
    "locID": "LOC000017773307",
    "tech": "HFC",
    "upgrade": "NULL_NA",
    "gnaf_pid": "GAVIC411411303"
   }
  },
  {
   "type": "Feature",
   "geometry": {
    "type": "Point",
    "coordinates": [
     145.18307,
     -37.840995
    ]
   },
   "properties": {
    "name": "UNIT 2, 34 STEVENS ROAD FOREST HILL 3131",
    "locID": "LOC000103296358",
    "tech": "HFC",
    "upgrade": "NULL_NA",
    "gnaf_pid": "GAVIC411412145"
   }
  },
  {
   "type": "Feature",
   "geometry": {
    "type": "Point",
    "coordinates": [
     145.180185,
     -37.843258
    ]
   },
   "properties": {
    "name": "9A MICHAEL COURT FOREST HILL 3131",
    "locID": "ChIJJ31eOCc_1moRqDjvZGXzRhc",
    "tech": "HFC",
    "upgrade": "UNKNOWN",
    "gnaf_pid": "GAVIC411412152"
   }
  },
  {
   "type": "Feature",
   "geometry": {
    "type": "Point",
    "coordinates": [
     145.18156706,
     -37.8364143
    ]
   },
   "properties": {
    "name": "UNIT 1, 18 LERNES STREET FOREST HILL 3131",
    "locID": "LOC000073092735",
    "tech": "HFC",
    "upgrade": "NULL_NA",
    "gnaf_pid": "GAVIC411412724"
   }
  },
  {
   "type": "Feature",
   "geometry": {
    "type": "Point",
    "coordinates": [
     145.18025705,
     -37.8365062
    ]
   },
   "properties": {
    "name": "11A LERNES STREET FOREST HILL 3131",
    "locID": "LOC000009299116",
    "tech": "HFC",
    "upgrade": "NULL_NA",
    "gnaf_pid": "GAVIC411412727"
   }
  },
  {
   "type": "Feature",
   "geometry": {
    "type": "Point",
    "coordinates": [
     145.17912623,
     -37.83526439
    ]
   },
   "properties": {
    "name": "341 CANTERBURY ROAD FOREST HILL 3131",
    "locID": "LOC000112976241",
    "tech": "HFC",
    "upgrade": "NULL_NA",
    "gnaf_pid": "GAVIC411412795"
   }
  },
  {
   "type": "Feature",
   "geometry": {
    "type": "Point",
    "coordinates": [
     145.17879873,
     -37.83445307
    ]
   },
   "properties": {
    "name": "14 WILL STREET FOREST HILL 3131",
    "locID": "LOC000060306359",
    "tech": "HFC",
    "upgrade": "NULL_NA",
    "gnaf_pid": "GAVIC411412881"
   }
  },
  {
   "type": "Feature",
   "geometry": {
    "type": "Point",
    "coordinates": [
     145.18390951,
     -37.83415626
    ]
   },
   "properties": {
    "name": "53 LASIANDRA AVENUE FOREST HILL 3131",
    "locID": "LOC000092090463",
    "tech": "HFC",
    "upgrade": "NULL_NA",
    "gnaf_pid": "GAVIC411413597"
   }
  },
  {
   "type": "Feature",
   "geometry": {
    "type": "Point",
    "coordinates": [
     145.16754475,
     -37.82936623
    ]
   },
   "properties": {
    "name": "UNIT 1, 2 JILMAX COURT FOREST HILL 3131",
    "locID": "LOC000013792093",
    "tech": "HFC",
    "upgrade": "NULL_NA",
    "gnaf_pid": "GAVIC411414124"
   }
  },
  {
   "type": "Feature",
   "geometry": {
    "type": "Point",
    "coordinates": [
     145.1707105,
     -37.84357804
    ]
   },
   "properties": {
    "name": "434 SPRINGVALE ROAD FOREST HILL 3131",
    "locID": "LOC000025976173",
    "tech": "HFC",
    "upgrade": "NULL_NA",
    "gnaf_pid": "GAVIC411414817"
   }
  },
  {
   "type": "Feature",
   "geometry": {
    "type": "Point",
    "coordinates": [
     145.17268196,
     -37.84291666
    ]
   },
   "properties": {
    "name": "9 JOLIMONT ROAD FOREST HILL 3131",
    "locID": "LOC000092546769",
    "tech": "HFC",
    "upgrade": "NULL_NA",
    "gnaf_pid": "GAVIC411414943"
   }
  },
  {
   "type": "Feature",
   "geometry": {
    "type": "Point",
    "coordinates": [
     145.18176,
     -37.844583
    ]
   },
   "properties": {
    "name": "1A TEAL COURT FOREST HILL 3131",
    "locID": "LOC000024379827",
    "tech": "HFC",
    "upgrade": "NULL_NA",
    "gnaf_pid": "GAVIC411414954"
   }
  },
  {
   "type": "Feature",
   "geometry": {
    "type": "Point",
    "coordinates": [
     145.178651,
     -37.843721
    ]
   },
   "properties": {
    "name": "57A JOLIMONT ROAD FOREST HILL 3131",
    "locID": "ChIJXfP-KyE_1moRIYFKho1HQsQ",
    "tech": "HFC",
    "upgrade": "UNKNOWN",
    "gnaf_pid": "GAVIC411414996"
   }
  },
  {
   "type": "Feature",
   "geometry": {
    "type": "Point",
    "coordinates": [
     145.17550218,
     -37.83315534
    ]
   },
   "properties": {
    "name": "6 BURDON COURT FOREST HILL 3131",
    "locID": "LOC000077118122",
    "tech": "HFC",
    "upgrade": "NULL_NA",
    "gnaf_pid": "GAVIC411415041"
   }
  },
  {
   "type": "Feature",
   "geometry": {
    "type": "Point",
    "coordinates": [
     145.16123548,
     -37.84532413
    ]
   },
   "properties": {
    "name": "14 ROMOLY DRIVE FOREST HILL 3131",
    "locID": "LOC000031676489",
    "tech": "HFC",
    "upgrade": "NULL_NA",
    "gnaf_pid": "GAVIC411415681"
   }
  },
  {
   "type": "Feature",
   "geometry": {
    "type": "Point",
    "coordinates": [
     145.18035981,
     -37.8365192
    ]
   },
   "properties": {
    "name": "11B LERNES STREET FOREST HILL 3131",
    "locID": "LOC000009760424",
    "tech": "HFC",
    "upgrade": "NULL_NA",
    "gnaf_pid": "GAVIC411415714"
   }
  },
  {
   "type": "Feature",
   "geometry": {
    "type": "Point",
    "coordinates": [
     145.16652476,
     -37.84402758
    ]
   },
   "properties": {
    "name": "24 PARKLAND PLACE FOREST HILL 3131",
    "locID": "LOC000053018665",
    "tech": "HFC",
    "upgrade": "NULL_NA",
    "gnaf_pid": "GAVIC411415907"
   }
  },
  {
   "type": "Feature",
   "geometry": {
    "type": "Point",
    "coordinates": [
     145.16568725,
     -37.8439648
    ]
   },
   "properties": {
    "name": "7 PARKLAND PLACE FOREST HILL 3131",
    "locID": "LOC000079970396",
    "tech": "HFC",
    "upgrade": "NULL_NA",
    "gnaf_pid": "GAVIC411415908"
   }
  },
  {
   "type": "Feature",
   "geometry": {
    "type": "Point",
    "coordinates": [
     145.16563783,
     -37.84422202
    ]
   },
   "properties": {
    "name": "12 PARKLAND PLACE FOREST HILL 3131",
    "locID": "LOC000075713047",
    "tech": "HFC",
    "upgrade": "NULL_NA",
    "gnaf_pid": "GAVIC411415909"
   }
  },
  {
   "type": "Feature",
   "geometry": {
    "type": "Point",
    "coordinates": [
     145.176423,
     -37.833531
    ]
   },
   "properties": {
    "name": "UNIT 1, 75 SHADY GROVE FOREST HILL 3131",
    "locID": "LOC000079561888",
    "tech": "HFC",
    "upgrade": "NULL_NA",
    "gnaf_pid": "GAVIC411416519"
   }
  },
  {
   "type": "Feature",
   "geometry": {
    "type": "Point",
    "coordinates": [
     145.177655,
     -37.831088
    ]
   },
   "properties": {
    "name": "1 ANDREW STREET FOREST HILL 3131",
    "locID": "LOC000056136191",
    "tech": "HFC",
    "upgrade": "NULL_NA",
    "gnaf_pid": "GAVIC411416522"
   }
  },
  {
   "type": "Feature",
   "geometry": {
    "type": "Point",
    "coordinates": [
     145.17480169,
     -37.8339386
    ]
   },
   "properties": {
    "name": "UNIT 3, 305 CANTERBURY ROAD FOREST HILL 3131",
    "locID": "LOC000098499187",
    "tech": "HFC",
    "upgrade": "NULL_NA",
    "gnaf_pid": "GAVIC411417337"
   }
  },
  {
   "type": "Feature",
   "geometry": {
    "type": "Point",
    "coordinates": [
     145.172141,
     -37.843724
    ]
   },
   "properties": {
    "name": "UNIT 1, 1 TADEDOR COURT FOREST HILL 3131",
    "locID": "LOC000095957727",
    "tech": "HFC",
    "upgrade": "NULL_NA",
    "gnaf_pid": "GAVIC411418200"
   }
  },
  {
   "type": "Feature",
   "geometry": {
    "type": "Point",
    "coordinates": [
     145.17193798,
     -37.82920871
    ]
   },
   "properties": {
    "name": "UNIT 3, 9 MORLOC STREET FOREST HILL 3131",
    "locID": "LOC000003967825",
    "tech": "HFC",
    "upgrade": "NULL_NA",
    "gnaf_pid": "GAVIC411418227"
   }
  },
  {
   "type": "Feature",
   "geometry": {
    "type": "Point",
    "coordinates": [
     145.17161072,
     -37.83429357
    ]
   },
   "properties": {
    "name": "291 CANTERBURY ROAD FOREST HILL 3131",
    "locID": "LOC000012744424",
    "tech": "HFC",
    "upgrade": "NULL_NA",
    "gnaf_pid": "GAVIC411418229"
   }
  },
  {
   "type": "Feature",
   "geometry": {
    "type": "Point",
    "coordinates": [
     145.18393,
     -37.833745
    ]
   },
   "properties": {
    "name": "47 LASIANDRA AVENUE FOREST HILL 3131",
    "locID": "LOC000096418073",
    "tech": "HFC",
    "upgrade": "NULL_NA",
    "gnaf_pid": "GAVIC411418275"
   }
  },
  {
   "type": "Feature",
   "geometry": {
    "type": "Point",
    "coordinates": [
     145.16573563,
     -37.84394417
    ]
   },
   "properties": {
    "name": "92 BARTER CRESCENT FOREST HILL 3131",
    "locID": "LOC000017702871",
    "tech": "HFC",
    "upgrade": "NULL_NA",
    "gnaf_pid": "GAVIC411419359"
   }
  },
  {
   "type": "Feature",
   "geometry": {
    "type": "Point",
    "coordinates": [
     145.16573563,
     -37.84394417
    ]
   },
   "properties": {
    "name": "88 BARTER CRESCENT FOREST HILL 3131",
    "locID": "LOC000002944517",
    "tech": "HFC",
    "upgrade": "NULL_NA",
    "gnaf_pid": "GAVIC411419361"
   }
  },
  {
   "type": "Feature",
   "geometry": {
    "type": "Point",
    "coordinates": [
     145.17277243,
     -37.84402471
    ]
   },
   "properties": {
    "name": "UNIT 2, 7 MATHESON ROAD FOREST HILL 3131",
    "locID": "LOC000027718750",
    "tech": "HFC",
    "upgrade": "NULL_NA",
    "gnaf_pid": "GAVIC411419683"
   }
  },
  {
   "type": "Feature",
   "geometry": {
    "type": "Point",
    "coordinates": [
     145.176071,
     -37.843364
    ]
   },
   "properties": {
    "name": "UNIT 2, 39 JOLIMONT ROAD FOREST HILL 3131",
    "locID": "LOC000092076059",
    "tech": "HFC",
    "upgrade": "NULL_NA",
    "gnaf_pid": "GAVIC411421023"
   }
  },
  {
   "type": "Feature",
   "geometry": {
    "type": "Point",
    "coordinates": [
     145.168903,
     -37.841767
    ]
   },
   "properties": {
    "name": "FLAT 1, 21 NORMA ROAD FOREST HILL 3131",
    "locID": "LOC000028507245",
    "tech": "HFC",
    "upgrade": "NULL_NA",
    "gnaf_pid": "GAVIC411421046"
   }
  },
  {
   "type": "Feature",
   "geometry": {
    "type": "Point",
    "coordinates": [
     145.18211613,
     -37.83442423
    ]
   },
   "properties": {
    "name": "13 FELICIA GROVE FOREST HILL 3131",
    "locID": "LOC000061698377",
    "tech": "HFC",
    "upgrade": "NULL_NA",
    "gnaf_pid": "GAVIC411421099"
   }
  },
  {
   "type": "Feature",
   "geometry": {
    "type": "Point",
    "coordinates": [
     145.176423,
     -37.833531
    ]
   },
   "properties": {
    "name": "UNIT 2, 75 SHADY GROVE FOREST HILL 3131",
    "locID": "LOC000079561888",
    "tech": "HFC",
    "upgrade": "NULL_NA",
    "gnaf_pid": "GAVIC411421110"
   }
  },
  {
   "type": "Feature",
   "geometry": {
    "type": "Point",
    "coordinates": [
     145.16128231,
     -37.84515571
    ]
   },
   "properties": {
    "name": "14A ROMOLY DRIVE FOREST HILL 3131",
    "locID": "LOC000031913571",
    "tech": "HFC",
    "upgrade": "NULL_NA",
    "gnaf_pid": "GAVIC411421138"
   }
  },
  {
   "type": "Feature",
   "geometry": {
    "type": "Point",
    "coordinates": [
     145.16872149,
     -37.8444848
    ]
   },
   "properties": {
    "name": "2A LAING COURT FOREST HILL 3131",
    "locID": "LOC000090946880",
    "tech": "HFC",
    "upgrade": "NULL_NA",
    "gnaf_pid": "GAVIC411421192"
   }
  },
  {
   "type": "Feature",
   "geometry": {
    "type": "Point",
    "coordinates": [
     145.161829,
     -37.835079
    ]
   },
   "properties": {
    "name": "3A FINLAYSON STREET FOREST HILL 3131",
    "locID": "ChIJJz3BUDg_1moRZB91UrUjXlE",
    "tech": "HFC",
    "upgrade": "UNKNOWN",
    "gnaf_pid": "GAVIC411421194"
   }
  },
  {
   "type": "Feature",
   "geometry": {
    "type": "Point",
    "coordinates": [
     145.172781,
     -37.843945
    ]
   },
   "properties": {
    "name": "UNIT 1, 7 MATHESON ROAD FOREST HILL 3131",
    "locID": "LOC000027581187",
    "tech": "HFC",
    "upgrade": "NULL_NA",
    "gnaf_pid": "GAVIC411421237"
   }
  },
  {
   "type": "Feature",
   "geometry": {
    "type": "Point",
    "coordinates": [
     145.16942393,
     -37.85153615
    ]
   },
   "properties": {
    "name": "542 SPRINGVALE ROAD FOREST HILL 3131",
    "locID": "LOC000022543250",
    "tech": "HFC",
    "upgrade": "NULL_NA",
    "gnaf_pid": "GAVIC411422779"
   }
  },
  {
   "type": "Feature",
   "geometry": {
    "type": "Point",
    "coordinates": [
     145.181762,
     -37.844423
    ]
   },
   "properties": {
    "name": "96 JOLIMONT ROAD FOREST HILL 3131",
    "locID": "LOC000031765327",
    "tech": "HFC",
    "upgrade": "NULL_NA",
    "gnaf_pid": "GAVIC411424355"
   }
  },
  {
   "type": "Feature",
   "geometry": {
    "type": "Point",
    "coordinates": [
     145.16451245,
     -37.83797254
    ]
   },
   "properties": {
    "name": "UNIT 1, 51 GLEBE STREET FOREST HILL 3131",
    "locID": "LOC000074967978",
    "tech": "HFC",
    "upgrade": "NULL_NA",
    "gnaf_pid": "GAVIC411424384"
   }
  },
  {
   "type": "Feature",
   "geometry": {
    "type": "Point",
    "coordinates": [
     145.1645134,
     -37.83793415
    ]
   },
   "properties": {
    "name": "UNIT 2, 51 GLEBE STREET FOREST HILL 3131",
    "locID": "LOC000074304429",
    "tech": "HFC",
    "upgrade": "NULL_NA",
    "gnaf_pid": "GAVIC411424385"
   }
  },
  {
   "type": "Feature",
   "geometry": {
    "type": "Point",
    "coordinates": [
     145.168903,
     -37.841767
    ]
   },
   "properties": {
    "name": "FLAT 2, 21 NORMA ROAD FOREST HILL 3131",
    "locID": "LOC000028507245",
    "tech": "HFC",
    "upgrade": "NULL_NA",
    "gnaf_pid": "GAVIC411424387"
   }
  },
  {
   "type": "Feature",
   "geometry": {
    "type": "Point",
    "coordinates": [
     145.18245794,
     -37.842889
    ]
   },
   "properties": {
    "name": "32A WINGROVE STREET FOREST HILL 3131",
    "locID": "LOC000002760304",
    "tech": "HFC",
    "upgrade": "NULL_NA",
    "gnaf_pid": "GAVIC411425125"
   }
  },
  {
   "type": "Feature",
   "geometry": {
    "type": "Point",
    "coordinates": [
     145.168651,
     -37.844561
    ]
   },
   "properties": {
    "name": "15 MOCK STREET FOREST HILL 3131",
    "locID": "LOC000103965145",
    "tech": "HFC",
    "upgrade": "NULL_NA",
    "gnaf_pid": "GAVIC411425470"
   }
  },
  {
   "type": "Feature",
   "geometry": {
    "type": "Point",
    "coordinates": [
     145.167957,
     -37.845662
    ]
   },
   "properties": {
    "name": "6 BALYARTA COURT FOREST HILL 3131",
    "locID": "LOC000021103967",
    "tech": "HFC",
    "upgrade": "NULL_NA",
    "gnaf_pid": "GAVIC411426013"
   }
  },
  {
   "type": "Feature",
   "geometry": {
    "type": "Point",
    "coordinates": [
     145.167766,
     -37.845476
    ]
   },
   "properties": {
    "name": "2 NARAMAH STREET FOREST HILL 3131",
    "locID": "LOC000011002990",
    "tech": "HFC",
    "upgrade": "NULL_NA",
    "gnaf_pid": "GAVIC411427028"
   }
  },
  {
   "type": "Feature",
   "geometry": {
    "type": "Point",
    "coordinates": [
     145.165229,
     -37.84052
    ]
   },
   "properties": {
    "name": "104B MAHONEYS ROAD FOREST HILL 3131",
    "locID": "ChIJmcR3Jzw_1moR8r4kbDStZ6s",
    "tech": "HFC",
    "upgrade": "UNKNOWN",
    "gnaf_pid": "GAVIC411427128"
   }
  },
  {
   "type": "Feature",
   "geometry": {
    "type": "Point",
    "coordinates": [
     145.17465986,
     -37.83392156
    ]
   },
   "properties": {
    "name": "UNIT 2, 305 CANTERBURY ROAD FOREST HILL 3131",
    "locID": "LOC000098328494",
    "tech": "HFC",
    "upgrade": "NULL_NA",
    "gnaf_pid": "GAVIC411429694"
   }
  },
  {
   "type": "Feature",
   "geometry": {
    "type": "Point",
    "coordinates": [
     145.17474709,
     -37.8341366
    ]
   },
   "properties": {
    "name": "UNIT 4, 305 CANTERBURY ROAD FOREST HILL 3131",
    "locID": "LOC000098393267",
    "tech": "HFC",
    "upgrade": "NULL_NA",
    "gnaf_pid": "GAVIC411429695"
   }
  },
  {
   "type": "Feature",
   "geometry": {
    "type": "Point",
    "coordinates": [
     145.176071,
     -37.843364
    ]
   },
   "properties": {
    "name": "UNIT 1, 39 JOLIMONT ROAD FOREST HILL 3131",
    "locID": "LOC000190836977",
    "tech": "HFC",
    "upgrade": "NULL_NA",
    "gnaf_pid": "GAVIC411429710"
   }
  },
  {
   "type": "Feature",
   "geometry": {
    "type": "Point",
    "coordinates": [
     145.16652476,
     -37.84402758
    ]
   },
   "properties": {
    "name": "22 PARKLAND PLACE FOREST HILL 3131",
    "locID": "LOC000036153594",
    "tech": "HFC",
    "upgrade": "NULL_NA",
    "gnaf_pid": "GAVIC411433259"
   }
  },
  {
   "type": "Feature",
   "geometry": {
    "type": "Point",
    "coordinates": [
     145.16917508,
     -37.84050244
    ]
   },
   "properties": {
    "name": "FLAT 1, 2 JACANA ROAD FOREST HILL 3131",
    "locID": "LOC000038980279",
    "tech": "HFC",
    "upgrade": "NULL_NA",
    "gnaf_pid": "GAVIC411433979"
   }
  },
  {
   "type": "Feature",
   "geometry": {
    "type": "Point",
    "coordinates": [
     145.169524,
     -37.844679
    ]
   },
   "properties": {
    "name": "18-24 BOX AVENUE FOREST HILL 3131",
    "locID": "ChIJlyikQz0_1moRXf_N2ZicBL4",
    "tech": "HFC",
    "upgrade": "UNKNOWN",
    "gnaf_pid": "GAVIC413400832"
   }
  },
  {
   "type": "Feature",
   "geometry": {
    "type": "Point",
    "coordinates": [
     145.169524,
     -37.844679
    ]
   },
   "properties": {
    "name": "FLAT 18, 18-24 BOX AVENUE FOREST HILL 3131",
    "locID": "ChIJlyikQz0_1moRXf_N2ZicBL4",
    "tech": "HFC",
    "upgrade": "UNKNOWN",
    "gnaf_pid": "GAVIC413400838"
   }
  },
  {
   "type": "Feature",
   "geometry": {
    "type": "Point",
    "coordinates": [
     145.16636137,
     -37.83657309
    ]
   },
   "properties": {
    "name": "UNIT 11, 79 MAHONEYS ROAD FOREST HILL 3131",
    "locID": "LOC000062409169",
    "tech": "HFC",
    "upgrade": "NULL_NA",
    "gnaf_pid": "GAVIC413408073"
   }
  },
  {
   "type": "Feature",
   "geometry": {
    "type": "Point",
    "coordinates": [
     145.16636137,
     -37.83657309
    ]
   },
   "properties": {
    "name": "UNIT 12, 79 MAHONEYS ROAD FOREST HILL 3131",
    "locID": "LOC000062409169",
    "tech": "HFC",
    "upgrade": "NULL_NA",
    "gnaf_pid": "GAVIC413408075"
   }
  },
  {
   "type": "Feature",
   "geometry": {
    "type": "Point",
    "coordinates": [
     145.16646838,
     -37.83595919
    ]
   },
   "properties": {
    "name": "65 MAHONEYS ROAD FOREST HILL 3131",
    "locID": "LOC000042469398",
    "tech": "HFC",
    "upgrade": "NULL_NA",
    "gnaf_pid": "GAVIC413409651"
   }
  },
  {
   "type": "Feature",
   "geometry": {
    "type": "Point",
    "coordinates": [
     145.16660329,
     -37.83506285
    ]
   },
   "properties": {
    "name": "33 MAHONEYS ROAD FOREST HILL 3131",
    "locID": "LOC000029629765",
    "tech": "FTTP",
    "upgrade": "NULL_NA",
    "gnaf_pid": "GAVIC413409655"
   }
  },
  {
   "type": "Feature",
   "geometry": {
    "type": "Point",
    "coordinates": [
     145.17452336,
     -37.83739586
    ]
   },
   "properties": {
    "name": "8 FRASER PLACE FOREST HILL 3131",
    "locID": "ChIJ17yr8SU_1moROW8yGadSiyI",
    "tech": "HFC",
    "upgrade": "UNKNOWN",
    "gnaf_pid": "GAVIC413412557"
   }
  },
  {
   "type": "Feature",
   "geometry": {
    "type": "Point",
    "coordinates": [
     145.16636137,
     -37.83657309
    ]
   },
   "properties": {
    "name": "UNIT 7, 79 MAHONEYS ROAD FOREST HILL 3131",
    "locID": "LOC000062409169",
    "tech": "HFC",
    "upgrade": "NULL_NA",
    "gnaf_pid": "GAVIC413412593"
   }
  },
  {
   "type": "Feature",
   "geometry": {
    "type": "Point",
    "coordinates": [
     145.16636137,
     -37.83657309
    ]
   },
   "properties": {
    "name": "UNIT 8, 79 MAHONEYS ROAD FOREST HILL 3131",
    "locID": "LOC000062409169",
    "tech": "HFC",
    "upgrade": "NULL_NA",
    "gnaf_pid": "GAVIC413412594"
   }
  },
  {
   "type": "Feature",
   "geometry": {
    "type": "Point",
    "coordinates": [
     145.16636137,
     -37.83657309
    ]
   },
   "properties": {
    "name": "UNIT 9, 79 MAHONEYS ROAD FOREST HILL 3131",
    "locID": "LOC000062409169",
    "tech": "HFC",
    "upgrade": "NULL_NA",
    "gnaf_pid": "GAVIC413412595"
   }
  },
  {
   "type": "Feature",
   "geometry": {
    "type": "Point",
    "coordinates": [
     145.16636137,
     -37.83657309
    ]
   },
   "properties": {
    "name": "UNIT 18, 79 MAHONEYS ROAD FOREST HILL 3131",
    "locID": "LOC000062409169",
    "tech": "HFC",
    "upgrade": "NULL_NA",
    "gnaf_pid": "GAVIC413413325"
   }
  },
  {
   "type": "Feature",
   "geometry": {
    "type": "Point",
    "coordinates": [
     145.16249661,
     -37.83442458
    ]
   },
   "properties": {
    "name": "6 BENNETT STREET FOREST HILL 3131",
    "locID": "LOC000040999551",
    "tech": "HFC",
    "upgrade": "NULL_NA",
    "gnaf_pid": "GAVIC413413393"
   }
  },
  {
   "type": "Feature",
   "geometry": {
    "type": "Point",
    "coordinates": [
     145.159984,
     -37.840294
    ]
   },
   "properties": {
    "name": "37A BINDY STREET FOREST HILL 3131",
    "locID": "ChIJ2SNKiT8_1moR1TIm9vK-i88",
    "tech": "HFC",
    "upgrade": "UNKNOWN",
    "gnaf_pid": "GAVIC413415423"
   }
  },
  {
   "type": "Feature",
   "geometry": {
    "type": "Point",
    "coordinates": [
     145.17165944,
     -37.84199055
    ]
   },
   "properties": {
    "name": "423 SPRINGVALE ROAD FOREST HILL 3131",
    "locID": "LOC000169446700",
    "tech": "HFC",
    "upgrade": "NULL_NA",
    "gnaf_pid": "GAVIC413417269"
   }
  },
  {
   "type": "Feature",
   "geometry": {
    "type": "Point",
    "coordinates": [
     145.18300941,
     -37.8368363
    ]
   },
   "properties": {
    "name": "21A BRENTFORD SQUARE FOREST HILL 3131",
    "locID": "ChIJjb2kP9Y-1moRVoWYONExdts",
    "tech": "HFC",
    "upgrade": "UNKNOWN",
    "gnaf_pid": "GAVIC413417865"
   }
  },
  {
   "type": "Feature",
   "geometry": {
    "type": "Point",
    "coordinates": [
     145.16029455,
     -37.83863691
    ]
   },
   "properties": {
    "name": "43 FAULKNER STREET FOREST HILL 3131",
    "locID": "LOC000042319176",
    "tech": "HFC",
    "upgrade": "NULL_NA",
    "gnaf_pid": "GAVIC413418412"
   }
  },
  {
   "type": "Feature",
   "geometry": {
    "type": "Point",
    "coordinates": [
     145.16568725,
     -37.8439648
    ]
   },
   "properties": {
    "name": "11 PARKLAND PLACE FOREST HILL 3131",
    "locID": "LOC000079923402",
    "tech": "HFC",
    "upgrade": "NULL_NA",
    "gnaf_pid": "GAVIC413421598"
   }
  },
  {
   "type": "Feature",
   "geometry": {
    "type": "Point",
    "coordinates": [
     145.17139427,
     -37.83427606
    ]
   },
   "properties": {
    "name": "289 CANTERBURY ROAD FOREST HILL 3131",
    "locID": "LOC000005200190",
    "tech": "HFC",
    "upgrade": "NULL_NA",
    "gnaf_pid": "GAVIC413422271"
   }
  },
  {
   "type": "Feature",
   "geometry": {
    "type": "Point",
    "coordinates": [
     145.1829078,
     -37.83620783
    ]
   },
   "properties": {
    "name": "480 CANTERBURY ROAD FOREST HILL 3131",
    "locID": "LOC000034498366",
    "tech": "HFC",
    "upgrade": "NULL_NA",
    "gnaf_pid": "GAVIC413422281"
   }
  },
  {
   "type": "Feature",
   "geometry": {
    "type": "Point",
    "coordinates": [
     145.16636137,
     -37.83657309
    ]
   },
   "properties": {
    "name": "UNIT 16, 79 MAHONEYS ROAD FOREST HILL 3131",
    "locID": "LOC000062409169",
    "tech": "HFC",
    "upgrade": "NULL_NA",
    "gnaf_pid": "GAVIC413427935"
   }
  },
  {
   "type": "Feature",
   "geometry": {
    "type": "Point",
    "coordinates": [
     145.16636137,
     -37.83657309
    ]
   },
   "properties": {
    "name": "UNIT 17, 79 MAHONEYS ROAD FOREST HILL 3131",
    "locID": "LOC000062409169",
    "tech": "HFC",
    "upgrade": "NULL_NA",
    "gnaf_pid": "GAVIC413427936"
   }
  },
  {
   "type": "Feature",
   "geometry": {
    "type": "Point",
    "coordinates": [
     145.171778,
     -37.843985
    ]
   },
   "properties": {
    "name": "4B TADEDOR COURT FOREST HILL 3131",
    "locID": "ChIJi8y83CI_1moRDAa_63V3Opo",
    "tech": "HFC",
    "upgrade": "UNKNOWN",
    "gnaf_pid": "GAVIC413427961"
   }
  },
  {
   "type": "Feature",
   "geometry": {
    "type": "Point",
    "coordinates": [
     145.16636137,
     -37.83657309
    ]
   },
   "properties": {
    "name": "UNIT 13, 79 MAHONEYS ROAD FOREST HILL 3131",
    "locID": "LOC000062409169",
    "tech": "HFC",
    "upgrade": "NULL_NA",
    "gnaf_pid": "GAVIC413427984"
   }
  },
  {
   "type": "Feature",
   "geometry": {
    "type": "Point",
    "coordinates": [
     145.16633463,
     -37.8366233
    ]
   },
   "properties": {
    "name": "81 MAHONEYS ROAD FOREST HILL 3131",
    "locID": "Ei84MSBNYWhvbmV5cyBSZCwgRm9yZXN0IEhpbGwgVklDIDMxMzEsIEF1c3RyYWxpYSIwEi4KFAoSCakHhjk6P9ZqEeCEpEyT4r7NEFEqFAoSCZ_-YOQVP9ZqEbvmrqZyD8Cv",
    "tech": "HFC",
    "upgrade": "UNKNOWN",
    "gnaf_pid": "GAVIC413427985"
   }
  },
  {
   "type": "Feature",
   "geometry": {
    "type": "Point",
    "coordinates": [
     145.166497,
     -37.835665
    ]
   },
   "properties": {
    "name": "53-55 MAHONEYS ROAD FOREST HILL 3131",
    "locID": "LOC000027005461",
    "tech": "HFC",
    "upgrade": "NULL_NA",
    "gnaf_pid": "GAVIC413427989"
   }
  },
  {
   "type": "Feature",
   "geometry": {
    "type": "Point",
    "coordinates": [
     145.16469386,
     -37.84374879
    ]
   },
   "properties": {
    "name": "140 MAHONEYS ROAD FOREST HILL 3131",
    "locID": "LOC000004321861",
    "tech": "HFC",
    "upgrade": "NULL_NA",
    "gnaf_pid": "GAVIC413427992"
   }
  },
  {
   "type": "Feature",
   "geometry": {
    "type": "Point",
    "coordinates": [
     145.166621,
     -37.835261
    ]
   },
   "properties": {
    "name": "UNIT 1, 39 MAHONEYS ROAD FOREST HILL 3131",
    "locID": "LOC000059849928",
    "tech": "HFC",
    "upgrade": "NULL_NA",
    "gnaf_pid": "GAVIC413427993"
   }
  },
  {
   "type": "Feature",
   "geometry": {
    "type": "Point",
    "coordinates": [
     145.17442964,
     -37.8314353
    ]
   },
   "properties": {
    "name": "4 WICKHAM AVENUE FOREST HILL 3131",
    "locID": "LOC000097166956",
    "tech": "HFC",
    "upgrade": "NULL_NA",
    "gnaf_pid": "GAVIC413429664"
   }
  },
  {
   "type": "Feature",
   "geometry": {
    "type": "Point",
    "coordinates": [
     145.16321142,
     -37.83389043
    ]
   },
   "properties": {
    "name": "SHOP 104, 270 CANTERBURY ROAD FOREST HILL 3131",
    "locID": "LOC000123563100",
    "tech": "FTTB",
    "upgrade": "NULL_NA",
    "gnaf_pid": "GAVIC413431170"
   }
  },
  {
   "type": "Feature",
   "geometry": {
    "type": "Point",
    "coordinates": [
     145.18392101,
     -37.83282459
    ]
   },
   "properties": {
    "name": "35 LASIANDRA AVENUE FOREST HILL 3131",
    "locID": "LOC000026080119",
    "tech": "HFC",
    "upgrade": "NULL_NA",
    "gnaf_pid": "GAVIC413431987"
   }
  },
  {
   "type": "Feature",
   "geometry": {
    "type": "Point",
    "coordinates": [
     145.176645,
     -37.832425
    ]
   },
   "properties": {
    "name": "UNIT 2, 65 SHADY GROVE FOREST HILL 3131",
    "locID": "LOC000070895031",
    "tech": "HFC",
    "upgrade": "NULL_NA",
    "gnaf_pid": "GAVIC413433559"
   }
  },
  {
   "type": "Feature",
   "geometry": {
    "type": "Point",
    "coordinates": [
     145.17683883,
     -37.83143345
    ]
   },
   "properties": {
    "name": "59 SHADY GROVE FOREST HILL 3131",
    "locID": "LOC000031097456",
    "tech": "HFC",
    "upgrade": "NULL_NA",
    "gnaf_pid": "GAVIC413433560"
   }
  },
  {
   "type": "Feature",
   "geometry": {
    "type": "Point",
    "coordinates": [
     145.16601878,
     -37.85411141
    ]
   },
   "properties": {
    "name": "351 BURWOOD HIGHWAY FOREST HILL 3131",
    "locID": "LOC000024386934",
    "tech": "FTTN",
    "upgrade": "FTTP_NA",
    "gnaf_pid": "GAVIC413433566"
   }
  },
  {
   "type": "Feature",
   "geometry": {
    "type": "Point",
    "coordinates": [
     145.182308,
     -37.833802
    ]
   },
   "properties": {
    "name": "UNIT 1, 9 GREVILLEA COURT FOREST HILL 3131",
    "locID": "LOC000054924651",
    "tech": "HFC",
    "upgrade": "NULL_NA",
    "gnaf_pid": "GAVIC413434050"
   }
  },
  {
   "type": "Feature",
   "geometry": {
    "type": "Point",
    "coordinates": [
     145.182308,
     -37.833802
    ]
   },
   "properties": {
    "name": "UNIT 2, 9 GREVILLEA COURT FOREST HILL 3131",
    "locID": "LOC000054924651",
    "tech": "HFC",
    "upgrade": "NULL_NA",
    "gnaf_pid": "GAVIC413434051"
   }
  },
  {
   "type": "Feature",
   "geometry": {
    "type": "Point",
    "coordinates": [
     145.16321142,
     -37.83389043
    ]
   },
   "properties": {
    "name": "UNIT 140, 270 CANTERBURY ROAD FOREST HILL 3131",
    "locID": "LOC000175460527",
    "tech": "FTTB",
    "upgrade": "NULL_NA",
    "gnaf_pid": "GAVIC413435644"
   }
  },
  {
   "type": "Feature",
   "geometry": {
    "type": "Point",
    "coordinates": [
     145.16321142,
     -37.83389043
    ]
   },
   "properties": {
    "name": "SHOP 122, 270 CANTERBURY ROAD FOREST HILL 3131",
    "locID": "LOC000175460527",
    "tech": "FTTB",
    "upgrade": "NULL_NA",
    "gnaf_pid": "GAVIC413435708"
   }
  },
  {
   "type": "Feature",
   "geometry": {
    "type": "Point",
    "coordinates": [
     145.176645,
     -37.832425
    ]
   },
   "properties": {
    "name": "UNIT 1, 65 SHADY GROVE FOREST HILL 3131",
    "locID": "LOC000070895031",
    "tech": "HFC",
    "upgrade": "NULL_NA",
    "gnaf_pid": "GAVIC413436573"
   }
  },
  {
   "type": "Feature",
   "geometry": {
    "type": "Point",
    "coordinates": [
     145.16321142,
     -37.83389043
    ]
   },
   "properties": {
    "name": "SHOP 151, 270 CANTERBURY ROAD FOREST HILL 3131",
    "locID": "LOC000175460527",
    "tech": "FTTB",
    "upgrade": "NULL_NA",
    "gnaf_pid": "GAVIC413437337"
   }
  },
  {
   "type": "Feature",
   "geometry": {
    "type": "Point",
    "coordinates": [
     145.171911,
     -37.843177
    ]
   },
   "properties": {
    "name": "2 JOLIMONT ROAD FOREST HILL 3131",
    "locID": "LOC000062754496",
    "tech": "HFC",
    "upgrade": "NULL_NA",
    "gnaf_pid": "GAVIC413438091"
   }
  },
  {
   "type": "Feature",
   "geometry": {
    "type": "Point",
    "coordinates": [
     145.168715,
     -37.832374
    ]
   },
   "properties": {
    "name": "UNIT 1, 35 GLEN VALLEY ROAD FOREST HILL 3131",
    "locID": "LOC000060356852",
    "tech": "HFC",
    "upgrade": "NULL_NA",
    "gnaf_pid": "GAVIC413438569"
   }
  },
  {
   "type": "Feature",
   "geometry": {
    "type": "Point",
    "coordinates": [
     145.16321142,
     -37.83389043
    ]
   },
   "properties": {
    "name": "SHOP 205, 270 CANTERBURY ROAD FOREST HILL 3131",
    "locID": "LOC000008600096",
    "tech": "FTTB",
    "upgrade": "NULL_NA",
    "gnaf_pid": "GAVIC413441874"
   }
  },
  {
   "type": "Feature",
   "geometry": {
    "type": "Point",
    "coordinates": [
     145.16321142,
     -37.83389043
    ]
   },
   "properties": {
    "name": "SHOP 217, 270 CANTERBURY ROAD FOREST HILL 3131",
    "locID": "LOC000184414642",
    "tech": "FTTB",
    "upgrade": "NULL_NA",
    "gnaf_pid": "GAVIC413441880"
   }
  },
  {
   "type": "Feature",
   "geometry": {
    "type": "Point",
    "coordinates": [
     145.1714515,
     -37.84210937
    ]
   },
   "properties": {
    "name": "354 SPRINGVALE ROAD FOREST HILL 3131",
    "locID": "ChIJa0_BRyM_1moR9kg9AqdkROw",
    "tech": "HFC",
    "upgrade": "UNKNOWN",
    "gnaf_pid": "GAVIC413444056"
   }
  },
  {
   "type": "Feature",
   "geometry": {
    "type": "Point",
    "coordinates": [
     145.16948713,
     -37.8473255
    ]
   },
   "properties": {
    "name": "17 ECHUNGA CLOSE FOREST HILL 3131",
    "locID": "ChIJZUHNnxc_1moR1nBl97V9yDU",
    "tech": "HFC",
    "upgrade": "UNKNOWN",
    "gnaf_pid": "GAVIC413444630"
   }
  },
  {
   "type": "Feature",
   "geometry": {
    "type": "Point",
    "coordinates": [
     145.16275851,
     -37.84408364
    ]
   },
   "properties": {
    "name": "40 GOLDEN GLEN ROAD FOREST HILL 3131",
    "locID": "ChIJc54qohU_1moRW9n_o6OixXQ",
    "tech": "HFC",
    "upgrade": "UNKNOWN",
    "gnaf_pid": "GAVIC413453647"
   }
  },
  {
   "type": "Feature",
   "geometry": {
    "type": "Point",
    "coordinates": [
     145.17256346,
     -37.83644786
    ]
   },
   "properties": {
    "name": "343 SPRINGVALE ROAD FOREST HILL 3131",
    "locID": "LOC000103376233",
    "tech": "HFC",
    "upgrade": "NULL_NA",
    "gnaf_pid": "GAVIC413453792"
   }
  },
  {
   "type": "Feature",
   "geometry": {
    "type": "Point",
    "coordinates": [
     145.170331,
     -37.845151
    ]
   },
   "properties": {
    "name": "448 SPRINGVALE ROAD FOREST HILL 3131",
    "locID": "LOC000039432867",
    "tech": "HFC",
    "upgrade": "NULL_NA",
    "gnaf_pid": "GAVIC413453802"
   }
  },
  {
   "type": "Feature",
   "geometry": {
    "type": "Point",
    "coordinates": [
     145.17328996,
     -37.8305087
    ]
   },
   "properties": {
    "name": "286 SPRINGVALE ROAD FOREST HILL 3131",
    "locID": "LOC000030135458",
    "tech": "HFC",
    "upgrade": "NULL_NA",
    "gnaf_pid": "GAVIC413453805"
   }
  },
  {
   "type": "Feature",
   "geometry": {
    "type": "Point",
    "coordinates": [
     145.17319164,
     -37.83100798
    ]
   },
   "properties": {
    "name": "296 SPRINGVALE ROAD FOREST HILL 3131",
    "locID": "LOC000081259919",
    "tech": "HFC",
    "upgrade": "NULL_NA",
    "gnaf_pid": "GAVIC413453806"
   }
  },
  {
   "type": "Feature",
   "geometry": {
    "type": "Point",
    "coordinates": [
     145.17278343,
     -37.83313345
    ]
   },
   "properties": {
    "name": "320 SPRINGVALE ROAD FOREST HILL 3131",
    "locID": "LOC000001904149",
    "tech": "HFC",
    "upgrade": "NULL_NA",
    "gnaf_pid": "GAVIC413453815"
   }
  },
  {
   "type": "Feature",
   "geometry": {
    "type": "Point",
    "coordinates": [
     145.17341614,
     -37.82986795
    ]
   },
   "properties": {
    "name": "278 SPRINGVALE ROAD FOREST HILL 3131",
    "locID": "LOC000077288985",
    "tech": "HFC",
    "upgrade": "NULL_NA",
    "gnaf_pid": "GAVIC413453818"
   }
  },
  {
   "type": "Feature",
   "geometry": {
    "type": "Point",
    "coordinates": [
     145.176537,
     -37.833099
    ]
   },
   "properties": {
    "name": "2 JOCELYN COURT FOREST HILL 3131",
    "locID": "LOC000025880695",
    "tech": "HFC",
    "upgrade": "NULL_NA",
    "gnaf_pid": "GAVIC419564471"
   }
  },
  {
   "type": "Feature",
   "geometry": {
    "type": "Point",
    "coordinates": [
     145.177419,
     -37.832824
    ]
   },
   "properties": {
    "name": "5 JOCELYN COURT FOREST HILL 3131",
    "locID": "LOC000044921373",
    "tech": "HFC",
    "upgrade": "NULL_NA",
    "gnaf_pid": "GAVIC419564472"
   }
  },
  {
   "type": "Feature",
   "geometry": {
    "type": "Point",
    "coordinates": [
     145.177089,
     -37.833306
    ]
   },
   "properties": {
    "name": "8 JOCELYN COURT FOREST HILL 3131",
    "locID": "LOC000080367106",
    "tech": "HFC",
    "upgrade": "NULL_NA",
    "gnaf_pid": "GAVIC419564632"
   }
  },
  {
   "type": "Feature",
   "geometry": {
    "type": "Point",
    "coordinates": [
     145.176491,
     -37.843759
    ]
   },
   "properties": {
    "name": "38-54 JOLIMONT ROAD FOREST HILL 3131",
    "locID": "LOC000042287207",
    "tech": "HFC",
    "upgrade": "NULL_NA",
    "gnaf_pid": "GAVIC419564636"
   }
  },
  {
   "type": "Feature",
   "geometry": {
    "type": "Point",
    "coordinates": [
     145.180963,
     -37.831464
    ]
   },
   "properties": {
    "name": "6 ABELIA STREET FOREST HILL 3131",
    "locID": "LOC000014849839",
    "tech": "HFC",
    "upgrade": "NULL_NA",
    "gnaf_pid": "GAVIC419564728"
   }
  },
  {
   "type": "Feature",
   "geometry": {
    "type": "Point",
    "coordinates": [
     145.162547,
     -37.834107
    ]
   },
   "properties": {
    "name": "2 BENNETT STREET FOREST HILL 3131",
    "locID": "LOC000087889396",
    "tech": "HFC",
    "upgrade": "NULL_NA",
    "gnaf_pid": "GAVIC419565612"
   }
  },
  {
   "type": "Feature",
   "geometry": {
    "type": "Point",
    "coordinates": [
     145.162029,
     -37.838046
    ]
   },
   "properties": {
    "name": "34 BENNETT STREET FOREST HILL 3131",
    "locID": "LOC000007701494",
    "tech": "HFC",
    "upgrade": "NULL_NA",
    "gnaf_pid": "GAVIC419565613"
   }
  },
  {
   "type": "Feature",
   "geometry": {
    "type": "Point",
    "coordinates": [
     145.162541,
     -37.837081
    ]
   },
   "properties": {
    "name": "41 BENNETT STREET FOREST HILL 3131",
    "locID": "LOC000034620802",
    "tech": "HFC",
    "upgrade": "NULL_NA",
    "gnaf_pid": "GAVIC419565614"
   }
  },
  {
   "type": "Feature",
   "geometry": {
    "type": "Point",
    "coordinates": [
     145.161885,
     -37.83881
    ]
   },
   "properties": {
    "name": "44 BENNETT STREET FOREST HILL 3131",
    "locID": "LOC000008017457",
    "tech": "HFC",
    "upgrade": "NULL_NA",
    "gnaf_pid": "GAVIC419565615"
   }
  },
  {
   "type": "Feature",
   "geometry": {
    "type": "Point",
    "coordinates": [
     145.173242,
     -37.834003
    ]
   },
   "properties": {
    "name": "335 SPRINGVALE ROAD FOREST HILL 3131",
    "locID": "LOC000030593637",
    "tech": "HFC",
    "upgrade": "NULL_NA",
    "gnaf_pid": "GAVIC419565739"
   }
  },
  {
   "type": "Feature",
   "geometry": {
    "type": "Point",
    "coordinates": [
     145.17262,
     -37.83621
    ]
   },
   "properties": {
    "name": "339 SPRINGVALE ROAD FOREST HILL 3131",
    "locID": "LOC000082734369",
    "tech": "HFC",
    "upgrade": "NULL_NA",
    "gnaf_pid": "GAVIC419565741"
   }
  },
  {
   "type": "Feature",
   "geometry": {
    "type": "Point",
    "coordinates": [
     145.16668,
     -37.837929
    ]
   },
   "properties": {
    "name": "10 BARTER CRESCENT FOREST HILL 3131",
    "locID": "LOC000102395296",
    "tech": "HFC",
    "upgrade": "NULL_NA",
    "gnaf_pid": "GAVIC419566412"
   }
  },
  {
   "type": "Feature",
   "geometry": {
    "type": "Point",
    "coordinates": [
     145.166288,
     -37.840429
    ]
   },
   "properties": {
    "name": "46 BARTER CRESCENT FOREST HILL 3131",
    "locID": "LOC000060616960",
    "tech": "HFC",
    "upgrade": "NULL_NA",
    "gnaf_pid": "GAVIC419566414"
   }
  },
  {
   "type": "Feature",
   "geometry": {
    "type": "Point",
    "coordinates": [
     145.166207,
     -37.840968
    ]
   },
   "properties": {
    "name": "52 BARTER CRESCENT FOREST HILL 3131",
    "locID": "LOC000032724886",
    "tech": "HFC",
    "upgrade": "NULL_NA",
    "gnaf_pid": "GAVIC419566415"
   }
  },
  {
   "type": "Feature",
   "geometry": {
    "type": "Point",
    "coordinates": [
     145.1665967,
     -37.84084299
    ]
   },
   "properties": {
    "name": "57 BARTER CRESCENT FOREST HILL 3131",
    "locID": "LOC000003696122",
    "tech": "HFC",
    "upgrade": "NULL_NA",
    "gnaf_pid": "GAVIC419566416"
   }
  },
  {
   "type": "Feature",
   "geometry": {
    "type": "Point",
    "coordinates": [
     145.166087,
     -37.841651
    ]
   },
   "properties": {
    "name": "62 BARTER CRESCENT FOREST HILL 3131",
    "locID": "LOC000109268216",
    "tech": "HFC",
    "upgrade": "NULL_NA",
    "gnaf_pid": "GAVIC419566417"
   }
  },
  {
   "type": "Feature",
   "geometry": {
    "type": "Point",
    "coordinates": [
     145.172346,
     -37.831168
    ]
   },
   "properties": {
    "name": "2 BESSAZILE AVENUE FOREST HILL 3131",
    "locID": "LOC000106056974",
    "tech": "HFC",
    "upgrade": "NULL_NA",
    "gnaf_pid": "GAVIC419566508"
   }
  },
  {
   "type": "Feature",
   "geometry": {
    "type": "Point",
    "coordinates": [
     145.1724745,
     -37.83088674
    ]
   },
   "properties": {
    "name": "3 BESSAZILE AVENUE FOREST HILL 3131",
    "locID": "LOC000090588663",
    "tech": "HFC",
    "upgrade": "NULL_NA",
    "gnaf_pid": "GAVIC419566509"
   }
  },
  {
   "type": "Feature",
   "geometry": {
    "type": "Point",
    "coordinates": [
     145.170847,
     -37.830676
    ]
   },
   "properties": {
    "name": "19 BESSAZILE AVENUE FOREST HILL 3131",
    "locID": "LOC000011860641",
    "tech": "HFC",
    "upgrade": "NULL_NA",
    "gnaf_pid": "GAVIC419566510"
   }
  },
  {
   "type": "Feature",
   "geometry": {
    "type": "Point",
    "coordinates": [
     145.169753,
     -37.830831
    ]
   },
   "properties": {
    "name": "26 BESSAZILE AVENUE FOREST HILL 3131",
    "locID": "LOC000013927758",
    "tech": "HFC",
    "upgrade": "NULL_NA",
    "gnaf_pid": "GAVIC419566511"
   }
  },
  {
   "type": "Feature",
   "geometry": {
    "type": "Point",
    "coordinates": [
     145.169635,
     -37.830531
    ]
   },
   "properties": {
    "name": "31 BESSAZILE AVENUE FOREST HILL 3131",
    "locID": "LOC000013509462",
    "tech": "HFC",
    "upgrade": "NULL_NA",
    "gnaf_pid": "GAVIC419566512"
   }
  },
  {
   "type": "Feature",
   "geometry": {
    "type": "Point",
    "coordinates": [
     145.169443,
     -37.830483
    ]
   },
   "properties": {
    "name": "33 BESSAZILE AVENUE FOREST HILL 3131",
    "locID": "LOC000019407344",
    "tech": "HFC",
    "upgrade": "NULL_NA",
    "gnaf_pid": "GAVIC419566513"
   }
  },
  {
   "type": "Feature",
   "geometry": {
    "type": "Point",
    "coordinates": [
     145.180821,
     -37.833111
    ]
   },
   "properties": {
    "name": "10 BRISTOW DRIVE FOREST HILL 3131",
    "locID": "LOC000001994557",
    "tech": "HFC",
    "upgrade": "NULL_NA",
    "gnaf_pid": "GAVIC419566549"
   }
  },
  {
   "type": "Feature",
   "geometry": {
    "type": "Point",
    "coordinates": [
     145.18083,
     -37.83367
    ]
   },
   "properties": {
    "name": "18 BRISTOW DRIVE FOREST HILL 3131",
    "locID": "LOC000074700169",
    "tech": "HFC",
    "upgrade": "NULL_NA",
    "gnaf_pid": "GAVIC419566550"
   }
  },
  {
   "type": "Feature",
   "geometry": {
    "type": "Point",
    "coordinates": [
     145.181192,
     -37.833721
    ]
   },
   "properties": {
    "name": "21 BRISTOW DRIVE FOREST HILL 3131",
    "locID": "LOC000008434967",
    "tech": "HFC",
    "upgrade": "NULL_NA",
    "gnaf_pid": "GAVIC419566551"
   }
  },
  {
   "type": "Feature",
   "geometry": {
    "type": "Point",
    "coordinates": [
     145.175532,
     -37.833327
    ]
   },
   "properties": {
    "name": "4 BURDON COURT FOREST HILL 3131",
    "locID": "LOC000070779486",
    "tech": "HFC",
    "upgrade": "NULL_NA",
    "gnaf_pid": "GAVIC419566583"
   }
  },
  {
   "type": "Feature",
   "geometry": {
    "type": "Point",
    "coordinates": [
     145.169179,
     -37.838401
    ]
   },
   "properties": {
    "name": "30 MILL AVENUE FOREST HILL 3131",
    "locID": "LOC000089118255",
    "tech": "HFC",
    "upgrade": "NULL_NA",
    "gnaf_pid": "GAVIC419566590"
   }
  },
  {
   "type": "Feature",
   "geometry": {
    "type": "Point",
    "coordinates": [
     145.181384,
     -37.840726
    ]
   },
   "properties": {
    "name": "11 LONGBRAE AVENUE FOREST HILL 3131",
    "locID": "LOC000048787835",
    "tech": "HFC",
    "upgrade": "NULL_NA",
    "gnaf_pid": "GAVIC419566621"
   }
  },
  {
   "type": "Feature",
   "geometry": {
    "type": "Point",
    "coordinates": [
     145.169549,
     -37.845048
    ]
   },
   "properties": {
    "name": "6 MOCK STREET FOREST HILL 3131",
    "locID": "LOC000042661022",
    "tech": "HFC",
    "upgrade": "NULL_NA",
    "gnaf_pid": "GAVIC419566634"
   }
  },
  {
   "type": "Feature",
   "geometry": {
    "type": "Point",
    "coordinates": [
     145.166794,
     -37.844789
    ]
   },
   "properties": {
    "name": "34 MOCK STREET FOREST HILL 3131",
    "locID": "LOC000003636256",
    "tech": "HFC",
    "upgrade": "NULL_NA",
    "gnaf_pid": "GAVIC419566635"
   }
  },
  {
   "type": "Feature",
   "geometry": {
    "type": "Point",
    "coordinates": [
     145.172549,
     -37.841382
    ]
   },
   "properties": {
    "name": "4 PARKMORE ROAD FOREST HILL 3131",
    "locID": "LOC000053941947",
    "tech": "HFC",
    "upgrade": "NULL_NA",
    "gnaf_pid": "GAVIC419566672"
   }
  },
  {
   "type": "Feature",
   "geometry": {
    "type": "Point",
    "coordinates": [
     145.1729966,
     -37.84114928
    ]
   },
   "properties": {
    "name": "7 PARKMORE ROAD FOREST HILL 3131",
    "locID": "LOC000066254182",
    "tech": "HFC",
    "upgrade": "NULL_NA",
    "gnaf_pid": "GAVIC419566673"
   }
  },
  {
   "type": "Feature",
   "geometry": {
    "type": "Point",
    "coordinates": [
     145.176612,
     -37.841616
    ]
   },
   "properties": {
    "name": "47 PARKMORE ROAD FOREST HILL 3131",
    "locID": "LOC000015941587",
    "tech": "HFC",
    "upgrade": "NULL_NA",
    "gnaf_pid": "GAVIC419566674"
   }
  },
  {
   "type": "Feature",
   "geometry": {
    "type": "Point",
    "coordinates": [
     145.177772,
     -37.842049
    ]
   },
   "properties": {
    "name": "50 PARKMORE ROAD FOREST HILL 3131",
    "locID": "LOC000047419615",
    "tech": "HFC",
    "upgrade": "NULL_NA",
    "gnaf_pid": "GAVIC419566675"
   }
  },
  {
   "type": "Feature",
   "geometry": {
    "type": "Point",
    "coordinates": [
     145.17852,
     -37.842123
    ]
   },
   "properties": {
    "name": "56 PARKMORE ROAD FOREST HILL 3131",
    "locID": "LOC000001967644",
    "tech": "HFC",
    "upgrade": "NULL_NA",
    "gnaf_pid": "GAVIC419566676"
   }
  },
  {
   "type": "Feature",
   "geometry": {
    "type": "Point",
    "coordinates": [
     145.162171,
     -37.846042
    ]
   },
   "properties": {
    "name": "1 ALEK COURT FOREST HILL 3131",
    "locID": "LOC000028493606",
    "tech": "HFC",
    "upgrade": "NULL_NA",
    "gnaf_pid": "GAVIC419567238"
   }
  },
  {
   "type": "Feature",
   "geometry": {
    "type": "Point",
    "coordinates": [
     145.166062,
     -37.841777
    ]
   },
   "properties": {
    "name": "64 BARTER CRESCENT FOREST HILL 3131",
    "locID": "LOC000101999965",
    "tech": "HFC",
    "upgrade": "NULL_NA",
    "gnaf_pid": "GAVIC419567259"
   }
  },
  {
   "type": "Feature",
   "geometry": {
    "type": "Point",
    "coordinates": [
     145.166493,
     -37.841351
    ]
   },
   "properties": {
    "name": "65 BARTER CRESCENT FOREST HILL 3131",
    "locID": "LOC000097327360",
    "tech": "HFC",
    "upgrade": "NULL_NA",
    "gnaf_pid": "GAVIC419567260"
   }
  },
  {
   "type": "Feature",
   "geometry": {
    "type": "Point",
    "coordinates": [
     145.166384,
     -37.842061
    ]
   },
   "properties": {
    "name": "73 BARTER CRESCENT FOREST HILL 3131",
    "locID": "LOC000029645656",
    "tech": "HFC",
    "upgrade": "NULL_NA",
    "gnaf_pid": "GAVIC419567261"
   }
  },
  {
   "type": "Feature",
   "geometry": {
    "type": "Point",
    "coordinates": [
     145.178086,
     -37.830176
    ]
   },
   "properties": {
    "name": "2 ANDREW STREET FOREST HILL 3131",
    "locID": "LOC000024257088",
    "tech": "HFC",
    "upgrade": "NULL_NA",
    "gnaf_pid": "GAVIC419570126"
   }
  },
  {
   "type": "Feature",
   "geometry": {
    "type": "Point",
    "coordinates": [
     145.177981,
     -37.830309
    ]
   },
   "properties": {
    "name": "4 ANDREW STREET FOREST HILL 3131",
    "locID": "LOC000091530717",
    "tech": "HFC",
    "upgrade": "NULL_NA",
    "gnaf_pid": "GAVIC419570127"
   }
  },
  {
   "type": "Feature",
   "geometry": {
    "type": "Point",
    "coordinates": [
     145.177271,
     -37.830983
    ]
   },
   "properties": {
    "name": "16 ANDREW STREET FOREST HILL 3131",
    "locID": "LOC000036725227",
    "tech": "HFC",
    "upgrade": "NULL_NA",
    "gnaf_pid": "GAVIC419570129"
   }
  },
  {
   "type": "Feature",
   "geometry": {
    "type": "Point",
    "coordinates": [
     145.18247,
     -37.833957
    ]
   },
   "properties": {
    "name": "8 GREVILLEA COURT FOREST HILL 3131",
    "locID": "LOC000082131252",
    "tech": "HFC",
    "upgrade": "NULL_NA",
    "gnaf_pid": "GAVIC419570136"
   }
  },
  {
   "type": "Feature",
   "geometry": {
    "type": "Point",
    "coordinates": [
     145.169163,
     -37.835832
    ]
   },
   "properties": {
    "name": "6 MUTUAL COURT FOREST HILL 3131",
    "locID": "LOC000101449508",
    "tech": "HFC",
    "upgrade": "NULL_NA",
    "gnaf_pid": "GAVIC419570847"
   }
  },
  {
   "type": "Feature",
   "geometry": {
    "type": "Point",
    "coordinates": [
     145.170285,
     -37.835976
    ]
   },
   "properties": {
    "name": "18 MUTUAL COURT FOREST HILL 3131",
    "locID": "LOC000077748593",
    "tech": "HFC",
    "upgrade": "NULL_NA",
    "gnaf_pid": "GAVIC419570848"
   }
  },
  {
   "type": "Feature",
   "geometry": {
    "type": "Point",
    "coordinates": [
     145.167675,
     -37.83306
    ]
   },
   "properties": {
    "name": "6 MARCUS COURT FOREST HILL 3131",
    "locID": "LOC000071581341",
    "tech": "HFC",
    "upgrade": "NULL_NA",
    "gnaf_pid": "GAVIC419570869"
   }
  },
  {
   "type": "Feature",
   "geometry": {
    "type": "Point",
    "coordinates": [
     145.181534,
     -37.83323
    ]
   },
   "properties": {
    "name": "22 NANDINA STREET FOREST HILL 3131",
    "locID": "LOC000048895543",
    "tech": "HFC",
    "upgrade": "NULL_NA",
    "gnaf_pid": "GAVIC419571737"
   }
  },
  {
   "type": "Feature",
   "geometry": {
    "type": "Point",
    "coordinates": [
     145.166624,
     -37.834675
    ]
   },
   "properties": {
    "name": "15 MAHONEYS ROAD FOREST HILL 3131",
    "locID": "LOC000002766185",
    "tech": "HFC",
    "upgrade": "NULL_NA",
    "gnaf_pid": "GAVIC419571751"
   }
  },
  {
   "type": "Feature",
   "geometry": {
    "type": "Point",
    "coordinates": [
     145.165876,
     -37.842864
    ]
   },
   "properties": {
    "name": "80 BARTER CRESCENT FOREST HILL 3131",
    "locID": "LOC000039695430",
    "tech": "HFC",
    "upgrade": "NULL_NA",
    "gnaf_pid": "GAVIC419571755"
   }
  },
  {
   "type": "Feature",
   "geometry": {
    "type": "Point",
    "coordinates": [
     145.168632,
     -37.839375
    ]
   },
   "properties": {
    "name": "45 MILL AVENUE FOREST HILL 3131",
    "locID": "LOC000050432194",
    "tech": "HFC",
    "upgrade": "NULL_NA",
    "gnaf_pid": "GAVIC419573445"
   }
  },
  {
   "type": "Feature",
   "geometry": {
    "type": "Point",
    "coordinates": [
     145.167917,
     -37.84578
    ]
   },
   "properties": {
    "name": "8 BALYARTA COURT FOREST HILL 3131",
    "locID": "LOC000040904554",
    "tech": "HFC",
    "upgrade": "NULL_NA",
    "gnaf_pid": "GAVIC419573706"
   }
  },
  {
   "type": "Feature",
   "geometry": {
    "type": "Point",
    "coordinates": [
     145.162998,
     -37.845712
    ]
   },
   "properties": {
    "name": "8 AVIS COURT FOREST HILL 3131",
    "locID": "LOC000036159865",
    "tech": "HFC",
    "upgrade": "NULL_NA",
    "gnaf_pid": "GAVIC419576377"
   }
  },
  {
   "type": "Feature",
   "geometry": {
    "type": "Point",
    "coordinates": [
     145.166819,
     -37.84515
    ]
   },
   "properties": {
    "name": "9 ILIOS CLOSE FOREST HILL 3131",
    "locID": "LOC000076082068",
    "tech": "HFC",
    "upgrade": "NULL_NA",
    "gnaf_pid": "GAVIC419576446"
   }
  },
  {
   "type": "Feature",
   "geometry": {
    "type": "Point",
    "coordinates": [
     145.183126,
     -37.833642
    ]
   },
   "properties": {
    "name": "1 GREVILLEA COURT FOREST HILL 3131",
    "locID": "LOC000029322593",
    "tech": "HFC",
    "upgrade": "NULL_NA",
    "gnaf_pid": "GAVIC419577094"
   }
  },
  {
   "type": "Feature",
   "geometry": {
    "type": "Point",
    "coordinates": [
     145.17906,
     -37.843727
    ]
   },
   "properties": {
    "name": "45 HAMPSHIRE ROAD FOREST HILL 3131",
    "locID": "LOC000011082680",
    "tech": "HFC",
    "upgrade": "NULL_NA",
    "gnaf_pid": "GAVIC419577326"
   }
  },
  {
   "type": "Feature",
   "geometry": {
    "type": "Point",
    "coordinates": [
     145.17309241,
     -37.84333401
    ]
   },
   "properties": {
    "name": "14 JOLIMONT ROAD FOREST HILL 3131",
    "locID": "LOC000104616406",
    "tech": "HFC",
    "upgrade": "NULL_NA",
    "gnaf_pid": "GAVIC419577382"
   }
  },
  {
   "type": "Feature",
   "geometry": {
    "type": "Point",
    "coordinates": [
     145.175058,
     -37.843234
    ]
   },
   "properties": {
    "name": "27 JOLIMONT ROAD FOREST HILL 3131",
    "locID": "LOC000046605999",
    "tech": "HFC",
    "upgrade": "NULL_NA",
    "gnaf_pid": "GAVIC419577383"
   }
  },
  {
   "type": "Feature",
   "geometry": {
    "type": "Point",
    "coordinates": [
     145.176352,
     -37.843406
    ]
   },
   "properties": {
    "name": "41 JOLIMONT ROAD FOREST HILL 3131",
    "locID": "LOC000045389793",
    "tech": "HFC",
    "upgrade": "NULL_NA",
    "gnaf_pid": "GAVIC419577384"
   }
  },
  {
   "type": "Feature",
   "geometry": {
    "type": "Point",
    "coordinates": [
     145.177236,
     -37.843509
    ]
   },
   "properties": {
    "name": "47 JOLIMONT ROAD FOREST HILL 3131",
    "locID": "LOC000066436943",
    "tech": "HFC",
    "upgrade": "NULL_NA",
    "gnaf_pid": "GAVIC419577385"
   }
  },
  {
   "type": "Feature",
   "geometry": {
    "type": "Point",
    "coordinates": [
     145.180296,
     -37.843845
    ]
   },
   "properties": {
    "name": "69 JOLIMONT ROAD FOREST HILL 3131",
    "locID": "LOC000098563569",
    "tech": "HFC",
    "upgrade": "NULL_NA",
    "gnaf_pid": "GAVIC419577386"
   }
  },
  {
   "type": "Feature",
   "geometry": {
    "type": "Point",
    "coordinates": [
     145.181008,
     -37.843991
    ]
   },
   "properties": {
    "name": "81 JOLIMONT ROAD FOREST HILL 3131",
    "locID": "LOC000100467578",
    "tech": "HFC",
    "upgrade": "NULL_NA",
    "gnaf_pid": "GAVIC419577387"
   }
  },
  {
   "type": "Feature",
   "geometry": {
    "type": "Point",
    "coordinates": [
     145.181473,
     -37.844053
    ]
   },
   "properties": {
    "name": "85 JOLIMONT ROAD FOREST HILL 3131",
    "locID": "LOC000011837514",
    "tech": "HFC",
    "upgrade": "NULL_NA",
    "gnaf_pid": "GAVIC419577388"
   }
  },
  {
   "type": "Feature",
   "geometry": {
    "type": "Point",
    "coordinates": [
     145.173512,
     -37.832754
    ]
   },
   "properties": {
    "name": "321 SPRINGVALE ROAD FOREST HILL 3131",
    "locID": "LOC000041233479",
    "tech": "HFC",
    "upgrade": "NULL_NA",
    "gnaf_pid": "GAVIC419578062"
   }
  },
  {
   "type": "Feature",
   "geometry": {
    "type": "Point",
    "coordinates": [
     145.157204,
     -37.845622
    ]
   },
   "properties": {
    "name": "45 HAWTHORN ROAD FOREST HILL 3131",
    "locID": "LOC000076729803",
    "tech": "HFC",
    "upgrade": "NULL_NA",
    "gnaf_pid": "GAVIC419578069"
   }
  },
  {
   "type": "Feature",
   "geometry": {
    "type": "Point",
    "coordinates": [
     145.16264,
     -37.84641
    ]
   },
   "properties": {
    "name": "81 HAWTHORN ROAD FOREST HILL 3131",
    "locID": "LOC000011844779",
    "tech": "HFC",
    "upgrade": "NULL_NA",
    "gnaf_pid": "GAVIC419578071"
   }
  },
  {
   "type": "Feature",
   "geometry": {
    "type": "Point",
    "coordinates": [
     145.168229,
     -37.846515
    ]
   },
   "properties": {
    "name": "137 HAWTHORN ROAD FOREST HILL 3131",
    "locID": "LOC000089527807",
    "tech": "HFC",
    "upgrade": "NULL_NA",
    "gnaf_pid": "GAVIC419578072"
   }
  },
  {
   "type": "Feature",
   "geometry": {
    "type": "Point",
    "coordinates": [
     145.18221,
     -37.845046
    ]
   },
   "properties": {
    "name": "70 STEVENS ROAD FOREST HILL 3131",
    "locID": "LOC000193783825",
    "tech": "HFC",
    "upgrade": "NULL_NA",
    "gnaf_pid": "GAVIC419578116"
   }
  },
  {
   "type": "Feature",
   "geometry": {
    "type": "Point",
    "coordinates": [
     145.180595,
     -37.841858
    ]
   },
   "properties": {
    "name": "2A BRIARFIELD COURT FOREST HILL 3131",
    "locID": "LOC000077110194",
    "tech": "HFC",
    "upgrade": "NULL_NA",
    "gnaf_pid": "GAVIC419578163"
   }
  },
  {
   "type": "Feature",
   "geometry": {
    "type": "Point",
    "coordinates": [
     145.180251,
     -37.841519
    ]
   },
   "properties": {
    "name": "3 BRIARFIELD COURT FOREST HILL 3131",
    "locID": "LOC000037040433",
    "tech": "HFC",
    "upgrade": "NULL_NA",
    "gnaf_pid": "GAVIC419578164"
   }
  },
  {
   "type": "Feature",
   "geometry": {
    "type": "Point",
    "coordinates": [
     145.179872,
     -37.841658
    ]
   },
   "properties": {
    "name": "7 BRIARFIELD COURT FOREST HILL 3131",
    "locID": "LOC000042170667",
    "tech": "HFC",
    "upgrade": "NULL_NA",
    "gnaf_pid": "GAVIC419578165"
   }
  },
  {
   "type": "Feature",
   "geometry": {
    "type": "Point",
    "coordinates": [
     145.181256,
     -37.832054
    ]
   },
   "properties": {
    "name": "5 BRISTOW DRIVE FOREST HILL 3131",
    "locID": "LOC000052100354",
    "tech": "HFC",
    "upgrade": "NULL_NA",
    "gnaf_pid": "GAVIC419578174"
   }
  },
  {
   "type": "Feature",
   "geometry": {
    "type": "Point",
    "coordinates": [
     145.179703,
     -37.832805
    ]
   },
   "properties": {
    "name": "1 MILGATE COURT FOREST HILL 3131",
    "locID": "LOC000048694854",
    "tech": "HFC",
    "upgrade": "NULL_NA",
    "gnaf_pid": "GAVIC419578205"
   }
  },
  {
   "type": "Feature",
   "geometry": {
    "type": "Point",
    "coordinates": [
     145.170409,
     -37.836464
    ]
   },
   "properties": {
    "name": "1 MILL AVENUE FOREST HILL 3131",
    "locID": "LOC000056365660",
    "tech": "HFC",
    "upgrade": "NULL_NA",
    "gnaf_pid": "GAVIC419578206"
   }
  },
  {
   "type": "Feature",
   "geometry": {
    "type": "Point",
    "coordinates": [
     145.170254,
     -37.83675
    ]
   },
   "properties": {
    "name": "4 MILL AVENUE FOREST HILL 3131",
    "locID": "LOC000071271484",
    "tech": "HFC",
    "upgrade": "NULL_NA",
    "gnaf_pid": "GAVIC419578207"
   }
  },
  {
   "type": "Feature",
   "geometry": {
    "type": "Point",
    "coordinates": [
     145.169978,
     -37.836413
    ]
   },
   "properties": {
    "name": "5 MILL AVENUE FOREST HILL 3131",
    "locID": "LOC000056559018",
    "tech": "HFC",
    "upgrade": "NULL_NA",
    "gnaf_pid": "GAVIC419578208"
   }
  },
  {
   "type": "Feature",
   "geometry": {
    "type": "Point",
    "coordinates": [
     145.169457,
     -37.836359
    ]
   },
   "properties": {
    "name": "11 MILL AVENUE FOREST HILL 3131",
    "locID": "LOC000012135311",
    "tech": "HFC",
    "upgrade": "NULL_NA",
    "gnaf_pid": "GAVIC419578209"
   }
  },
  {
   "type": "Feature",
   "geometry": {
    "type": "Point",
    "coordinates": [
     145.169445,
     -37.836837
    ]
   },
   "properties": {
    "name": "12 MILL AVENUE FOREST HILL 3131",
    "locID": "LOC000077433237",
    "tech": "HFC",
    "upgrade": "NULL_NA",
    "gnaf_pid": "GAVIC419578210"
   }
  },
  {
   "type": "Feature",
   "geometry": {
    "type": "Point",
    "coordinates": [
     145.169392,
     -37.837142
    ]
   },
   "properties": {
    "name": "16 MILL AVENUE FOREST HILL 3131",
    "locID": "LOC000012101806",
    "tech": "HFC",
    "upgrade": "NULL_NA",
    "gnaf_pid": "GAVIC419578211"
   }
  },
  {
   "type": "Feature",
   "geometry": {
    "type": "Point",
    "coordinates": [
     145.169081,
     -37.83684
    ]
   },
   "properties": {
    "name": "21 MILL AVENUE FOREST HILL 3131",
    "locID": "LOC000079697696",
    "tech": "HFC",
    "upgrade": "NULL_NA",
    "gnaf_pid": "GAVIC419578212"
   }
  },
  {
   "type": "Feature",
   "geometry": {
    "type": "Point",
    "coordinates": [
     145.168994,
     -37.837145
    ]
   },
   "properties": {
    "name": "25 MILL AVENUE FOREST HILL 3131",
    "locID": "LOC000084566828",
    "tech": "HFC",
    "upgrade": "NULL_NA",
    "gnaf_pid": "GAVIC419578213"
   }
  },
  {
   "type": "Feature",
   "geometry": {
    "type": "Point",
    "coordinates": [
     145.169251,
     -37.838249
    ]
   },
   "properties": {
    "name": "28 MILL AVENUE FOREST HILL 3131",
    "locID": "LOC000089215403",
    "tech": "HFC",
    "upgrade": "NULL_NA",
    "gnaf_pid": "GAVIC419578214"
   }
  },
  {
   "type": "Feature",
   "geometry": {
    "type": "Point",
    "coordinates": [
     145.168835,
     -37.846804
    ]
   },
   "properties": {
    "name": "19 LOWANA CRESCENT FOREST HILL 3131",
    "locID": "LOC000048140166",
    "tech": "HFC",
    "upgrade": "NULL_NA",
    "gnaf_pid": "GAVIC419578230"
   }
  },
  {
   "type": "Feature",
   "geometry": {
    "type": "Point",
    "coordinates": [
     145.166194,
     -37.850656
    ]
   },
   "properties": {
    "name": "23 PANORAMA DRIVE FOREST HILL 3131",
    "locID": "LOC000032118545",
    "tech": "HFC",
    "upgrade": "NULL_NA",
    "gnaf_pid": "GAVIC419578286"
   }
  },
  {
   "type": "Feature",
   "geometry": {
    "type": "Point",
    "coordinates": [
     145.166885,
     -37.851207
    ]
   },
   "properties": {
    "name": "29 PANORAMA DRIVE FOREST HILL 3131",
    "locID": "LOC000036910779",
    "tech": "HFC",
    "upgrade": "NULL_NA",
    "gnaf_pid": "GAVIC419578287"
   }
  },
  {
   "type": "Feature",
   "geometry": {
    "type": "Point",
    "coordinates": [
     145.167057,
     -37.851606
    ]
   },
   "properties": {
    "name": "30 PANORAMA DRIVE FOREST HILL 3131",
    "locID": "LOC000093286158",
    "tech": "HFC",
    "upgrade": "NULL_NA",
    "gnaf_pid": "GAVIC419578288"
   }
  },
  {
   "type": "Feature",
   "geometry": {
    "type": "Point",
    "coordinates": [
     145.167555,
     -37.851677
    ]
   },
   "properties": {
    "name": "34 PANORAMA DRIVE FOREST HILL 3131",
    "locID": "LOC000075660717",
    "tech": "HFC",
    "upgrade": "NULL_NA",
    "gnaf_pid": "GAVIC419578289"
   }
  },
  {
   "type": "Feature",
   "geometry": {
    "type": "Point",
    "coordinates": [
     145.182451,
     -37.831947
    ]
   },
   "properties": {
    "name": "9 WEIGELA COURT FOREST HILL 3131",
    "locID": "LOC000062518343",
    "tech": "HFC",
    "upgrade": "NULL_NA",
    "gnaf_pid": "GAVIC419578435"
   }
  },
  {
   "type": "Feature",
   "geometry": {
    "type": "Point",
    "coordinates": [
     145.182031,
     -37.831949
    ]
   },
   "properties": {
    "name": "13 WEIGELA COURT FOREST HILL 3131",
    "locID": "LOC000102152175",
    "tech": "HFC",
    "upgrade": "NULL_NA",
    "gnaf_pid": "GAVIC419578436"
   }
  },
  {
   "type": "Feature",
   "geometry": {
    "type": "Point",
    "coordinates": [
     145.179493,
     -37.837669
    ]
   },
   "properties": {
    "name": "9 WILLURAH STREET FOREST HILL 3131",
    "locID": "LOC000002967074",
    "tech": "HFC",
    "upgrade": "NULL_NA",
    "gnaf_pid": "GAVIC419578444"
   }
  },
  {
   "type": "Feature",
   "geometry": {
    "type": "Point",
    "coordinates": [
     145.179128,
     -37.838636
    ]
   },
   "properties": {
    "name": "24 WILLURAH STREET FOREST HILL 3131",
    "locID": "LOC000101393815",
    "tech": "HFC",
    "upgrade": "NULL_NA",
    "gnaf_pid": "GAVIC419578448"
   }
  },
  {
   "type": "Feature",
   "geometry": {
    "type": "Point",
    "coordinates": [
     145.16805541,
     -37.84195256
    ]
   },
   "properties": {
    "name": "2 NORMA ROAD FOREST HILL 3131",
    "locID": "LOC000180561715",
    "tech": "HFC",
    "upgrade": "NULL_NA",
    "gnaf_pid": "GAVIC419579002"
   }
  },
  {
   "type": "Feature",
   "geometry": {
    "type": "Point",
    "coordinates": [
     145.16709,
     -37.841559
    ]
   },
   "properties": {
    "name": "3 NORMA ROAD FOREST HILL 3131",
    "locID": "LOC000021881912",
    "tech": "HFC",
    "upgrade": "NULL_NA",
    "gnaf_pid": "GAVIC419579003"
   }
  },
  {
   "type": "Feature",
   "geometry": {
    "type": "Point",
    "coordinates": [
     145.16785001,
     -37.84164489
    ]
   },
   "properties": {
    "name": "11 NORMA ROAD FOREST HILL 3131",
    "locID": "LOC000089734427",
    "tech": "HFC",
    "upgrade": "NULL_NA",
    "gnaf_pid": "GAVIC419579004"
   }
  },
  {
   "type": "Feature",
   "geometry": {
    "type": "Point",
    "coordinates": [
     145.1696911,
     -37.84153983
    ]
   },
   "properties": {
    "name": "29 NORMA ROAD FOREST HILL 3131",
    "locID": "LOC000176243345",
    "tech": "HFC",
    "upgrade": "NULL_NA",
    "gnaf_pid": "GAVIC419579005"
   }
  },
  {
   "type": "Feature",
   "geometry": {
    "type": "Point",
    "coordinates": [
     145.157556,
     -37.845195
    ]
   },
   "properties": {
    "name": "1 CARMEL COURT FOREST HILL 3131",
    "locID": "LOC000040926889",
    "tech": "HFC",
    "upgrade": "NULL_NA",
    "gnaf_pid": "GAVIC419579055"
   }
  },
  {
   "type": "Feature",
   "geometry": {
    "type": "Point",
    "coordinates": [
     145.172166,
     -37.832022
    ]
   },
   "properties": {
    "name": "6 CUMBERLAND COURT FOREST HILL 3131",
    "locID": "LOC000082426565",
    "tech": "HFC",
    "upgrade": "NULL_NA",
    "gnaf_pid": "GAVIC419579066"
   }
  },
  {
   "type": "Feature",
   "geometry": {
    "type": "Point",
    "coordinates": [
     145.170861,
     -37.831497
    ]
   },
   "properties": {
    "name": "23 CUMBERLAND COURT FOREST HILL 3131",
    "locID": "LOC000026060348",
    "tech": "HFC",
    "upgrade": "NULL_NA",
    "gnaf_pid": "GAVIC419579068"
   }
  },
  {
   "type": "Feature",
   "geometry": {
    "type": "Point",
    "coordinates": [
     145.164277,
     -37.839027
    ]
   },
   "properties": {
    "name": "2 EVE COURT FOREST HILL 3131",
    "locID": "LOC000049001329",
    "tech": "HFC",
    "upgrade": "NULL_NA",
    "gnaf_pid": "GAVIC419579084"
   }
  },
  {
   "type": "Feature",
   "geometry": {
    "type": "Point",
    "coordinates": [
     145.17681,
     -37.843259
    ]
   },
   "properties": {
    "name": "1 EVERGLADE AVENUE FOREST HILL 3131",
    "locID": "LOC000063380380",
    "tech": "HFC",
    "upgrade": "NULL_NA",
    "gnaf_pid": "GAVIC419579085"
   }
  },
  {
   "type": "Feature",
   "geometry": {
    "type": "Point",
    "coordinates": [
     145.176848,
     -37.843098
    ]
   },
   "properties": {
    "name": "1A EVERGLADE AVENUE FOREST HILL 3131",
    "locID": "LOC000063328176",
    "tech": "HFC",
    "upgrade": "NULL_NA",
    "gnaf_pid": "GAVIC419579086"
   }
  },
  {
   "type": "Feature",
   "geometry": {
    "type": "Point",
    "coordinates": [
     145.17732568,
     -37.84300511
    ]
   },
   "properties": {
    "name": "3 EVERGLADE AVENUE FOREST HILL 3131",
    "locID": "LOC000101495999",
    "tech": "HFC",
    "upgrade": "NULL_NA",
    "gnaf_pid": "GAVIC419579087"
   }
  },
  {
   "type": "Feature",
   "geometry": {
    "type": "Point",
    "coordinates": [
     145.17651,
     -37.842975
    ]
   },
   "properties": {
    "name": "4 EVERGLADE AVENUE FOREST HILL 3131",
    "locID": "LOC000043696056",
    "tech": "HFC",
    "upgrade": "NULL_NA",
    "gnaf_pid": "GAVIC419579088"
   }
  },
  {
   "type": "Feature",
   "geometry": {
    "type": "Point",
    "coordinates": [
     145.17698,
     -37.84283
    ]
   },
   "properties": {
    "name": "5 EVERGLADE AVENUE FOREST HILL 3131",
    "locID": "LOC000091032890",
    "tech": "HFC",
    "upgrade": "NULL_NA",
    "gnaf_pid": "GAVIC419579089"
   }
  },
  {
   "type": "Feature",
   "geometry": {
    "type": "Point",
    "coordinates": [
     145.177039,
     -37.842704
    ]
   },
   "properties": {
    "name": "7 EVERGLADE AVENUE FOREST HILL 3131",
    "locID": "LOC000008886845",
    "tech": "HFC",
    "upgrade": "NULL_NA",
    "gnaf_pid": "GAVIC419579090"
   }
  },
  {
   "type": "Feature",
   "geometry": {
    "type": "Point",
    "coordinates": [
     145.174155,
     -37.83846
    ]
   },
   "properties": {
    "name": "17 HUSBAND ROAD FOREST HILL 3131",
    "locID": "LOC000104579775",
    "tech": "HFC",
    "upgrade": "NULL_NA",
    "gnaf_pid": "GAVIC419579100"
   }
  },
  {
   "type": "Feature",
   "geometry": {
    "type": "Point",
    "coordinates": [
     145.174261,
     -37.838777
    ]
   },
   "properties": {
    "name": "20 HUSBAND ROAD FOREST HILL 3131",
    "locID": "LOC000062730876",
    "tech": "HFC",
    "upgrade": "NULL_NA",
    "gnaf_pid": "GAVIC419579101"
   }
  },
  {
   "type": "Feature",
   "geometry": {
    "type": "Point",
    "coordinates": [
     145.174941,
     -37.838851
    ]
   },
   "properties": {
    "name": "28 HUSBAND ROAD FOREST HILL 3131",
    "locID": "LOC000043454023",
    "tech": "HFC",
    "upgrade": "NULL_NA",
    "gnaf_pid": "GAVIC419579102"
   }
  },
  {
   "type": "Feature",
   "geometry": {
    "type": "Point",
    "coordinates": [
     145.175281,
     -37.838901
    ]
   },
   "properties": {
    "name": "32 HUSBAND ROAD FOREST HILL 3131",
    "locID": "LOC000009369646",
    "tech": "HFC",
    "upgrade": "NULL_NA",
    "gnaf_pid": "GAVIC419579103"
   }
  },
  {
   "type": "Feature",
   "geometry": {
    "type": "Point",
    "coordinates": [
     145.178449,
     -37.838995
    ]
   },
   "properties": {
    "name": "57 HUSBAND ROAD FOREST HILL 3131",
    "locID": "LOC000022810683",
    "tech": "HFC",
    "upgrade": "NULL_NA",
    "gnaf_pid": "GAVIC419579104"
   }
  },
  {
   "type": "Feature",
   "geometry": {
    "type": "Point",
    "coordinates": [
     145.178385,
     -37.839292
    ]
   },
   "properties": {
    "name": "62 HUSBAND ROAD FOREST HILL 3131",
    "locID": "LOC000106014335",
    "tech": "HFC",
    "upgrade": "NULL_NA",
    "gnaf_pid": "GAVIC419579105"
   }
  },
  {
   "type": "Feature",
   "geometry": {
    "type": "Point",
    "coordinates": [
     145.180556,
     -37.839253
    ]
   },
   "properties": {
    "name": "81 HUSBAND ROAD FOREST HILL 3131",
    "locID": "LOC000031935696",
    "tech": "HFC",
    "upgrade": "NULL_NA",
    "gnaf_pid": "GAVIC419579106"
   }
  },
  {
   "type": "Feature",
   "geometry": {
    "type": "Point",
    "coordinates": [
     145.181897,
     -37.839715
    ]
   },
   "properties": {
    "name": "100 HUSBAND ROAD FOREST HILL 3131",
    "locID": "LOC000037565094",
    "tech": "HFC",
    "upgrade": "NULL_NA",
    "gnaf_pid": "GAVIC419579107"
   }
  },
  {
   "type": "Feature",
   "geometry": {
    "type": "Point",
    "coordinates": [
     145.18323909,
     -37.83987803
    ]
   },
   "properties": {
    "name": "112 HUSBAND ROAD FOREST HILL 3131",
    "locID": "LOC000104740788",
    "tech": "HFC",
    "upgrade": "NULL_NA",
    "gnaf_pid": "GAVIC419579108"
   }
  },
  {
   "type": "Feature",
   "geometry": {
    "type": "Point",
    "coordinates": [
     145.17745,
     -37.836186
    ]
   },
   "properties": {
    "name": "7 HYLTON CRESCENT FOREST HILL 3131",
    "locID": "LOC000011894895",
    "tech": "HFC",
    "upgrade": "NULL_NA",
    "gnaf_pid": "GAVIC419579115"
   }
  },
  {
   "type": "Feature",
   "geometry": {
    "type": "Point",
    "coordinates": [
     145.180614,
     -37.832711
    ]
   },
   "properties": {
    "name": "6 WENDY STREET FOREST HILL 3131",
    "locID": "LOC000080999575",
    "tech": "HFC",
    "upgrade": "NULL_NA",
    "gnaf_pid": "GAVIC419579164"
   }
  },
  {
   "type": "Feature",
   "geometry": {
    "type": "Point",
    "coordinates": [
     145.173557,
     -37.841965
    ]
   },
   "properties": {
    "name": "4 OBERON STREET FOREST HILL 3131",
    "locID": "LOC000038033256",
    "tech": "HFC",
    "upgrade": "NULL_NA",
    "gnaf_pid": "GAVIC419579218"
   }
  },
  {
   "type": "Feature",
   "geometry": {
    "type": "Point",
    "coordinates": [
     145.167567,
     -37.831923
    ]
   },
   "properties": {
    "name": "1 SILVERLEAF COURT FOREST HILL 3131",
    "locID": "LOC000056794409",
    "tech": "HFC",
    "upgrade": "NULL_NA",
    "gnaf_pid": "GAVIC419579919"
   }
  },
  {
   "type": "Feature",
   "geometry": {
    "type": "Point",
    "coordinates": [
     145.167504,
     -37.832175
    ]
   },
   "properties": {
    "name": "2 SILVERLEAF COURT FOREST HILL 3131",
    "locID": "LOC000059773498",
    "tech": "HFC",
    "upgrade": "NULL_NA",
    "gnaf_pid": "GAVIC419579920"
   }
  },
  {
   "type": "Feature",
   "geometry": {
    "type": "Point",
    "coordinates": [
     145.166798,
     -37.831776
    ]
   },
   "properties": {
    "name": "11 SILVERLEAF COURT FOREST HILL 3131",
    "locID": "LOC000096903889",
    "tech": "HFC",
    "upgrade": "NULL_NA",
    "gnaf_pid": "GAVIC419579921"
   }
  },
  {
   "type": "Feature",
   "geometry": {
    "type": "Point",
    "coordinates": [
     145.176714,
     -37.842528
    ]
   },
   "properties": {
    "name": "10 EVERGLADE AVENUE FOREST HILL 3131",
    "locID": "LOC000192663918",
    "tech": "HFC",
    "upgrade": "NULL_NA",
    "gnaf_pid": "GAVIC419579928"
   }
  },
  {
   "type": "Feature",
   "geometry": {
    "type": "Point",
    "coordinates": [
     145.170585,
     -37.83808
    ]
   },
   "properties": {
    "name": "32 THORNHILL DRIVE FOREST HILL 3131",
    "locID": "LOC000092162246",
    "tech": "HFC",
    "upgrade": "NULL_NA",
    "gnaf_pid": "GAVIC419579998"
   }
  },
  {
   "type": "Feature",
   "geometry": {
    "type": "Point",
    "coordinates": [
     145.170929,
     -37.838401
    ]
   },
   "properties": {
    "name": "39 THORNHILL DRIVE FOREST HILL 3131",
    "locID": "LOC000047679635",
    "tech": "HFC",
    "upgrade": "NULL_NA",
    "gnaf_pid": "GAVIC419580000"
   }
  },
  {
   "type": "Feature",
   "geometry": {
    "type": "Point",
    "coordinates": [
     145.170093,
     -37.838667
    ]
   },
   "properties": {
    "name": "42 THORNHILL DRIVE FOREST HILL 3131",
    "locID": "LOC000013535435",
    "tech": "HFC",
    "upgrade": "NULL_NA",
    "gnaf_pid": "GAVIC419580002"
   }
  },
  {
   "type": "Feature",
   "geometry": {
    "type": "Point",
    "coordinates": [
     145.169708,
     -37.838634
    ]
   },
   "properties": {
    "name": "46 THORNHILL DRIVE FOREST HILL 3131",
    "locID": "LOC000060749327",
    "tech": "HFC",
    "upgrade": "NULL_NA",
    "gnaf_pid": "GAVIC419580003"
   }
  },
  {
   "type": "Feature",
   "geometry": {
    "type": "Point",
    "coordinates": [
     145.169304,
     -37.83888
    ]
   },
   "properties": {
    "name": "55 THORNHILL DRIVE FOREST HILL 3131",
    "locID": "LOC000071012953",
    "tech": "HFC",
    "upgrade": "NULL_NA",
    "gnaf_pid": "GAVIC419580004"
   }
  },
  {
   "type": "Feature",
   "geometry": {
    "type": "Point",
    "coordinates": [
     145.1691,
     -37.838859
    ]
   },
   "properties": {
    "name": "57 THORNHILL DRIVE FOREST HILL 3131",
    "locID": "LOC000016875257",
    "tech": "HFC",
    "upgrade": "NULL_NA",
    "gnaf_pid": "GAVIC419580005"
   }
  },
  {
   "type": "Feature",
   "geometry": {
    "type": "Point",
    "coordinates": [
     145.183108,
     -37.840861
    ]
   },
   "properties": {
    "name": "32 STEVENS ROAD FOREST HILL 3131",
    "locID": "LOC000001997651",
    "tech": "HFC",
    "upgrade": "NULL_NA",
    "gnaf_pid": "GAVIC419580054"
   }
  },
  {
   "type": "Feature",
   "geometry": {
    "type": "Point",
    "coordinates": [
     145.164591,
     -37.849306
    ]
   },
   "properties": {
    "name": "6 PANORAMA DRIVE FOREST HILL 3131",
    "locID": "LOC000087999045",
    "tech": "HFC",
    "upgrade": "NULL_NA",
    "gnaf_pid": "GAVIC419580073"
   }
  },
  {
   "type": "Feature",
   "geometry": {
    "type": "Point",
    "coordinates": [
     145.165452,
     -37.849878
    ]
   },
   "properties": {
    "name": "10 PANORAMA DRIVE FOREST HILL 3131",
    "locID": "LOC000085228090",
    "tech": "HFC",
    "upgrade": "NULL_NA",
    "gnaf_pid": "GAVIC419580074"
   }
  },
  {
   "type": "Feature",
   "geometry": {
    "type": "Point",
    "coordinates": [
     145.165631,
     -37.849511
    ]
   },
   "properties": {
    "name": "11 PANORAMA DRIVE FOREST HILL 3131",
    "locID": "LOC000036051812",
    "tech": "HFC",
    "upgrade": "NULL_NA",
    "gnaf_pid": "GAVIC419580075"
   }
  },
  {
   "type": "Feature",
   "geometry": {
    "type": "Point",
    "coordinates": [
     145.166011,
     -37.850256
    ]
   },
   "properties": {
    "name": "19 PANORAMA DRIVE FOREST HILL 3131",
    "locID": "LOC000065558382",
    "tech": "HFC",
    "upgrade": "NULL_NA",
    "gnaf_pid": "GAVIC419580076"
   }
  },
  {
   "type": "Feature",
   "geometry": {
    "type": "Point",
    "coordinates": [
     145.165762,
     -37.850649
    ]
   },
   "properties": {
    "name": "20 PANORAMA DRIVE FOREST HILL 3131",
    "locID": "LOC000100260786",
    "tech": "HFC",
    "upgrade": "NULL_NA",
    "gnaf_pid": "GAVIC419580077"
   }
  },
  {
   "type": "Feature",
   "geometry": {
    "type": "Point",
    "coordinates": [
     145.18298766,
     -37.83694726
    ]
   },
   "properties": {
    "name": "25 BRENTFORD SQUARE FOREST HILL 3131",
    "locID": "LOC000084999025",
    "tech": "HFC",
    "upgrade": "NULL_NA",
    "gnaf_pid": "GAVIC419580109"
   }
  },
  {
   "type": "Feature",
   "geometry": {
    "type": "Point",
    "coordinates": [
     145.182931,
     -37.837388
    ]
   },
   "properties": {
    "name": "43 BRENTFORD SQUARE FOREST HILL 3131",
    "locID": "LOC000005287555",
    "tech": "HFC",
    "upgrade": "NULL_NA",
    "gnaf_pid": "GAVIC419580110"
   }
  },
  {
   "type": "Feature",
   "geometry": {
    "type": "Point",
    "coordinates": [
     145.182881,
     -37.837577
    ]
   },
   "properties": {
    "name": "51 BRENTFORD SQUARE FOREST HILL 3131",
    "locID": "LOC000080058983",
    "tech": "HFC",
    "upgrade": "NULL_NA",
    "gnaf_pid": "GAVIC419580111"
   }
  },
  {
   "type": "Feature",
   "geometry": {
    "type": "Point",
    "coordinates": [
     145.171911,
     -37.843177
    ]
   },
   "properties": {
    "name": "FLAT 2, 2 JOLIMONT ROAD FOREST HILL 3131",
    "locID": "LOC000062754496",
    "tech": "HFC",
    "upgrade": "NULL_NA",
    "gnaf_pid": "GAVIC419580162"
   }
  },
  {
   "type": "Feature",
   "geometry": {
    "type": "Point",
    "coordinates": [
     145.1785358,
     -37.84401085
    ]
   },
   "properties": {
    "name": "64 JOLIMONT ROAD FOREST HILL 3131",
    "locID": "LOC000092128660",
    "tech": "HFC",
    "upgrade": "NULL_NA",
    "gnaf_pid": "GAVIC419580203"
   }
  },
  {
   "type": "Feature",
   "geometry": {
    "type": "Point",
    "coordinates": [
     145.166377,
     -37.843737
    ]
   },
   "properties": {
    "name": "93 BARTER CRESCENT FOREST HILL 3131",
    "locID": "LOC000109067900",
    "tech": "HFC",
    "upgrade": "NULL_NA",
    "gnaf_pid": "GAVIC419580207"
   }
  },
  {
   "type": "Feature",
   "geometry": {
    "type": "Point",
    "coordinates": [
     145.17970769,
     -37.83310329
    ]
   },
   "properties": {
    "name": "2 MILGATE COURT FOREST HILL 3131",
    "locID": "LOC000096199334",
    "tech": "HFC",
    "upgrade": "NULL_NA",
    "gnaf_pid": "GAVIC419580213"
   }
  },
  {
   "type": "Feature",
   "geometry": {
    "type": "Point",
    "coordinates": [
     145.179571,
     -37.837246
    ]
   },
   "properties": {
    "name": "5 WILLURAH STREET FOREST HILL 3131",
    "locID": "LOC000044743329",
    "tech": "HFC",
    "upgrade": "NULL_NA",
    "gnaf_pid": "GAVIC419580829"
   }
  },
  {
   "type": "Feature",
   "geometry": {
    "type": "Point",
    "coordinates": [
     145.161224,
     -37.84482
    ]
   },
   "properties": {
    "name": "23 ROMOLY DRIVE FOREST HILL 3131",
    "locID": "LOC000095271584",
    "tech": "HFC",
    "upgrade": "NULL_NA",
    "gnaf_pid": "GAVIC419580927"
   }
  },
  {
   "type": "Feature",
   "geometry": {
    "type": "Point",
    "coordinates": [
     145.1627,
     -37.845329
    ]
   },
   "properties": {
    "name": "30 ROMOLY DRIVE FOREST HILL 3131",
    "locID": "LOC000034666850",
    "tech": "HFC",
    "upgrade": "NULL_NA",
    "gnaf_pid": "GAVIC419580928"
   }
  },
  {
   "type": "Feature",
   "geometry": {
    "type": "Point",
    "coordinates": [
     145.163029,
     -37.84537
    ]
   },
   "properties": {
    "name": "34 ROMOLY DRIVE FOREST HILL 3131",
    "locID": "LOC000050566215",
    "tech": "HFC",
    "upgrade": "NULL_NA",
    "gnaf_pid": "GAVIC419580929"
   }
  },
  {
   "type": "Feature",
   "geometry": {
    "type": "Point",
    "coordinates": [
     145.163059,
     -37.845092
    ]
   },
   "properties": {
    "name": "45 ROMOLY DRIVE FOREST HILL 3131",
    "locID": "LOC000063788482",
    "tech": "HFC",
    "upgrade": "NULL_NA",
    "gnaf_pid": "GAVIC419580930"
   }
  },
  {
   "type": "Feature",
   "geometry": {
    "type": "Point",
    "coordinates": [
     145.164059,
     -37.845522
    ]
   },
   "properties": {
    "name": "46 ROMOLY DRIVE FOREST HILL 3131",
    "locID": "LOC000037205332",
    "tech": "HFC",
    "upgrade": "NULL_NA",
    "gnaf_pid": "GAVIC419580931"
   }
  },
  {
   "type": "Feature",
   "geometry": {
    "type": "Point",
    "coordinates": [
     145.18208561,
     -37.83798389
    ]
   },
   "properties": {
    "name": "1 SYLVAN COURT FOREST HILL 3131",
    "locID": "LOC000004498228",
    "tech": "HFC",
    "upgrade": "NULL_NA",
    "gnaf_pid": "GAVIC419580953"
   }
  },
  {
   "type": "Feature",
   "geometry": {
    "type": "Point",
    "coordinates": [
     145.164654,
     -37.849956
    ]
   },
   "properties": {
    "name": "6 VISCOUNT WAY FOREST HILL 3131",
    "locID": "LOC000063614123",
    "tech": "HFC",
    "upgrade": "NULL_NA",
    "gnaf_pid": "GAVIC419581087"
   }
  },
  {
   "type": "Feature",
   "geometry": {
    "type": "Point",
    "coordinates": [
     145.17104345,
     -37.83575864
    ]
   },
   "properties": {
    "name": "2 VISTA COURT FOREST HILL 3131",
    "locID": "LOC000154451127",
    "tech": "HFC",
    "upgrade": "NULL_NA",
    "gnaf_pid": "GAVIC419581093"
   }
  },
  {
   "type": "Feature",
   "geometry": {
    "type": "Point",
    "coordinates": [
     145.181823,
     -37.843652
    ]
   },
   "properties": {
    "name": "6 WEMBLEY COURT FOREST HILL 3131",
    "locID": "LOC000006187403",
    "tech": "HFC",
    "upgrade": "NULL_NA",
    "gnaf_pid": "GAVIC419581227"
   }
  },
  {
   "type": "Feature",
   "geometry": {
    "type": "Point",
    "coordinates": [
     145.181584,
     -37.839062
    ]
   },
   "properties": {
    "name": "16 SYLVAN COURT FOREST HILL 3131",
    "locID": "LOC000002828152",
    "tech": "HFC",
    "upgrade": "NULL_NA",
    "gnaf_pid": "GAVIC419581500"
   }
  },
  {
   "type": "Feature",
   "geometry": {
    "type": "Point",
    "coordinates": [
     145.170465,
     -37.841115
    ]
   },
   "properties": {
    "name": "7 GIDGEE COURT FOREST HILL 3131",
    "locID": "LOC000084186004",
    "tech": "HFC",
    "upgrade": "NULL_NA",
    "gnaf_pid": "GAVIC419581534"
   }
  },
  {
   "type": "Feature",
   "geometry": {
    "type": "Point",
    "coordinates": [
     145.165166,
     -37.84079
    ]
   },
   "properties": {
    "name": "108 MAHONEYS ROAD FOREST HILL 3131",
    "locID": "LOC000028470070",
    "tech": "HFC",
    "upgrade": "NULL_NA",
    "gnaf_pid": "GAVIC419581582"
   }
  },
  {
   "type": "Feature",
   "geometry": {
    "type": "Point",
    "coordinates": [
     145.16582,
     -37.839133
    ]
   },
   "properties": {
    "name": "123 MAHONEYS ROAD FOREST HILL 3131",
    "locID": "LOC000026899109",
    "tech": "HFC",
    "upgrade": "NULL_NA",
    "gnaf_pid": "GAVIC419581583"
   }
  },
  {
   "type": "Feature",
   "geometry": {
    "type": "Point",
    "coordinates": [
     145.164924,
     -37.842291
    ]
   },
   "properties": {
    "name": "128 MAHONEYS ROAD FOREST HILL 3131",
    "locID": "LOC000085068704",
    "tech": "HFC",
    "upgrade": "NULL_NA",
    "gnaf_pid": "GAVIC419581584"
   }
  },
  {
   "type": "Feature",
   "geometry": {
    "type": "Point",
    "coordinates": [
     145.165512,
     -37.841038
    ]
   },
   "properties": {
    "name": "149 MAHONEYS ROAD FOREST HILL 3131",
    "locID": "LOC000072902009",
    "tech": "HFC",
    "upgrade": "NULL_NA",
    "gnaf_pid": "GAVIC419581585"
   }
  },
  {
   "type": "Feature",
   "geometry": {
    "type": "Point",
    "coordinates": [
     145.176619,
     -37.832541
    ]
   },
   "properties": {
    "name": "67 SHADY GROVE FOREST HILL 3131",
    "locID": "LOC000077001465",
    "tech": "HFC",
    "upgrade": "NULL_NA",
    "gnaf_pid": "GAVIC419581624"
   }
  },
  {
   "type": "Feature",
   "geometry": {
    "type": "Point",
    "coordinates": [
     145.176073,
     -37.833506
    ]
   },
   "properties": {
    "name": "78 SHADY GROVE FOREST HILL 3131",
    "locID": "LOC000051969115",
    "tech": "HFC",
    "upgrade": "NULL_NA",
    "gnaf_pid": "GAVIC419581625"
   }
  },
  {
   "type": "Feature",
   "geometry": {
    "type": "Point",
    "coordinates": [
     145.176019,
     -37.833839
    ]
   },
   "properties": {
    "name": "82 SHADY GROVE FOREST HILL 3131",
    "locID": "LOC000105922151",
    "tech": "HFC",
    "upgrade": "NULL_NA",
    "gnaf_pid": "GAVIC419581626"
   }
  },
  {
   "type": "Feature",
   "geometry": {
    "type": "Point",
    "coordinates": [
     145.167302,
     -37.849952
    ]
   },
   "properties": {
    "name": "5 ANSETT CRESCENT FOREST HILL 3131",
    "locID": "LOC000053026908",
    "tech": "HFC",
    "upgrade": "NULL_NA",
    "gnaf_pid": "GAVIC419581667"
   }
  },
  {
   "type": "Feature",
   "geometry": {
    "type": "Point",
    "coordinates": [
     145.170564,
     -37.832465
    ]
   },
   "properties": {
    "name": "17 GLEN VALLEY ROAD FOREST HILL 3131",
    "locID": "LOC000084832577",
    "tech": "HFC",
    "upgrade": "NULL_NA",
    "gnaf_pid": "GAVIC419581696"
   }
  },
  {
   "type": "Feature",
   "geometry": {
    "type": "Point",
    "coordinates": [
     145.170361,
     -37.832435
    ]
   },
   "properties": {
    "name": "19 GLEN VALLEY ROAD FOREST HILL 3131",
    "locID": "LOC000096441154",
    "tech": "HFC",
    "upgrade": "NULL_NA",
    "gnaf_pid": "GAVIC419581697"
   }
  },
  {
   "type": "Feature",
   "geometry": {
    "type": "Point",
    "coordinates": [
     145.170179,
     -37.832423
    ]
   },
   "properties": {
    "name": "21 GLEN VALLEY ROAD FOREST HILL 3131",
    "locID": "LOC000109856198",
    "tech": "HFC",
    "upgrade": "NULL_NA",
    "gnaf_pid": "GAVIC419581698"
   }
  },
  {
   "type": "Feature",
   "geometry": {
    "type": "Point",
    "coordinates": [
     145.175703,
     -37.833753
    ]
   },
   "properties": {
    "name": "8 BLATCH COURT FOREST HILL 3131",
    "locID": "LOC000092744625",
    "tech": "HFC",
    "upgrade": "NULL_NA",
    "gnaf_pid": "GAVIC419581724"
   }
  },
  {
   "type": "Feature",
   "geometry": {
    "type": "Point",
    "coordinates": [
     145.17821,
     -37.842686
    ]
   },
   "properties": {
    "name": "5 INGLEWOOD AVENUE FOREST HILL 3131",
    "locID": "LOC000092883270",
    "tech": "HFC",
    "upgrade": "NULL_NA",
    "gnaf_pid": "GAVIC419581743"
   }
  },
  {
   "type": "Feature",
   "geometry": {
    "type": "Point",
    "coordinates": [
     145.177859,
     -37.842663
    ]
   },
   "properties": {
    "name": "6 INGLEWOOD AVENUE FOREST HILL 3131",
    "locID": "LOC000098420990",
    "tech": "HFC",
    "upgrade": "NULL_NA",
    "gnaf_pid": "GAVIC419581744"
   }
  },
  {
   "type": "Feature",
   "geometry": {
    "type": "Point",
    "coordinates": [
     145.161471,
     -37.833982
    ]
   },
   "properties": {
    "name": "2 JACKSON STREET FOREST HILL 3131",
    "locID": "LOC000048230323",
    "tech": "HFC",
    "upgrade": "NULL_NA",
    "gnaf_pid": "GAVIC419581751"
   }
  },
  {
   "type": "Feature",
   "geometry": {
    "type": "Point",
    "coordinates": [
     145.161444,
     -37.834135
    ]
   },
   "properties": {
    "name": "4 JACKSON STREET FOREST HILL 3131",
    "locID": "LOC000071613421",
    "tech": "HFC",
    "upgrade": "NULL_NA",
    "gnaf_pid": "GAVIC419581752"
   }
  },
  {
   "type": "Feature",
   "geometry": {
    "type": "Point",
    "coordinates": [
     145.161296,
     -37.837359
    ]
   },
   "properties": {
    "name": "25 JACKSON STREET FOREST HILL 3131",
    "locID": "LOC000034707056",
    "tech": "HFC",
    "upgrade": "NULL_NA",
    "gnaf_pid": "GAVIC419581753"
   }
  },
  {
   "type": "Feature",
   "geometry": {
    "type": "Point",
    "coordinates": [
     145.161247,
     -37.837502
    ]
   },
   "properties": {
    "name": "27 JACKSON STREET FOREST HILL 3131",
    "locID": "LOC000008575993",
    "tech": "HFC",
    "upgrade": "NULL_NA",
    "gnaf_pid": "GAVIC419581754"
   }
  },
  {
   "type": "Feature",
   "geometry": {
    "type": "Point",
    "coordinates": [
     145.161125,
     -37.836022
    ]
   },
   "properties": {
    "name": "32 JACKSON STREET FOREST HILL 3131",
    "locID": "LOC000046974977",
    "tech": "HFC",
    "upgrade": "NULL_NA",
    "gnaf_pid": "GAVIC419581755"
   }
  },
  {
   "type": "Feature",
   "geometry": {
    "type": "Point",
    "coordinates": [
     145.161214,
     -37.841575
    ]
   },
   "properties": {
    "name": "66 VICKI STREET FOREST HILL 3131",
    "locID": "LOC000048527097",
    "tech": "HFC",
    "upgrade": "NULL_NA",
    "gnaf_pid": "GAVIC419581813"
   }
  },