{
 "type": "FeatureCollection",
 "generated": "2024-08-12T17:07:54.334655",
 "suburb": "FRASER RISE",
 "features": [
  {
   "type": "Feature",
   "geometry": {
    "type": "Point",
    "coordinates": [
     144.72581827,
     -37.7010471
    ]
   },
   "properties": {
    "name": "27 GOULDING DRIVE FRASER RISE 3336",
    "locID": "LOC000156519487",
    "tech": "NULL",
    "upgrade": "NULL_NA",
    "gnaf_pid": "GAVIC719410275"
   }
  },
  {
   "type": "Feature",
   "geometry": {
    "type": "Point",
    "coordinates": [
     144.72479105,
     -37.71722941
    ]
   },
   "properties": {
    "name": "12 PHOENIX GROVE FRASER RISE 3336",
    "locID": "LOC000137386018",
    "tech": "FTTP",
    "upgrade": "NULL_NA",
    "gnaf_pid": "GAVIC719410276"
   }
  },
  {
   "type": "Feature",
   "geometry": {
    "type": "Point",
    "coordinates": [
     144.72898984,
     -37.70587844
    ]
   },
   "properties": {
    "name": "30 HIGGINS STREET FRASER RISE 3336",
    "locID": "LOC000156531574",
    "tech": "NULL",
    "upgrade": "NULL_NA",
    "gnaf_pid": "GAVIC719410277"
   }
  },
  {
   "type": "Feature",
   "geometry": {
    "type": "Point",
    "coordinates": [
     144.73047273,
     -37.70925987
    ]
   },
   "properties": {
    "name": "21 LUNAR WAY FRASER RISE 3336",
    "locID": "LOC000151307680",
    "tech": "FTTP",
    "upgrade": "NULL_NA",
    "gnaf_pid": "GAVIC719410278"
   }
  },
  {
   "type": "Feature",
   "geometry": {
    "type": "Point",
    "coordinates": [
     144.72433777,
     -37.70245198
    ]
   },
   "properties": {
    "name": "29 WRIGHT CIRCUIT FRASER RISE 3336",
    "locID": "LOC000156528948",
    "tech": "NULL",
    "upgrade": "NULL_NA",
    "gnaf_pid": "GAVIC719410279"
   }
  },
  {
   "type": "Feature",
   "geometry": {
    "type": "Point",
    "coordinates": [
     144.72371098,
     -37.71831718
    ]
   },
   "properties": {
    "name": "28 GALVESTON AVENUE FRASER RISE 3336",
    "locID": "LOC000145422821",
    "tech": "FTTP",
    "upgrade": "NULL_NA",
    "gnaf_pid": "GAVIC719410280"
   }
  },
  {
   "type": "Feature",
   "geometry": {
    "type": "Point",
    "coordinates": [
     144.72158566,
     -37.71816178
    ]
   },
   "properties": {
    "name": "24 DALVEEN DRIVE FRASER RISE 3336",
    "locID": "LOC000151916213",
    "tech": "FTTP",
    "upgrade": "NULL_NA",
    "gnaf_pid": "GAVIC719410281"
   }
  },
  {
   "type": "Feature",
   "geometry": {
    "type": "Point",
    "coordinates": [
     144.72227276,
     -37.71633522
    ]
   },
   "properties": {
    "name": "60 AUBURN DRIVE FRASER RISE 3336",
    "locID": "LOC000156518727",
    "tech": "FTTP",
    "upgrade": "NULL_NA",
    "gnaf_pid": "GAVIC719410282"
   }
  },
  {
   "type": "Feature",
   "geometry": {
    "type": "Point",
    "coordinates": [
     144.72641038,
     -37.7198722
    ]
   },
   "properties": {
    "name": "31 MANDALAY PARADE FRASER RISE 3336",
    "locID": "LOC000141284286",
    "tech": "FTTP",
    "upgrade": "NULL_NA",
    "gnaf_pid": "GAVIC719410283"
   }
  },
  {
   "type": "Feature",
   "geometry": {
    "type": "Point",
    "coordinates": [
     144.72441357,
     -37.71187713
    ]
   },
   "properties": {
    "name": "560 HUME DRIVE FRASER RISE 3336",
    "locID": "LOC000134961651",
    "tech": "FTTP",
    "upgrade": "NULL_NA",
    "gnaf_pid": "GAVIC719410284"
   }
  },
  {
   "type": "Feature",
   "geometry": {
    "type": "Point",
    "coordinates": [
     144.72737908,
     -37.70733331
    ]
   },
   "properties": {
    "name": "47 TORA CRESCENT FRASER RISE 3336",
    "locID": "LOC000175211340",
    "tech": "FTTP",
    "upgrade": "NULL_NA",
    "gnaf_pid": "GAVIC719410285"
   }
  },
  {
   "type": "Feature",
   "geometry": {
    "type": "Point",
    "coordinates": [
     144.72849555,
     -37.70570136
    ]
   },
   "properties": {
    "name": "16 SNOWSILL WAY FRASER RISE 3336",
    "locID": "LOC000156531471",
    "tech": "NULL",
    "upgrade": "NULL_NA",
    "gnaf_pid": "GAVIC719410286"
   }
  },
  {
   "type": "Feature",
   "geometry": {
    "type": "Point",
    "coordinates": [
     144.72450641,
     -37.7046363
    ]
   },
   "properties": {
    "name": "22 WILDE STREET FRASER RISE 3336",
    "locID": "LOC000156528589",
    "tech": "NULL",
    "upgrade": "NULL_NA",
    "gnaf_pid": "GAVIC719410367"
   }
  },
  {
   "type": "Feature",
   "geometry": {
    "type": "Point",
    "coordinates": [
     144.72429384,
     -37.71053288
    ]
   },
   "properties": {
    "name": "10 JARDINE DRIVE FRASER RISE 3336",
    "locID": "LOC000146353972",
    "tech": "FTTP",
    "upgrade": "NULL_NA",
    "gnaf_pid": "GAVIC719410368"
   }
  },
  {
   "type": "Feature",
   "geometry": {
    "type": "Point",
    "coordinates": [
     144.72764112,
     -37.72001992
    ]
   },
   "properties": {
    "name": "15 MANDALAY PARADE FRASER RISE 3336",
    "locID": "LOC000141284201",
    "tech": "FTTP",
    "upgrade": "NULL_NA",
    "gnaf_pid": "GAVIC719410371"
   }
  },
  {
   "type": "Feature",
   "geometry": {
    "type": "Point",
    "coordinates": [
     144.72929342,
     -37.70553612
    ]
   },
   "properties": {
    "name": "25 HIGGINS STREET FRASER RISE 3336",
    "locID": "LOC000156531437",
    "tech": "NULL",
    "upgrade": "NULL_NA",
    "gnaf_pid": "GAVIC719410372"
   }
  },
  {
   "type": "Feature",
   "geometry": {
    "type": "Point",
    "coordinates": [
     144.72240289,
     -37.71782265
    ]
   },
   "properties": {
    "name": "13 LANDO STREET FRASER RISE 3336",
    "locID": "LOC000151123672",
    "tech": "FTTP",
    "upgrade": "NULL_NA",
    "gnaf_pid": "GAVIC719410373"
   }
  },
  {
   "type": "Feature",
   "geometry": {
    "type": "Point",
    "coordinates": [
     144.72276871,
     -37.71517939
    ]
   },
   "properties": {
    "name": "42 ROYALE DRIVE FRASER RISE 3336",
    "locID": "LOC000166338893",
    "tech": "FTTP",
    "upgrade": "NULL_NA",
    "gnaf_pid": "GAVIC719410374"
   }
  },
  {
   "type": "Feature",
   "geometry": {
    "type": "Point",
    "coordinates": [
     144.72517324,
     -37.70641346
    ]
   },
   "properties": {
    "name": "27 FORRESTER GROVE FRASER RISE 3336",
    "locID": "LOC000156527904",
    "tech": "NULL",
    "upgrade": "NULL_NA",
    "gnaf_pid": "GAVIC719410375"
   }
  },
  {
   "type": "Feature",
   "geometry": {
    "type": "Point",
    "coordinates": [
     144.72861756,
     -37.71967997
    ]
   },
   "properties": {
    "name": "18 MANDALAY PARADE FRASER RISE 3336",
    "locID": "LOC000139450005",
    "tech": "FTTP",
    "upgrade": "NULL_NA",
    "gnaf_pid": "GAVIC719410377"
   }
  },
  {
   "type": "Feature",
   "geometry": {
    "type": "Point",
    "coordinates": [
     144.72812892,
     -37.71933127
    ]
   },
   "properties": {
    "name": "15 MOORE DRIVE FRASER RISE 3336",
    "locID": "LOC000139449964",
    "tech": "FTTP",
    "upgrade": "NULL_NA",
    "gnaf_pid": "GAVIC719410378"
   }
  },
  {
   "type": "Feature",
   "geometry": {
    "type": "Point",
    "coordinates": [
     144.72262816,
     -37.71516226
    ]
   },
   "properties": {
    "name": "44 ROYALE DRIVE FRASER RISE 3336",
    "locID": "LOC000166338886",
    "tech": "FTTP",
    "upgrade": "NULL_NA",
    "gnaf_pid": "GAVIC719410379"
   }
  },
  {
   "type": "Feature",
   "geometry": {
    "type": "Point",
    "coordinates": [
     144.72510312,
     -37.70603349
    ]
   },
   "properties": {
    "name": "21 FORRESTER GROVE FRASER RISE 3336",
    "locID": "LOC000156531307",
    "tech": "NULL",
    "upgrade": "NULL_NA",
    "gnaf_pid": "GAVIC719410383"
   }
  },
  {
   "type": "Feature",
   "geometry": {
    "type": "Point",
    "coordinates": [
     144.73013139,
     -37.70891961
    ]
   },
   "properties": {
    "name": "3 PATERA GROVE FRASER RISE 3336",
    "locID": "LOC000151307549",
    "tech": "FTTP",
    "upgrade": "NULL_NA",
    "gnaf_pid": "GAVIC719410384"
   }
  },
  {
   "type": "Feature",
   "geometry": {
    "type": "Point",
    "coordinates": [
     144.72895456,
     -37.7191389
    ]
   },
   "properties": {
    "name": "8 MOORE DRIVE FRASER RISE 3336",
    "locID": "LOC000139449901",
    "tech": "FTTP",
    "upgrade": "NULL_NA",
    "gnaf_pid": "GAVIC719410385"
   }
  },
  {
   "type": "Feature",
   "geometry": {
    "type": "Point",
    "coordinates": [
     144.72246751,
     -37.71855987
    ]
   },
   "properties": {
    "name": "9 DALVEEN DRIVE FRASER RISE 3336",
    "locID": "LOC000145422710",
    "tech": "FTTP",
    "upgrade": "NULL_NA",
    "gnaf_pid": "GAVIC719410387"
   }
  },
  {
   "type": "Feature",
   "geometry": {
    "type": "Point",
    "coordinates": [
     144.73187421,
     -37.70967254
    ]
   },
   "properties": {
    "name": "1 ECLIPSE AVENUE FRASER RISE 3336",
    "locID": "LOC000139989827",
    "tech": "FTTP",
    "upgrade": "NULL_NA",
    "gnaf_pid": "GAVIC719410388"
   }
  },
  {
   "type": "Feature",
   "geometry": {
    "type": "Point",
    "coordinates": [
     144.72615852,
     -37.69516758
    ]
   },
   "properties": {
    "name": "18 ASPIRE BOULEVARD FRASER RISE 3336",
    "locID": "LOC000124511921",
    "tech": "NULL",
    "upgrade": "NULL_NA",
    "gnaf_pid": "GAVIC719410389"
   }
  },
  {
   "type": "Feature",
   "geometry": {
    "type": "Point",
    "coordinates": [
     144.72353557,
     -37.70876795
    ]
   },
   "properties": {
    "name": "75 HAWKING CRESCENT FRASER RISE 3336",
    "locID": "LOC000174465164",
    "tech": "FTTP",
    "upgrade": "NULL_NA",
    "gnaf_pid": "GAVIC719410390"
   }
  },
  {
   "type": "Feature",
   "geometry": {
    "type": "Point",
    "coordinates": [
     144.72398784,
     -37.70961757
    ]
   },
   "properties": {
    "name": "94 HAWKING CRESCENT FRASER RISE 3336",
    "locID": "LOC000174465350",
    "tech": "FTTP",
    "upgrade": "NULL_NA",
    "gnaf_pid": "GAVIC719410391"
   }
  },
  {
   "type": "Feature",
   "geometry": {
    "type": "Point",
    "coordinates": [
     144.72610749,
     -37.71688869
    ]
   },
   "properties": {
    "name": "47 CITY VISTA COURT FRASER RISE 3336",
    "locID": "LOC000135564383",
    "tech": "FTTP",
    "upgrade": "NULL_NA",
    "gnaf_pid": "GAVIC719410392"
   }
  },
  {
   "type": "Feature",
   "geometry": {
    "type": "Point",
    "coordinates": [
     144.72381642,
     -37.70744172
    ]
   },
   "properties": {
    "name": "52 HAWKING CRESCENT FRASER RISE 3336",
    "locID": "LOC000174464777",
    "tech": "FTTP",
    "upgrade": "NULL_NA",
    "gnaf_pid": "GAVIC719410393"
   }
  },
  {
   "type": "Feature",
   "geometry": {
    "type": "Point",
    "coordinates": [
     144.72835625,
     -37.70070196
    ]
   },
   "properties": {
    "name": "23 DAWKINS AVENUE FRASER RISE 3336",
    "locID": "LOC000156522923",
    "tech": "NULL",
    "upgrade": "NULL_NA",
    "gnaf_pid": "GAVIC719410397"
   }
  },
  {
   "type": "Feature",
   "geometry": {
    "type": "Point",
    "coordinates": [
     144.72639556,
     -37.69758788
    ]
   },
   "properties": {
    "name": "48 ASPIRE BOULEVARD FRASER RISE 3336",
    "locID": "LOC000156520288",
    "tech": "NULL",
    "upgrade": "NULL_NA",
    "gnaf_pid": "GAVIC719410398"
   }
  },
  {
   "type": "Feature",
   "geometry": {
    "type": "Point",
    "coordinates": [
     144.72692787,
     -37.71811873
    ]
   },
   "properties": {
    "name": "27 ARIA BOULEVARD FRASER RISE 3336",
    "locID": "LOC000138812380",
    "tech": "FTTP",
    "upgrade": "NULL_NA",
    "gnaf_pid": "GAVIC719410399"
   }
  },
  {
   "type": "Feature",
   "geometry": {
    "type": "Point",
    "coordinates": [
     144.73139909,
     -37.71356025
    ]
   },
   "properties": {
    "name": "57 ENTERPRISE CIRCUIT FRASER RISE 3336",
    "locID": "LOC000143997054",
    "tech": "FTTP",
    "upgrade": "NULL_NA",
    "gnaf_pid": "GAVIC719410400"
   }
  },
  {
   "type": "Feature",
   "geometry": {
    "type": "Point",
    "coordinates": [
     144.72979834,
     -37.71315115
    ]
   },
   "properties": {
    "name": "79 ENTERPRISE CIRCUIT FRASER RISE 3336",
    "locID": "LOC000143996949",
    "tech": "FTTP",
    "upgrade": "NULL_NA",
    "gnaf_pid": "GAVIC719410401"
   }
  },
  {
   "type": "Feature",
   "geometry": {
    "type": "Point",
    "coordinates": [
     144.72478257,
     -37.7073342
    ]
   },
   "properties": {
    "name": "37 LEGRANGE CRESCENT FRASER RISE 3336",
    "locID": "LOC000174613855",
    "tech": "FTTP",
    "upgrade": "NULL_NA",
    "gnaf_pid": "GAVIC719410402"
   }
  },
  {
   "type": "Feature",
   "geometry": {
    "type": "Point",
    "coordinates": [
     144.72177306,
     -37.71964896
    ]
   },
   "properties": {
    "name": "50 LUXOR DRIVE FRASER RISE 3336",
    "locID": "LOC000145382996",
    "tech": "FTTP",
    "upgrade": "NULL_NA",
    "gnaf_pid": "GAVIC719410403"
   }
  },
  {
   "type": "Feature",
   "geometry": {
    "type": "Point",
    "coordinates": [
     144.72383362,
     -37.71577174
    ]
   },
   "properties": {
    "name": "51 GALVESTON AVENUE FRASER RISE 3336",
    "locID": "LOC000166339091",
    "tech": "FTTP",
    "upgrade": "NULL_NA",
    "gnaf_pid": "GAVIC719410404"
   }
  },
  {
   "type": "Feature",
   "geometry": {
    "type": "Point",
    "coordinates": [
     144.72922245,
     -37.71272667
    ]
   },
   "properties": {
    "name": "14 KIRKWOOD AVENUE FRASER RISE 3336",
    "locID": "LOC000140002392",
    "tech": "FTTP",
    "upgrade": "NULL_NA",
    "gnaf_pid": "GAVIC719410405"
   }
  },
  {
   "type": "Feature",
   "geometry": {
    "type": "Point",
    "coordinates": [
     144.73136746,
     -37.71262566
    ]
   },
   "properties": {
    "name": "17 ZODIAC WAY FRASER RISE 3336",
    "locID": "LOC000139988535",
    "tech": "FTTP",
    "upgrade": "NULL_NA",
    "gnaf_pid": "GAVIC719410406"
   }
  },
  {
   "type": "Feature",
   "geometry": {
    "type": "Point",
    "coordinates": [
     144.72704539,
     -37.71942908
    ]
   },
   "properties": {
    "name": "6 ARIA BOULEVARD FRASER RISE 3336",
    "locID": "LOC000139917027",
    "tech": "FTTP",
    "upgrade": "NULL_NA",
    "gnaf_pid": "GAVIC719410407"
   }
  },
  {
   "type": "Feature",
   "geometry": {
    "type": "Point",
    "coordinates": [
     144.73034824,
     -37.71905473
    ]
   },
   "properties": {
    "name": "21 QUADRANT DRIVE FRASER RISE 3336",
    "locID": "LOC000137144541",
    "tech": "FTTP",
    "upgrade": "NULL_NA",
    "gnaf_pid": "GAVIC719410408"
   }
  },
  {
   "type": "Feature",
   "geometry": {
    "type": "Point",
    "coordinates": [
     144.73226751,
     -37.70960765
    ]
   },
   "properties": {
    "name": "20 INFINITY DRIVE FRASER RISE 3336",
    "locID": "LOC000139989634",
    "tech": "FTTP",
    "upgrade": "NULL_NA",
    "gnaf_pid": "GAVIC719410409"
   }
  },
  {
   "type": "Feature",
   "geometry": {
    "type": "Point",
    "coordinates": [
     144.72725838,
     -37.71065105
    ]
   },
   "properties": {
    "name": "12 NEBULA COURT FRASER RISE 3336",
    "locID": "LOC000152855170",
    "tech": "FTTP",
    "upgrade": "NULL_NA",
    "gnaf_pid": "GAVIC719410410"
   }
  },
  {
   "type": "Feature",
   "geometry": {
    "type": "Point",
    "coordinates": [
     144.72190295,
     -37.71892928
    ]
   },
   "properties": {
    "name": "20 EAGLECREST AVENUE FRASER RISE 3336",
    "locID": "LOC000145382707",
    "tech": "FTTP",
    "upgrade": "NULL_NA",
    "gnaf_pid": "GAVIC719410411"
   }
  },
  {
   "type": "Feature",
   "geometry": {
    "type": "Point",
    "coordinates": [
     144.72665009,
     -37.70158727
    ]
   },
   "properties": {
    "name": "87 ASPIRE BOULEVARD FRASER RISE 3336",
    "locID": "LOC000156524188",
    "tech": "NULL",
    "upgrade": "NULL_NA",
    "gnaf_pid": "GAVIC719410412"
   }
  },
  {
   "type": "Feature",
   "geometry": {
    "type": "Point",
    "coordinates": [
     144.72800366,
     -37.71221383
    ]
   },
   "properties": {
    "name": "115 ENTERPRISE CIRCUIT FRASER RISE 3336",
    "locID": "LOC000145702493",
    "tech": "FTTP",
    "upgrade": "NULL_NA",
    "gnaf_pid": "GAVIC719410413"
   }
  },
  {
   "type": "Feature",
   "geometry": {
    "type": "Point",
    "coordinates": [
     144.72915428,
     -37.71872544
    ]
   },
   "properties": {
    "name": "5 CARO WAY FRASER RISE 3336",
    "locID": "LOC000139449718",
    "tech": "FTTP",
    "upgrade": "NULL_NA",
    "gnaf_pid": "GAVIC719410415"
   }
  },
  {
   "type": "Feature",
   "geometry": {
    "type": "Point",
    "coordinates": [
     144.73045495,
     -37.71118096
    ]
   },
   "properties": {
    "name": "16 EQUINOX WAY FRASER RISE 3336",
    "locID": "LOC000141291863",
    "tech": "FTTP",
    "upgrade": "NULL_NA",
    "gnaf_pid": "GAVIC719410416"
   }
  },
  {
   "type": "Feature",
   "geometry": {
    "type": "Point",
    "coordinates": [
     144.72938966,
     -37.7103048
    ]
   },
   "properties": {
    "name": "34 EQUINOX WAY FRASER RISE 3336",
    "locID": "LOC000147810097",
    "tech": "FTTP",
    "upgrade": "NULL_NA",
    "gnaf_pid": "GAVIC719410417"
   }
  },
  {
   "type": "Feature",
   "geometry": {
    "type": "Point",
    "coordinates": [
     144.73084624,
     -37.7088717
    ]
   },
   "properties": {
    "name": "14 LUNAR WAY FRASER RISE 3336",
    "locID": "LOC000146029114",
    "tech": "FTTP",
    "upgrade": "NULL_NA",
    "gnaf_pid": "GAVIC719410418"
   }
  },
  {
   "type": "Feature",
   "geometry": {
    "type": "Point",
    "coordinates": [
     144.72826471,
     -37.70863277
    ]
   },
   "properties": {
    "name": "13 PULSAR WAY FRASER RISE 3336",
    "locID": "LOC000173402610",
    "tech": "FTTP",
    "upgrade": "NULL_NA",
    "gnaf_pid": "GAVIC719410419"
   }
  },
  {
   "type": "Feature",
   "geometry": {
    "type": "Point",
    "coordinates": [
     144.73127982,
     -37.71181006
    ]
   },
   "properties": {
    "name": "41 ZODIAC WAY FRASER RISE 3336",
    "locID": "LOC000139988485",
    "tech": "FTTP",
    "upgrade": "NULL_NA",
    "gnaf_pid": "GAVIC719410420"
   }
  },
  {
   "type": "Feature",
   "geometry": {
    "type": "Point",
    "coordinates": [
     144.72877874,
     -37.70857332
    ]
   },
   "properties": {
    "name": "7 PULSAR WAY FRASER RISE 3336",
    "locID": "LOC000151307182",
    "tech": "FTTP",
    "upgrade": "NULL_NA",
    "gnaf_pid": "GAVIC719410421"
   }
  },
  {
   "type": "Feature",
   "geometry": {
    "type": "Point",
    "coordinates": [
     144.72597066,
     -37.71760691
    ]
   },
   "properties": {
    "name": "37 CITY VISTA COURT FRASER RISE 3336",
    "locID": "LOC000135564331",
    "tech": "FTTP",
    "upgrade": "NULL_NA",
    "gnaf_pid": "GAVIC719410423"
   }
  },
  {
   "type": "Feature",
   "geometry": {
    "type": "Point",
    "coordinates": [
     144.72574882,
     -37.70442098
    ]
   },
   "properties": {
    "name": "3 KENNEDY DRIVE FRASER RISE 3336",
    "locID": "LOC000156524443",
    "tech": "NULL",
    "upgrade": "NULL_NA",
    "gnaf_pid": "GAVIC719410424"
   }
  },
  {
   "type": "Feature",
   "geometry": {
    "type": "Point",
    "coordinates": [
     144.72816057,
     -37.71149271
    ]
   },
   "properties": {
    "name": "3 SOLSTICE DRIVE FRASER RISE 3336",
    "locID": "LOC000149636430",
    "tech": "FTTP",
    "upgrade": "NULL_NA",
    "gnaf_pid": "GAVIC719410425"
   }
  },
  {
   "type": "Feature",
   "geometry": {
    "type": "Point",
    "coordinates": [
     144.72146904,
     -37.71708596
    ]
   },
   "properties": {
    "name": "38 AUBURN DRIVE FRASER RISE 3336",
    "locID": "LOC000156518547",
    "tech": "FTTP",
    "upgrade": "NULL_NA",
    "gnaf_pid": "GAVIC719410426"
   }
  },
  {
   "type": "Feature",
   "geometry": {
    "type": "Point",
    "coordinates": [
     144.73123141,
     -37.71812817
    ]
   },
   "properties": {
    "name": "37 ORBIS AVENUE FRASER RISE 3336",
    "locID": "LOC000136229026",
    "tech": "FTTP",
    "upgrade": "NULL_NA",
    "gnaf_pid": "GAVIC719410427"
   }
  },
  {
   "type": "Feature",
   "geometry": {
    "type": "Point",
    "coordinates": [
     144.72556443,
     -37.70048593
    ]
   },
   "properties": {
    "name": "28 GOULDING DRIVE FRASER RISE 3336",
    "locID": "LOC000156520482",
    "tech": "NULL",
    "upgrade": "NULL_NA",
    "gnaf_pid": "GAVIC719410429"
   }
  },
  {
   "type": "Feature",
   "geometry": {
    "type": "Point",
    "coordinates": [
     144.72414577,
     -37.71605763
    ]
   },
   "properties": {
    "name": "66 GALVESTON AVENUE FRASER RISE 3336",
    "locID": "LOC000160617922",
    "tech": "FTTP",
    "upgrade": "NULL_NA",
    "gnaf_pid": "GAVIC719410430"
   }
  },
  {
   "type": "Feature",
   "geometry": {
    "type": "Point",
    "coordinates": [
     144.73173155,
     -37.70897618
    ]
   },
   "properties": {
    "name": "3 LUNAR WAY FRASER RISE 3336",
    "locID": "LOC000146028898",
    "tech": "FTTP",
    "upgrade": "NULL_NA",
    "gnaf_pid": "GAVIC719410435"
   }
  },
  {
   "type": "Feature",
   "geometry": {
    "type": "Point",
    "coordinates": [
     144.7247054,
     -37.70586567
    ]
   },
   "properties": {
    "name": "18 FORRESTER GROVE FRASER RISE 3336",
    "locID": "LOC000156531266",
    "tech": "NULL",
    "upgrade": "NULL_NA",
    "gnaf_pid": "GAVIC719410436"
   }
  },
  {
   "type": "Feature",
   "geometry": {
    "type": "Point",
    "coordinates": [
     144.72447031,
     -37.71538436
    ]
   },
   "properties": {
    "name": "22 ROYALE DRIVE FRASER RISE 3336",
    "locID": "LOC000166338990",
    "tech": "FTTP",
    "upgrade": "NULL_NA",
    "gnaf_pid": "GAVIC719410437"
   }
  },
  {
   "type": "Feature",
   "geometry": {
    "type": "Point",
    "coordinates": [
     144.73124537,
     -37.72023773
    ]
   },
   "properties": {
    "name": "1 MIRO WAY FRASER RISE 3336",
    "locID": "LOC000136229222",
    "tech": "FTTP",
    "upgrade": "NULL_NA",
    "gnaf_pid": "GAVIC719410438"
   }
  },
  {
   "type": "Feature",
   "geometry": {
    "type": "Point",
    "coordinates": [
     144.72646659,
     -37.70959507
    ]
   },
   "properties": {
    "name": "6A HAWKING CRESCENT FRASER RISE 3336",
    "locID": "LOC000170242814",
    "tech": "FTTP",
    "upgrade": "NULL_NA",
    "gnaf_pid": "GAVIC719410439"
   }
  },
  {
   "type": "Feature",
   "geometry": {
    "type": "Point",
    "coordinates": [
     144.72472923,
     -37.71903452
    ]
   },
   "properties": {
    "name": "3 RIVOLI CLOSE FRASER RISE 3336",
    "locID": "LOC000135562690",
    "tech": "FTTP",
    "upgrade": "NULL_NA",
    "gnaf_pid": "GAVIC719410441"
   }
  },
  {
   "type": "Feature",
   "geometry": {
    "type": "Point",
    "coordinates": [
     144.72274314,
     -37.71976584
    ]
   },
   "properties": {
    "name": "36 LUXOR DRIVE FRASER RISE 3336",
    "locID": "LOC000145382920",
    "tech": "FTTP",
    "upgrade": "NULL_NA",
    "gnaf_pid": "GAVIC719410442"
   }
  },
  {
   "type": "Feature",
   "geometry": {
    "type": "Point",
    "coordinates": [
     144.72610833,
     -37.71953064
    ]
   },
   "properties": {
    "name": "12 CITY VISTA COURT FRASER RISE 3336",
    "locID": "LOC000138142516",
    "tech": "FTTP",
    "upgrade": "NULL_NA",
    "gnaf_pid": "GAVIC719410444"
   }
  },
  {
   "type": "Feature",
   "geometry": {
    "type": "Point",
    "coordinates": [
     144.72204831,
     -37.71630817
    ]
   },
   "properties": {
    "name": "56 AUBURN DRIVE FRASER RISE 3336",
    "locID": "LOC000156518683",
    "tech": "FTTP",
    "upgrade": "NULL_NA",
    "gnaf_pid": "GAVIC719410445"
   }
  },
  {
   "type": "Feature",
   "geometry": {
    "type": "Point",
    "coordinates": [
     144.73151533,
     -37.72104729
    ]
   },
   "properties": {
    "name": "4 ORBIS AVENUE FRASER RISE 3336",
    "locID": "LOC000136228132",
    "tech": "FTTP",
    "upgrade": "NULL_NA",
    "gnaf_pid": "GAVIC719410446"
   }
  },
  {
   "type": "Feature",
   "geometry": {
    "type": "Point",
    "coordinates": [
     144.72258402,
     -37.71682397
    ]
   },
   "properties": {
    "name": "16 VERSTEEGEN STREET FRASER RISE 3336",
    "locID": "LOC000153999662",
    "tech": "FTTP",
    "upgrade": "NULL_NA",
    "gnaf_pid": "GAVIC719410452"
   }
  },
  {
   "type": "Feature",
   "geometry": {
    "type": "Point",
    "coordinates": [
     144.72433433,
     -37.71770024
    ]
   },
   "properties": {
    "name": "3 PHOENIX GROVE FRASER RISE 3336",
    "locID": "LOC000137384563",
    "tech": "FTTP",
    "upgrade": "NULL_NA",
    "gnaf_pid": "GAVIC719410453"
   }
  },
  {
   "type": "Feature",
   "geometry": {
    "type": "Point",
    "coordinates": [
     144.72671874,
     -37.70363109
    ]
   },
   "properties": {
    "name": "4 WREN PARADE FRASER RISE 3336",
    "locID": "LOC000156524797",
    "tech": "NULL",
    "upgrade": "NULL_NA",
    "gnaf_pid": "GAVIC719410454"
   }
  },
  {
   "type": "Feature",
   "geometry": {
    "type": "Point",
    "coordinates": [
     144.72755945,
     -37.70242272
    ]
   },
   "properties": {
    "name": "17 TWAIN WAY FRASER RISE 3336",
    "locID": "LOC000156522746",
    "tech": "NULL",
    "upgrade": "NULL_NA",
    "gnaf_pid": "GAVIC719410455"
   }
  },
  {
   "type": "Feature",
   "geometry": {
    "type": "Point",
    "coordinates": [
     144.72514575,
     -37.7099443
    ]
   },
   "properties": {
    "name": "105 HAWKING CRESCENT FRASER RISE 3336",
    "locID": "LOC000170242782",
    "tech": "FTTP",
    "upgrade": "NULL_NA",
    "gnaf_pid": "GAVIC719410457"
   }
  },
  {
   "type": "Feature",
   "geometry": {
    "type": "Point",
    "coordinates": [
     144.72180447,
     -37.71702156
    ]
   },
   "properties": {
    "name": "21 VERSTEEGEN STREET FRASER RISE 3336",
    "locID": "LOC000156518228",
    "tech": "FTTP",
    "upgrade": "NULL_NA",
    "gnaf_pid": "GAVIC719410458"
   }
  },
  {
   "type": "Feature",
   "geometry": {
    "type": "Point",
    "coordinates": [
     144.73038407,
     -37.71806957
    ]
   },
   "properties": {
    "name": "49 ORBIS AVENUE FRASER RISE 3336",
    "locID": "LOC000136228800",
    "tech": "FTTP",
    "upgrade": "NULL_NA",
    "gnaf_pid": "GAVIC719410461"
   }
  },
  {
   "type": "Feature",
   "geometry": {
    "type": "Point",
    "coordinates": [
     144.72378551,
     -37.70899529
    ]
   },
   "properties": {
    "name": "81 HAWKING CRESCENT FRASER RISE 3336",
    "locID": "LOC000174465138",
    "tech": "FTTP",
    "upgrade": "NULL_NA",
    "gnaf_pid": "GAVIC719410462"
   }
  },
  {
   "type": "Feature",
   "geometry": {
    "type": "Point",
    "coordinates": [
     144.73229948,
     -37.70691663
    ]
   },
   "properties": {
    "name": "64 INFINITY DRIVE FRASER RISE 3336",
    "locID": "LOC000146028707",
    "tech": "FTTP",
    "upgrade": "NULL_NA",
    "gnaf_pid": "GAVIC719410473"
   }
  },
  {
   "type": "Feature",
   "geometry": {
    "type": "Point",
    "coordinates": [
     144.73085858,
     -37.70762171
    ]
   },
   "properties": {
    "name": "15 VOYAGER DRIVE FRASER RISE 3336",
    "locID": "LOC000146028954",
    "tech": "FTTP",
    "upgrade": "NULL_NA",
    "gnaf_pid": "GAVIC719410475"
   }
  },
  {
   "type": "Feature",
   "geometry": {
    "type": "Point",
    "coordinates": [
     144.72481425,
     -37.7171077
    ]
   },
   "properties": {
    "name": "14 PHOENIX GROVE FRASER RISE 3336",
    "locID": "LOC000137386002",
    "tech": "FTTP",
    "upgrade": "NULL_NA",
    "gnaf_pid": "GAVIC719410476"
   }
  },
  {
   "type": "Feature",
   "geometry": {
    "type": "Point",
    "coordinates": [
     144.72234219,
     -37.7122465
    ]
   },
   "properties": {
    "name": "11 GALIBIER PARADE FRASER RISE 3336",
    "locID": "LOC000139464634",
    "tech": "FTTP",
    "upgrade": "NULL_NA",
    "gnaf_pid": "GAVIC719410477"
   }
  },
  {
   "type": "Feature",
   "geometry": {
    "type": "Point",
    "coordinates": [
     144.7304995,
     -37.70835748
    ]
   },
   "properties": {
    "name": "10 PATERA GROVE FRASER RISE 3336",
    "locID": "LOC000151307605",
    "tech": "FTTP",
    "upgrade": "NULL_NA",
    "gnaf_pid": "GAVIC719410478"
   }
  },
  {
   "type": "Feature",
   "geometry": {
    "type": "Point",
    "coordinates": [
     144.72494989,
     -37.70513887
    ]
   },
   "properties": {
    "name": "3 FORRESTER GROVE FRASER RISE 3336",
    "locID": "LOC000156528673",
    "tech": "NULL",
    "upgrade": "NULL_NA",
    "gnaf_pid": "GAVIC719410479"
   }
  },
  {
   "type": "Feature",
   "geometry": {
    "type": "Point",
    "coordinates": [
     144.72484194,
     -37.70814013
    ]
   },
   "properties": {
    "name": "26 LEGRANGE CRESCENT FRASER RISE 3336",
    "locID": "LOC000174613957",
    "tech": "FTTP",
    "upgrade": "NULL_NA",
    "gnaf_pid": "GAVIC719410480"
   }
  },
  {
   "type": "Feature",
   "geometry": {
    "type": "Point",
    "coordinates": [
     144.72528946,
     -37.70862345
    ]
   },
   "properties": {
    "name": "20 LEGRANGE CRESCENT FRASER RISE 3336",
    "locID": "LOC000174614296",
    "tech": "FTTP",
    "upgrade": "NULL_NA",
    "gnaf_pid": "GAVIC719410481"
   }
  },
  {
   "type": "Feature",
   "geometry": {
    "type": "Point",
    "coordinates": [
     144.72785289,
     -37.70727831
    ]
   },
   "properties": {
    "name": "41 TORA CRESCENT FRASER RISE 3336",
    "locID": "LOC000175211372",
    "tech": "FTTP",
    "upgrade": "NULL_NA",
    "gnaf_pid": "GAVIC719410482"
   }
  },
  {
   "type": "Feature",
   "geometry": {
    "type": "Point",
    "coordinates": [
     144.72294147,
     -37.71094474
    ]
   },
   "properties": {
    "name": "14 PORTOFINO CRESCENT FRASER RISE 3336",
    "locID": "LOC000142669551",
    "tech": "FTTP",
    "upgrade": "NULL_NA",
    "gnaf_pid": "GAVIC719410483"
   }
  },
  {
   "type": "Feature",
   "geometry": {
    "type": "Point",
    "coordinates": [
     144.73229577,
     -37.70730061
    ]
   },
   "properties": {
    "name": "58 INFINITY DRIVE FRASER RISE 3336",
    "locID": "LOC000146028730",
    "tech": "FTTP",
    "upgrade": "NULL_NA",
    "gnaf_pid": "GAVIC719410484"
   }
  },
  {
   "type": "Feature",
   "geometry": {
    "type": "Point",
    "coordinates": [
     144.72347523,
     -37.71176726
    ]
   },
   "properties": {
    "name": "572 HUME DRIVE FRASER RISE 3336",
    "locID": "LOC000139464773",
    "tech": "FTTP",
    "upgrade": "NULL_NA",
    "gnaf_pid": "GAVIC719410485"
   }
  },
  {
   "type": "Feature",
   "geometry": {
    "type": "Point",
    "coordinates": [
     144.72732898,
     -37.71039699
    ]
   },
   "properties": {
    "name": "8 NEBULA COURT FRASER RISE 3336",
    "locID": "LOC000152855158",
    "tech": "FTTP",
    "upgrade": "NULL_NA",
    "gnaf_pid": "GAVIC719410486"
   }
  },
  {
   "type": "Feature",
   "geometry": {
    "type": "Point",
    "coordinates": [
     144.73042517,
     -37.7187084
    ]
   },
   "properties": {
    "name": "27 QUADRANT DRIVE FRASER RISE 3336",
    "locID": "LOC000137144518",
    "tech": "FTTP",
    "upgrade": "NULL_NA",
    "gnaf_pid": "GAVIC719410487"
   }
  },
  {
   "type": "Feature",
   "geometry": {
    "type": "Point",
    "coordinates": [
     144.72457469,
     -37.70078493
    ]
   },
   "properties": {
    "name": "62 KEYNES CIRCUIT FRASER RISE 3336",
    "locID": "LOC000156521937",
    "tech": "NULL",
    "upgrade": "NULL_NA",
    "gnaf_pid": "GAVIC719410488"
   }
  },
  {
   "type": "Feature",
   "geometry": {
    "type": "Point",
    "coordinates": [
     144.72631782,
     -37.70317596
    ]
   },
   "properties": {
    "name": "107 ASPIRE BOULEVARD FRASER RISE 3336",
    "locID": "LOC000156527361",
    "tech": "NULL",
    "upgrade": "NULL_NA",
    "gnaf_pid": "GAVIC719410495"
   }
  },
  {
   "type": "Feature",
   "geometry": {
    "type": "Point",
    "coordinates": [
     144.72951425,
     -37.7187651
    ]
   },
   "properties": {
    "name": "29 GOLDSWORTHY DRIVE FRASER RISE 3336",
    "locID": "LOC000139449739",
    "tech": "FTTP",
    "upgrade": "NULL_NA",
    "gnaf_pid": "GAVIC719410497"
   }
  },
  {
   "type": "Feature",
   "geometry": {
    "type": "Point",
    "coordinates": [
     144.72453257,
     -37.71075002
    ]
   },
   "properties": {
    "name": "1 LOCKWOOD COURT FRASER RISE 3336",
    "locID": "LOC000146353986",
    "tech": "FTTP",
    "upgrade": "NULL_NA",
    "gnaf_pid": "GAVIC719410499"
   }
  },
  {
   "type": "Feature",
   "geometry": {
    "type": "Point",
    "coordinates": [
     144.722419,
     -37.71182081
    ]
   },
   "properties": {
    "name": "7 GALIBIER PARADE FRASER RISE 3336",
    "locID": "LOC000139464610",
    "tech": "FTTP",
    "upgrade": "NULL_NA",
    "gnaf_pid": "GAVIC719410500"
   }
  },
  {
   "type": "Feature",
   "geometry": {
    "type": "Point",
    "coordinates": [
     144.72867105,
     -37.72017558
    ]
   },
   "properties": {
    "name": "10 MANDALAY PARADE FRASER RISE 3336",
    "locID": "LOC000139450046",
    "tech": "FTTP",
    "upgrade": "NULL_NA",
    "gnaf_pid": "GAVIC719410501"
   }
  },
  {
   "type": "Feature",
   "geometry": {
    "type": "Point",
    "coordinates": [
     144.72273334,
     -37.71713355
    ]
   },
   "properties": {
    "name": "9 VERSTEEGEN STREET FRASER RISE 3336",
    "locID": "LOC000154002567",
    "tech": "FTTP",
    "upgrade": "NULL_NA",
    "gnaf_pid": "GAVIC719410503"
   }
  },
  {
   "type": "Feature",
   "geometry": {
    "type": "Point",
    "coordinates": [
     144.72879073,
     -37.70305882
    ]
   },
   "properties": {
    "name": "39 TWAIN WAY FRASER RISE 3336",
    "locID": "LOC000156524594",
    "tech": "NULL",
    "upgrade": "NULL_NA",
    "gnaf_pid": "GAVIC719410504"
   }
  },
  {
   "type": "Feature",
   "geometry": {
    "type": "Point",
    "coordinates": [
     144.72245508,
     -37.71680843
    ]
   },
   "properties": {
    "name": "18 VERSTEEGEN STREET FRASER RISE 3336",
    "locID": "LOC000153999658",
    "tech": "FTTP",
    "upgrade": "NULL_NA",
    "gnaf_pid": "GAVIC719410507"
   }
  },
  {
   "type": "Feature",
   "geometry": {
    "type": "Point",
    "coordinates": [
     144.72422553,
     -37.70272963
    ]
   },
   "properties": {
    "name": "28 WRIGHT CIRCUIT FRASER RISE 3336",
    "locID": "LOC000156529023",
    "tech": "NULL",
    "upgrade": "NULL_NA",
    "gnaf_pid": "GAVIC719410508"
   }
  },
  {
   "type": "Feature",
   "geometry": {
    "type": "Point",
    "coordinates": [
     144.72577761,
     -37.71629926
    ]
   },
   "properties": {
    "name": "26 PINNACLE WAY FRASER RISE 3336",
    "locID": "LOC000135611468",
    "tech": "FTTP",
    "upgrade": "NULL_NA",
    "gnaf_pid": "GAVIC719410509"
   }
  },
  {
   "type": "Feature",
   "geometry": {
    "type": "Point",
    "coordinates": [
     144.72608997,
     -37.69792837
    ]
   },
   "properties": {
    "name": "3 KEYNES CIRCUIT FRASER RISE 3336",
    "locID": "LOC000156520545",
    "tech": "NULL",
    "upgrade": "NULL_NA",
    "gnaf_pid": "GAVIC719410510"
   }
  },
  {
   "type": "Feature",
   "geometry": {
    "type": "Point",
    "coordinates": [
     144.72554159,
     -37.71246724
    ]
   },
   "properties": {
    "name": "5 BRAMLEY PLACE FRASER RISE 3336",
    "locID": "LOC000134962923",
    "tech": "FTTP",
    "upgrade": "NULL_NA",
    "gnaf_pid": "GAVIC719410511"
   }
  },
  {
   "type": "Feature",
   "geometry": {
    "type": "Point",
    "coordinates": [
     144.72602731,
     -37.71995603
    ]
   },
   "properties": {
    "name": "8 CITY VISTA COURT FRASER RISE 3336",
    "locID": "LOC000138142494",
    "tech": "FTTP",
    "upgrade": "NULL_NA",
    "gnaf_pid": "GAVIC719410514"
   }
  },
  {
   "type": "Feature",
   "geometry": {
    "type": "Point",
    "coordinates": [
     144.72679648,
     -37.71135324
    ]
   },
   "properties": {
    "name": "110 CITY VISTA COURT FRASER RISE 3336",
    "locID": "LOC000152855284",
    "tech": "FTTP",
    "upgrade": "NULL_NA",
    "gnaf_pid": "GAVIC719410516"
   }
  },
  {
   "type": "Feature",
   "geometry": {
    "type": "Point",
    "coordinates": [
     144.72398572,
     -37.71952208
    ]
   },
   "properties": {
    "name": "26 RIVOLI CLOSE FRASER RISE 3336",
    "locID": "LOC000135562657",
    "tech": "FTTP",
    "upgrade": "NULL_NA",
    "gnaf_pid": "GAVIC719410517"
   }
  },
  {
   "type": "Feature",
   "geometry": {
    "type": "Point",
    "coordinates": [
     144.72472103,
     -37.70595036
    ]
   },
   "properties": {
    "name": "20 FORRESTER GROVE FRASER RISE 3336",
    "locID": "LOC000156531297",
    "tech": "NULL",
    "upgrade": "NULL_NA",
    "gnaf_pid": "GAVIC719410522"
   }
  },
  {
   "type": "Feature",
   "geometry": {
    "type": "Point",
    "coordinates": [
     144.72641115,
     -37.69861948
    ]
   },
   "properties": {
    "name": "3 NIGHTINGALE STREET FRASER RISE 3336",
    "locID": "LOC000156521084",
    "tech": "NULL",
    "upgrade": "NULL_NA",
    "gnaf_pid": "GAVIC719410523"
   }
  },
  {
   "type": "Feature",
   "geometry": {
    "type": "Point",
    "coordinates": [
     144.72964124,
     -37.70802974
    ]
   },
   "properties": {
    "name": "40 LUNAR WAY FRASER RISE 3336",
    "locID": "LOC000151307287",
    "tech": "FTTP",
    "upgrade": "NULL_NA",
    "gnaf_pid": "GAVIC719410524"
   }
  },
  {
   "type": "Feature",
   "geometry": {
    "type": "Point",
    "coordinates": [
     144.7254167,
     -37.70258996
    ]
   },
   "properties": {
    "name": "47 WRIGHT CIRCUIT FRASER RISE 3336",
    "locID": "LOC000156528995",
    "tech": "NULL",
    "upgrade": "NULL_NA",
    "gnaf_pid": "GAVIC719410525"
   }
  },
  {
   "type": "Feature",
   "geometry": {
    "type": "Point",
    "coordinates": [
     144.72799315,
     -37.70726203
    ]
   },
   "properties": {
    "name": "39 TORA CRESCENT FRASER RISE 3336",
    "locID": "LOC000175211386",
    "tech": "FTTP",
    "upgrade": "NULL_NA",
    "gnaf_pid": "GAVIC719410526"
   }
  },
  {
   "type": "Feature",
   "geometry": {
    "type": "Point",
    "coordinates": [
     144.72896361,
     -37.71118847
    ]
   },
   "properties": {
    "name": "10 ZENITH COURT FRASER RISE 3336",
    "locID": "LOC000149636760",
    "tech": "FTTP",
    "upgrade": "NULL_NA",
    "gnaf_pid": "GAVIC719410527"
   }
  },
  {
   "type": "Feature",
   "geometry": {
    "type": "Point",
    "coordinates": [
     144.72692901,
     -37.69793302
    ]
   },
   "properties": {
    "name": "47 ASPIRE BOULEVARD FRASER RISE 3336",
    "locID": "LOC000124549208",
    "tech": "NULL",
    "upgrade": "NULL_NA",
    "gnaf_pid": "GAVIC719410528"
   }
  },
  {
   "type": "Feature",
   "geometry": {
    "type": "Point",
    "coordinates": [
     144.72980978,
     -37.71909401
    ]
   },
   "properties": {
    "name": "24 GOLDSWORTHY DRIVE FRASER RISE 3336",
    "locID": "LOC000139449288",
    "tech": "FTTP",
    "upgrade": "NULL_NA",
    "gnaf_pid": "GAVIC719410541"
   }
  },
  {
   "type": "Feature",
   "geometry": {
    "type": "Point",
    "coordinates": [
     144.72801962,
     -37.70313406
    ]
   },
   "properties": {
    "name": "19 WREN PARADE FRASER RISE 3336",
    "locID": "LOC000156524556",
    "tech": "NULL",
    "upgrade": "NULL_NA",
    "gnaf_pid": "GAVIC719410542"
   }
  },
  {
   "type": "Feature",
   "geometry": {
    "type": "Point",
    "coordinates": [
     144.72285089,
     -37.71904349
    ]
   },
   "properties": {
    "name": "4 EAGLECREST AVENUE FRASER RISE 3336",
    "locID": "LOC000145382782",
    "tech": "FTTP",
    "upgrade": "NULL_NA",
    "gnaf_pid": "GAVIC719410543"
   }
  },
  {
   "type": "Feature",
   "geometry": {
    "type": "Point",
    "coordinates": [
     144.73064312,
     -37.71070417
    ]
   },
   "properties": {
    "name": "5 REDSHIFT AVENUE FRASER RISE 3336",
    "locID": "LOC000141291956",
    "tech": "FTTP",
    "upgrade": "NULL_NA",
    "gnaf_pid": "GAVIC719410544"
   }
  },
  {
   "type": "Feature",
   "geometry": {
    "type": "Point",
    "coordinates": [
     144.72857834,
     -37.71762533
    ]
   },
   "properties": {
    "name": "70 ORBIS AVENUE FRASER RISE 3336",
    "locID": "LOC000136229061",
    "tech": "FTTP",
    "upgrade": "NULL_NA",
    "gnaf_pid": "GAVIC719410545"
   }
  },
  {
   "type": "Feature",
   "geometry": {
    "type": "Point",
    "coordinates": [
     144.72352975,
     -37.71925897
    ]
   },
   "properties": {
    "name": "12 GALVESTON AVENUE FRASER RISE 3336",
    "locID": "LOC000145383021",
    "tech": "FTTP",
    "upgrade": "NULL_NA",
    "gnaf_pid": "GAVIC719410547"
   }
  },
  {
   "type": "Feature",
   "geometry": {
    "type": "Point",
    "coordinates": [
     144.7273444,
     -37.70244769
    ]
   },
   "properties": {
    "name": "13 TWAIN WAY FRASER RISE 3336",
    "locID": "LOC000156522779",
    "tech": "NULL",
    "upgrade": "NULL_NA",
    "gnaf_pid": "GAVIC719410563"
   }
  },
  {
   "type": "Feature",
   "geometry": {
    "type": "Point",
    "coordinates": [
     144.73105083,
     -37.71173021
    ]
   },
   "properties": {
    "name": "43 ZODIAC WAY FRASER RISE 3336",
    "locID": "LOC000139988492",
    "tech": "FTTP",
    "upgrade": "NULL_NA",
    "gnaf_pid": "GAVIC719410564"
   }
  },
  {
   "type": "Feature",
   "geometry": {
    "type": "Point",
    "coordinates": [
     144.72387982,
     -37.70952352
    ]
   },
   "properties": {
    "name": "92 HAWKING CRESCENT FRASER RISE 3336",
    "locID": "LOC000174465321",
    "tech": "FTTP",
    "upgrade": "NULL_NA",
    "gnaf_pid": "GAVIC719410566"
   }
  },
  {
   "type": "Feature",
   "geometry": {
    "type": "Point",
    "coordinates": [
     144.72366759,
     -37.71410376
    ]
   },
   "properties": {
    "name": "12 GORDES STREET FRASER RISE 3336",
    "locID": "LOC000156519983",
    "tech": "NULL",
    "upgrade": "NULL_NA",
    "gnaf_pid": "GAVIC719410567"
   }
  },
  {
   "type": "Feature",
   "geometry": {
    "type": "Point",
    "coordinates": [
     144.72480465,
     -37.70157176
    ]
   },
   "properties": {
    "name": "15 SOMERS STREET FRASER RISE 3336",
    "locID": "LOC000156526879",
    "tech": "NULL",
    "upgrade": "NULL_NA",
    "gnaf_pid": "GAVIC719410568"
   }
  },
  {
   "type": "Feature",
   "geometry": {
    "type": "Point",
    "coordinates": [
     144.72528186,
     -37.70182443
    ]
   },
   "properties": {
    "name": "10 WRIGHT CIRCUIT FRASER RISE 3336",
    "locID": "LOC000156526920",
    "tech": "NULL",
    "upgrade": "NULL_NA",
    "gnaf_pid": "GAVIC719410569"
   }
  },
  {
   "type": "Feature",
   "geometry": {
    "type": "Point",
    "coordinates": [
     144.72759325,
     -37.70627971
    ]
   },
   "properties": {
    "name": "48 HIGGINS STREET FRASER RISE 3336",
    "locID": "LOC000156527576",
    "tech": "NULL",
    "upgrade": "NULL_NA",
    "gnaf_pid": "GAVIC719410570"
   }
  },
  {
   "type": "Feature",
   "geometry": {
    "type": "Point",
    "coordinates": [
     144.72320426,
     -37.7171903
    ]
   },
   "properties": {
    "name": "3 VERSTEEGEN STREET FRASER RISE 3336",
    "locID": "LOC000154002598",
    "tech": "FTTP",
    "upgrade": "NULL_NA",
    "gnaf_pid": "GAVIC719410571"
   }
  },
  {
   "type": "Feature",
   "geometry": {
    "type": "Point",
    "coordinates": [
     144.72740483,
     -37.70171224
    ]
   },
   "properties": {
    "name": "9 SEDGEMAN STREET FRASER RISE 3336",
    "locID": "LOC000156524142",
    "tech": "NULL",
    "upgrade": "NULL_NA",
    "gnaf_pid": "GAVIC719410587"
   }
  },
  {
   "type": "Feature",
   "geometry": {
    "type": "Point",
    "coordinates": [
     144.72771619,
     -37.69968701
    ]
   },
   "properties": {
    "name": "99 ROWLING STREET FRASER RISE 3336",
    "locID": "LOC000156520149",
    "tech": "NULL",
    "upgrade": "NULL_NA",
    "gnaf_pid": "GAVIC719410588"
   }
  },
  {
   "type": "Feature",
   "geometry": {
    "type": "Point",
    "coordinates": [
     144.72306644,
     -37.71363387
    ]
   },
   "properties": {
    "name": "10 SARENNE WAY FRASER RISE 3336",
    "locID": "LOC000156523432",
    "tech": "NULL",
    "upgrade": "NULL_NA",
    "gnaf_pid": "GAVIC719410589"
   }
  },
  {
   "type": "Feature",
   "geometry": {
    "type": "Point",
    "coordinates": [
     144.72706914,
     -37.71930438
    ]
   },
   "properties": {
    "name": "8 ARIA BOULEVARD FRASER RISE 3336",
    "locID": "LOC000139917015",
    "tech": "FTTP",
    "upgrade": "NULL_NA",
    "gnaf_pid": "GAVIC719410590"
   }
  },
  {
   "type": "Feature",
   "geometry": {
    "type": "Point",
    "coordinates": [
     144.72600572,
     -37.70595605
    ]
   },
   "properties": {
    "name": "13 NEWTON WAY FRASER RISE 3336",
    "locID": "LOC000156527433",
    "tech": "NULL",
    "upgrade": "NULL_NA",
    "gnaf_pid": "GAVIC719410591"
   }
  },
  {
   "type": "Feature",
   "geometry": {
    "type": "Point",
    "coordinates": [
     144.7256218,
     -37.71711707
    ]
   },
   "properties": {
    "name": "14 PINNACLE WAY FRASER RISE 3336",
    "locID": "LOC000135611667",
    "tech": "FTTP",
    "upgrade": "NULL_NA",
    "gnaf_pid": "GAVIC719410606"
   }
  },
  {
   "type": "Feature",
   "geometry": {
    "type": "Point",
    "coordinates": [
     144.72841787,
     -37.71863696
    ]
   },
   "properties": {
    "name": "15 CARO WAY FRASER RISE 3336",
    "locID": "LOC000139449668",
    "tech": "FTTP",
    "upgrade": "NULL_NA",
    "gnaf_pid": "GAVIC719410607"
   }
  },
  {
   "type": "Feature",
   "geometry": {
    "type": "Point",
    "coordinates": [
     144.73135484,
     -37.71080916
    ]
   },
   "properties": {
    "name": "15 EQUINOX WAY FRASER RISE 3336",
    "locID": "LOC000141291790",
    "tech": "FTTP",
    "upgrade": "NULL_NA",
    "gnaf_pid": "GAVIC719410608"
   }
  },
  {
   "type": "Feature",
   "geometry": {
    "type": "Point",
    "coordinates": [
     144.72893788,
     -37.70786258
    ]
   },
   "properties": {
    "name": "27 VOYAGER DRIVE FRASER RISE 3336",
    "locID": "LOC000175209923",
    "tech": "FTTP",
    "upgrade": "NULL_NA",
    "gnaf_pid": "GAVIC719410609"
   }
  },
  {
   "type": "Feature",
   "geometry": {
    "type": "Point",
    "coordinates": [
     144.73104642,
     -37.70803691
    ]
   },
   "properties": {
    "name": "12 AXIS AVENUE FRASER RISE 3336",
    "locID": "LOC000146029024",
    "tech": "FTTP",
    "upgrade": "NULL_NA",
    "gnaf_pid": "GAVIC719410615"
   }
  },
  {
   "type": "Feature",
   "geometry": {
    "type": "Point",
    "coordinates": [
     144.72503402,
     -37.7056591
    ]
   },
   "properties": {
    "name": "13 FORRESTER GROVE FRASER RISE 3336",
    "locID": "LOC000156528768",
    "tech": "NULL",
    "upgrade": "NULL_NA",
    "gnaf_pid": "GAVIC719410616"
   }
  },
  {
   "type": "Feature",
   "geometry": {
    "type": "Point",
    "coordinates": [
     144.73059369,
     -37.72019267
    ]
   },
   "properties": {
    "name": "9 MIRO WAY FRASER RISE 3336",
    "locID": "LOC000136229267",
    "tech": "FTTP",
    "upgrade": "NULL_NA",
    "gnaf_pid": "GAVIC719410617"
   }
  },
  {
   "type": "Feature",
   "geometry": {
    "type": "Point",
    "coordinates": [
     144.72563794,
     -37.70779487
    ]
   },
   "properties": {
    "name": "14 CANTOR STREET FRASER RISE 3336",
    "locID": "LOC000174614231",
    "tech": "FTTP",
    "upgrade": "NULL_NA",
    "gnaf_pid": "GAVIC719410618"
   }
  },
  {
   "type": "Feature",
   "geometry": {
    "type": "Point",
    "coordinates": [
     144.72695043,
     -37.70205632
    ]
   },
   "properties": {
    "name": "6 SEDGEMAN STREET FRASER RISE 3336",
    "locID": "LOC000156524296",
    "tech": "NULL",
    "upgrade": "NULL_NA",
    "gnaf_pid": "GAVIC719410619"
   }
  },
  {
   "type": "Feature",
   "geometry": {
    "type": "Point",
    "coordinates": [
     144.73019919,
     -37.70671502
    ]
   },
   "properties": {
    "name": "28 TORA CRESCENT FRASER RISE 3336",
    "locID": "LOC000156530980",
    "tech": "FTTP",
    "upgrade": "NULL_NA",
    "gnaf_pid": "GAVIC719410620"
   }
  },
  {
   "type": "Feature",
   "geometry": {
    "type": "Point",
    "coordinates": [
     144.7273911,
     -37.70630318
    ]
   },
   "properties": {
    "name": "50 HIGGINS STREET FRASER RISE 3336",
    "locID": "LOC000156527595",
    "tech": "NULL",
    "upgrade": "NULL_NA",
    "gnaf_pid": "GAVIC719410621"
   }
  },
  {
   "type": "Feature",
   "geometry": {
    "type": "Point",
    "coordinates": [
     144.72495268,
     -37.70687724
    ]
   },
   "properties": {
    "name": "23 WAVELL PARADE FRASER RISE 3336",
    "locID": "LOC000156527860",
    "tech": "NULL",
    "upgrade": "NULL_NA",
    "gnaf_pid": "GAVIC719410624"
   }
  },
  {
   "type": "Feature",
   "geometry": {
    "type": "Point",
    "coordinates": [
     144.72717429,
     -37.7196724
    ]
   },
   "properties": {
    "name": "36 MANDALAY PARADE FRASER RISE 3336",
    "locID": "LOC000141284134",
    "tech": "FTTP",
    "upgrade": "NULL_NA",
    "gnaf_pid": "GAVIC719410625"
   }
  },
  {
   "type": "Feature",
   "geometry": {
    "type": "Point",
    "coordinates": [
     144.72382693,
     -37.71530689
    ]
   },
   "properties": {
    "name": "28 ROYALE DRIVE FRASER RISE 3336",
    "locID": "LOC000166338961",
    "tech": "FTTP",
    "upgrade": "NULL_NA",
    "gnaf_pid": "GAVIC719410626"
   }
  },
  {
   "type": "Feature",
   "geometry": {
    "type": "Point",
    "coordinates": [
     144.72188541,
     -37.71477804
    ]
   },
   "properties": {
    "name": "45 GALIBIER PARADE FRASER RISE 3336",
    "locID": "LOC000156523789",
    "tech": "NULL",
    "upgrade": "NULL_NA",
    "gnaf_pid": "GAVIC719410627"
   }
  },
  {
   "type": "Feature",
   "geometry": {
    "type": "Point",
    "coordinates": [
     144.72535406,
     -37.7065393
    ]
   },
   "properties": {
    "name": "20 WAVELL PARADE FRASER RISE 3336",
    "locID": "LOC000156527962",
    "tech": "NULL",
    "upgrade": "NULL_NA",
    "gnaf_pid": "GAVIC719412430"
   }
  },
  {
   "type": "Feature",
   "geometry": {
    "type": "Point",
    "coordinates": [
     144.7210418,
     -37.71945281
    ]
   },
   "properties": {
    "name": "4 AUBURN DRIVE FRASER RISE 3336",
    "locID": "LOC000151916444",
    "tech": "FTTP",
    "upgrade": "NULL_NA",
    "gnaf_pid": "GAVIC719412431"
   }
  },
  {
   "type": "Feature",
   "geometry": {
    "type": "Point",
    "coordinates": [
     144.72446714,
     -37.70142365
    ]
   },
   "properties": {
    "name": "12 SOMERS STREET FRASER RISE 3336",
    "locID": "LOC000156527255",
    "tech": "NULL",
    "upgrade": "NULL_NA",
    "gnaf_pid": "GAVIC719412432"
   }
  },
  {
   "type": "Feature",
   "geometry": {
    "type": "Point",
    "coordinates": [
     144.72594386,
     -37.69470202
    ]
   },
   "properties": {
    "name": "3 ADAMS DRIVE FRASER RISE 3336",
    "locID": "LOC000124512024",
    "tech": "NULL",
    "upgrade": "NULL_NA",
    "gnaf_pid": "GAVIC719412433"
   }
  },
  {
   "type": "Feature",
   "geometry": {
    "type": "Point",
    "coordinates": [
     144.72826665,
     -37.7103235
    ]
   },
   "properties": {
    "name": "21 SOLSTICE DRIVE FRASER RISE 3336",
    "locID": "LOC000149636344",
    "tech": "FTTP",
    "upgrade": "NULL_NA",
    "gnaf_pid": "GAVIC719412434"
   }
  },
  {
   "type": "Feature",
   "geometry": {
    "type": "Point",
    "coordinates": [
     144.72722139,
     -37.70927137
    ]
   },
   "properties": {
    "name": "134 CITY VISTA COURT FRASER RISE 3336",
    "locID": "LOC000173402469",
    "tech": "FTTP",
    "upgrade": "NULL_NA",
    "gnaf_pid": "GAVIC719412435"
   }
  },
  {
   "type": "Feature",
   "geometry": {
    "type": "Point",
    "coordinates": [
     144.73227902,
     -37.70865628
    ]
   },
   "properties": {
    "name": "36 INFINITY DRIVE FRASER RISE 3336",
    "locID": "LOC000146028846",
    "tech": "FTTP",
    "upgrade": "NULL_NA",
    "gnaf_pid": "GAVIC719412436"
   }
  },
  {
   "type": "Feature",
   "geometry": {
    "type": "Point",
    "coordinates": [
     144.72988179,
     -37.70939846
    ]
   },
   "properties": {
    "name": "29 LUNAR WAY FRASER RISE 3336",
    "locID": "LOC000151307729",
    "tech": "FTTP",
    "upgrade": "NULL_NA",
    "gnaf_pid": "GAVIC719412437"
   }
  },
  {
   "type": "Feature",
   "geometry": {
    "type": "Point",
    "coordinates": [
     144.72691437,
     -37.70326239
    ]
   },
   "properties": {
    "name": "7 WREN PARADE FRASER RISE 3336",
    "locID": "LOC000156527342",
    "tech": "NULL",
    "upgrade": "NULL_NA",
    "gnaf_pid": "GAVIC719412512"
   }
  },
  {
   "type": "Feature",
   "geometry": {
    "type": "Point",
    "coordinates": [
     144.69369322,
     -37.71041627
    ]
   },
   "properties": {
    "name": "1259-1265 PLUMPTON ROAD FRASER RISE 3336",
    "locID": "LOC100078651884",
    "tech": "WIRELESS",
    "upgrade": "NULL_NA",
    "gnaf_pid": "GAVIC719412513",
    "tech_change_status": "Not Planned",
    "program_type": "Fixed Wireless and Satellite Upgrade Program",
    "target_eligibility_quarter": "Dec 2024"
   }
  },
  {
   "type": "Feature",
   "geometry": {
    "type": "Point",
    "coordinates": [
     144.72875947,
     -37.70506502
    ]
   },
   "properties": {
    "name": "16 HIGGINS STREET FRASER RISE 3336",
    "locID": "LOC000156530277",
    "tech": "NULL",
    "upgrade": "NULL_NA",
    "gnaf_pid": "GAVIC719412514"
   }
  },
  {
   "type": "Feature",
   "geometry": {
    "type": "Point",
    "coordinates": [
     144.72921285,
     -37.7201223
    ]
   },
   "properties": {
    "name": "11 GOLDSWORTHY DRIVE FRASER RISE 3336",
    "locID": "LOC000139449392",
    "tech": "FTTP",
    "upgrade": "NULL_NA",
    "gnaf_pid": "GAVIC719412515"
   }
  },
  {
   "type": "Feature",
   "geometry": {
    "type": "Point",
    "coordinates": [
     144.7271369,
     -37.70203467
    ]
   },
   "properties": {
    "name": "8 SEDGEMAN STREET FRASER RISE 3336",
    "locID": "LOC000156524283",
    "tech": "NULL",
    "upgrade": "NULL_NA",
    "gnaf_pid": "GAVIC719412524"
   }
  },
  {
   "type": "Feature",
   "geometry": {
    "type": "Point",
    "coordinates": [
     144.72864298,
     -37.70225736
    ]
   },
   "properties": {
    "name": "23 SEDGEMAN STREET FRASER RISE 3336",
    "locID": "LOC000156522705",
    "tech": "NULL",
    "upgrade": "NULL_NA",
    "gnaf_pid": "GAVIC719412525"
   }
  },
  {
   "type": "Feature",
   "geometry": {
    "type": "Point",
    "coordinates": [
     144.73079387,
     -37.70991724
    ]
   },
   "properties": {
    "name": "11 ECLIPSE AVENUE FRASER RISE 3336",
    "locID": "LOC000147810013",
    "tech": "FTTP",
    "upgrade": "NULL_NA",
    "gnaf_pid": "GAVIC719412526"
   }
  },
  {
   "type": "Feature",
   "geometry": {
    "type": "Point",
    "coordinates": [
     144.72399569,
     -37.71069994
    ]
   },
   "properties": {
    "name": "7 JARDINE DRIVE FRASER RISE 3336",
    "locID": "LOC000134961195",
    "tech": "FTTP",
    "upgrade": "NULL_NA",
    "gnaf_pid": "GAVIC719412527"
   }
  },
  {
   "type": "Feature",
   "geometry": {
    "type": "Point",
    "coordinates": [
     144.72450638,
     -37.71679731
    ]
   },
   "properties": {
    "name": "19 PHOENIX GROVE FRASER RISE 3336",
    "locID": "LOC000137384642",
    "tech": "FTTP",
    "upgrade": "NULL_NA",
    "gnaf_pid": "GAVIC719412530"
   }
  },
  {
   "type": "Feature",
   "geometry": {
    "type": "Point",
    "coordinates": [
     144.73174217,
     -37.71199685
    ]
   },
   "properties": {
    "name": "9 SPECTRUM DRIVE FRASER RISE 3336",
    "locID": "LOC000139988428",
    "tech": "FTTP",
    "upgrade": "NULL_NA",
    "gnaf_pid": "GAVIC719412531"
   }
  },
  {
   "type": "Feature",
   "geometry": {
    "type": "Point",
    "coordinates": [
     144.72436508,
     -37.71126461
    ]
   },
   "properties": {
    "name": "4 JARDINE DRIVE FRASER RISE 3336",
    "locID": "LOC000134961225",
    "tech": "FTTP",
    "upgrade": "NULL_NA",
    "gnaf_pid": "GAVIC719412532"
   }
  },
  {
   "type": "Feature",
   "geometry": {
    "type": "Point",
    "coordinates": [
     144.72762027,
     -37.70701396
    ]
   },
   "properties": {
    "name": "62 TORA CRESCENT FRASER RISE 3336",
    "locID": "LOC000175211956",
    "tech": "FTTP",
    "upgrade": "NULL_NA",
    "gnaf_pid": "GAVIC719412533"
   }
  },
  {
   "type": "Feature",
   "geometry": {
    "type": "Point",
    "coordinates": [
     144.7290453,
     -37.70684867
    ]
   },
   "properties": {
    "name": "44 TORA CRESCENT FRASER RISE 3336",
    "locID": "LOC000175211465",
    "tech": "FTTP",
    "upgrade": "NULL_NA",
    "gnaf_pid": "GAVIC719412534"
   }
  },
  {
   "type": "Feature",
   "geometry": {
    "type": "Point",
    "coordinates": [
     144.72811083,
     -37.70498098
    ]
   },
   "properties": {
    "name": "16 RUTHERFORD AVENUE FRASER RISE 3336",
    "locID": "LOC000156530188",
    "tech": "NULL",
    "upgrade": "NULL_NA",
    "gnaf_pid": "GAVIC719412535"
   }
  },
  {
   "type": "Feature",
   "geometry": {
    "type": "Point",
    "coordinates": [
     144.72465194,
     -37.71085859
    ]
   },
   "properties": {
    "name": "3 LOCKWOOD COURT FRASER RISE 3336",
    "locID": "LOC000174136073",
    "tech": "FTTP",
    "upgrade": "NULL_NA",
    "gnaf_pid": "GAVIC719412536"
   }
  },
  {
   "type": "Feature",
   "geometry": {
    "type": "Point",
    "coordinates": [
     144.72578783,
     -37.7185665
    ]
   },
   "properties": {
    "name": "25 CITY VISTA COURT FRASER RISE 3336",
    "locID": "LOC000135563605",
    "tech": "FTTP",
    "upgrade": "NULL_NA",
    "gnaf_pid": "GAVIC719412540"
   }
  },
  {
   "type": "Feature",
   "geometry": {
    "type": "Point",
    "coordinates": [
     144.72488867,
     -37.69891755
    ]
   },
   "properties": {
    "name": "29 KEYNES CIRCUIT FRASER RISE 3336",
    "locID": "LOC000156520718",
    "tech": "NULL",
    "upgrade": "NULL_NA",
    "gnaf_pid": "GAVIC719412541"
   }
  },
  {
   "type": "Feature",
   "geometry": {
    "type": "Point",
    "coordinates": [
     144.72456245,
     -37.71077719
    ]
   },
   "properties": {
    "name": "UNIT 2, 1 LOCKWOOD COURT FRASER RISE 3336",
    "locID": "LOC000146353986",
    "tech": "FTTP",
    "upgrade": "NULL_NA",
    "gnaf_pid": "GAVIC719412543"
   }
  },
  {
   "type": "Feature",
   "geometry": {
    "type": "Point",
    "coordinates": [
     144.72498206,
     -37.71544598
    ]
   },
   "properties": {
    "name": "16 ROYALE DRIVE FRASER RISE 3336",
    "locID": "LOC000137386382",
    "tech": "FTTP",
    "upgrade": "NULL_NA",
    "gnaf_pid": "GAVIC719412544"
   }
  },
  {
   "type": "Feature",
   "geometry": {
    "type": "Point",
    "coordinates": [
     144.72592909,
     -37.69794709
    ]
   },
   "properties": {
    "name": "5 KEYNES CIRCUIT FRASER RISE 3336",
    "locID": "LOC000156519949",
    "tech": "NULL",
    "upgrade": "NULL_NA",
    "gnaf_pid": "GAVIC719412545"
   }
  },
  {
   "type": "Feature",
   "geometry": {
    "type": "Point",
    "coordinates": [
     144.72169902,
     -37.71919614
    ]
   },
   "properties": {
    "name": "17 EAGLECREST AVENUE FRASER RISE 3336",
    "locID": "LOC000151916376",
    "tech": "FTTP",
    "upgrade": "NULL_NA",
    "gnaf_pid": "GAVIC719412547"
   }
  },
  {
   "type": "Feature",
   "geometry": {
    "type": "Point",
    "coordinates": [
     144.72612281,
     -37.70803524
    ]
   },
   "properties": {
    "name": "52 LEGRANGE CRESCENT FRASER RISE 3336",
    "locID": "LOC000174090758",
    "tech": "FTTP",
    "upgrade": "NULL_NA",
    "gnaf_pid": "GAVIC719412548"
   }
  },
  {
   "type": "Feature",
   "geometry": {
    "type": "Point",
    "coordinates": [
     144.73167194,
     -37.71980779
    ]
   },
   "properties": {
    "name": "22 ORBIS AVENUE FRASER RISE 3336",
    "locID": "LOC000136228227",
    "tech": "FTTP",
    "upgrade": "NULL_NA",
    "gnaf_pid": "GAVIC719412549"
   }
  },
  {
   "type": "Feature",
   "geometry": {
    "type": "Point",
    "coordinates": [
     144.73172091,
     -37.71942024
    ]
   },
   "properties": {
    "name": "28 ORBIS AVENUE FRASER RISE 3336",
    "locID": "LOC000136228682",
    "tech": "FTTP",
    "upgrade": "NULL_NA",
    "gnaf_pid": "GAVIC719412551"
   }
  },
  {
   "type": "Feature",
   "geometry": {
    "type": "Point",
    "coordinates": [
     144.72964968,
     -37.71983107
    ]
   },
   "properties": {
    "name": "20 MIRO WAY FRASER RISE 3336",
    "locID": "LOC000139449235",
    "tech": "FTTP",
    "upgrade": "NULL_NA",
    "gnaf_pid": "GAVIC719412552"
   }
  },
  {
   "type": "Feature",
   "geometry": {
    "type": "Point",
    "coordinates": [
     144.72579425,
     -37.70677956
    ]
   },
   "properties": {
    "name": "13 WAVELL PARADE FRASER RISE 3336",
    "locID": "LOC000156527839",
    "tech": "NULL",
    "upgrade": "NULL_NA",
    "gnaf_pid": "GAVIC719412553"
   }
  },
  {
   "type": "Feature",
   "geometry": {
    "type": "Point",
    "coordinates": [
     144.72994271,
     -37.71316114
    ]
   },
   "properties": {
    "name": "77 ENTERPRISE CIRCUIT FRASER RISE 3336",
    "locID": "LOC000143996954",
    "tech": "FTTP",
    "upgrade": "NULL_NA",
    "gnaf_pid": "GAVIC719412554"
   }
  },
  {
   "type": "Feature",
   "geometry": {
    "type": "Point",
    "coordinates": [
     144.72548177,
     -37.69960188
    ]
   },
   "properties": {
    "name": "18 GOULDING DRIVE FRASER RISE 3336",
    "locID": "LOC000156520385",
    "tech": "NULL",
    "upgrade": "NULL_NA",
    "gnaf_pid": "GAVIC719412555"
   }
  },
  {
   "type": "Feature",
   "geometry": {
    "type": "Point",
    "coordinates": [
     144.72973264,
     -37.71944126
    ]
   },
   "properties": {
    "name": "18 GOLDSWORTHY DRIVE FRASER RISE 3336",
    "locID": "LOC000139449257",
    "tech": "FTTP",
    "upgrade": "NULL_NA",
    "gnaf_pid": "GAVIC719412556"
   }
  },
  {
   "type": "Feature",
   "geometry": {
    "type": "Point",
    "coordinates": [
     144.72584961,
     -37.71348254
    ]
   },
   "properties": {
    "name": "8 ANNECY BOULEVARD FRASER RISE 3336",
    "locID": "LOC000156523095",
    "tech": "NULL",
    "upgrade": "NULL_NA",
    "gnaf_pid": "GAVIC719412557"
   }
  },
  {
   "type": "Feature",
   "geometry": {
    "type": "Point",
    "coordinates": [
     144.73156773,
     -37.70870549
    ]
   },
   "properties": {
    "name": "4 LUNAR WAY FRASER RISE 3336",
    "locID": "LOC000146029167",
    "tech": "FTTP",
    "upgrade": "NULL_NA",
    "gnaf_pid": "GAVIC719412559"
   }
  },
  {
   "type": "Feature",
   "geometry": {
    "type": "Point",
    "coordinates": [
     144.72768319,
     -37.70240835
    ]
   },
   "properties": {
    "name": "19 TWAIN WAY FRASER RISE 3336",
    "locID": "LOC000156522733",
    "tech": "NULL",
    "upgrade": "NULL_NA",
    "gnaf_pid": "GAVIC719412560"
   }
  },
  {
   "type": "Feature",
   "geometry": {
    "type": "Point",
    "coordinates": [
     144.72610868,
     -37.70038068
    ]
   },
   "properties": {
    "name": "5 BOYD LANE FRASER RISE 3336",
    "locID": "LOC000156520112",
    "tech": "NULL",
    "upgrade": "NULL_NA",
    "gnaf_pid": "GAVIC719412561"
   }
  },
  {
   "type": "Feature",
   "geometry": {
    "type": "Point",
    "coordinates": [
     144.72603523,
     -37.71726797
    ]
   },
   "properties": {
    "name": "41 CITY VISTA COURT FRASER RISE 3336",
    "locID": "LOC000135564354",
    "tech": "FTTP",
    "upgrade": "NULL_NA",
    "gnaf_pid": "GAVIC719412562"
   }
  },
  {
   "type": "Feature",
   "geometry": {
    "type": "Point",
    "coordinates": [
     144.72955252,
     -37.72025208
    ]
   },
   "properties": {
    "name": "10 GOLDSWORTHY DRIVE FRASER RISE 3336",
    "locID": "LOC000139449203",
    "tech": "FTTP",
    "upgrade": "NULL_NA",
    "gnaf_pid": "GAVIC719412563"
   }
  },
  {
   "type": "Feature",
   "geometry": {
    "type": "Point",
    "coordinates": [
     144.72775385,
     -37.71283112
    ]
   },
   "properties": {
    "name": "127 ENTERPRISE CIRCUIT FRASER RISE 3336",
    "locID": "LOC000145702558",
    "tech": "FTTP",
    "upgrade": "NULL_NA",
    "gnaf_pid": "GAVIC719412564"
   }
  },
  {
   "type": "Feature",
   "geometry": {
    "type": "Point",
    "coordinates": [
     144.72980942,
     -37.71358602
    ]
   },
   "properties": {
    "name": "39 ENTERPRISE CIRCUIT FRASER RISE 3336",
    "locID": "LOC000143996931",
    "tech": "FTTP",
    "upgrade": "NULL_NA",
    "gnaf_pid": "GAVIC719412565"
   }
  },
  {
   "type": "Feature",
   "geometry": {
    "type": "Point",
    "coordinates": [
     144.7270455,
     -37.7048133
    ]
   },
   "properties": {
    "name": "3 RUTHERFORD AVENUE FRASER RISE 3336",
    "locID": "LOC000156530126",
    "tech": "NULL",
    "upgrade": "NULL_NA",
    "gnaf_pid": "GAVIC719412566"
   }
  },
  {
   "type": "Feature",
   "geometry": {
    "type": "Point",
    "coordinates": [
     144.72923406,
     -37.71195131
    ]
   },
   "properties": {
    "name": "2A KIRKWOOD AVENUE FRASER RISE 3336",
    "locID": "LOC000140002741",
    "tech": "FTTP",
    "upgrade": "NULL_NA",
    "gnaf_pid": "GAVIC719412567"
   }
  },
  {
   "type": "Feature",
   "geometry": {
    "type": "Point",
    "coordinates": [
     144.72637958,
     -37.71546048
    ]
   },
   "properties": {
    "name": "71 CITY VISTA COURT FRASER RISE 3336",
    "locID": "LOC000137082454",
    "tech": "FTTP",
    "upgrade": "NULL_NA",
    "gnaf_pid": "GAVIC719412568"
   }
  },
  {
   "type": "Feature",
   "geometry": {
    "type": "Point",
    "coordinates": [
     144.72433031,
     -37.71853098
    ]
   },
   "properties": {
    "name": "10 RIVOLI CLOSE FRASER RISE 3336",
    "locID": "LOC000124495300",
    "tech": "FTTP",
    "upgrade": "NULL_NA",
    "gnaf_pid": "GAVIC719412569"
   }
  },
  {
   "type": "Feature",
   "geometry": {
    "type": "Point",
    "coordinates": [
     144.72462213,
     -37.71083147
    ]
   },
   "properties": {
    "name": "UNIT 1, 3 LOCKWOOD COURT FRASER RISE 3336",
    "locID": "LOC000174136073",
    "tech": "FTTP",
    "upgrade": "NULL_NA",
    "gnaf_pid": "GAVIC719412571"
   }
  },
  {
   "type": "Feature",
   "geometry": {
    "type": "Point",
    "coordinates": [
     144.72800754,
     -37.71785821
    ]
   },
   "properties": {
    "name": "83 ORBIS AVENUE FRASER RISE 3336",
    "locID": "LOC000139886983",
    "tech": "FTTP",
    "upgrade": "NULL_NA",
    "gnaf_pid": "GAVIC719412576"
   }
  },
  {
   "type": "Feature",
   "geometry": {
    "type": "Point",
    "coordinates": [
     144.72804759,
     -37.70836652
    ]
   },
   "properties": {
    "name": "18 PULSAR WAY FRASER RISE 3336",
    "locID": "LOC000173402411",
    "tech": "FTTP",
    "upgrade": "NULL_NA",
    "gnaf_pid": "GAVIC719412577"
   }
  },
  {
   "type": "Feature",
   "geometry": {
    "type": "Point",
    "coordinates": [
     144.73126666,
     -37.70907371
    ]
   },
   "properties": {
    "name": "9 LUNAR WAY FRASER RISE 3336",
    "locID": "LOC000146029198",
    "tech": "FTTP",
    "upgrade": "NULL_NA",
    "gnaf_pid": "GAVIC719412578"
   }
  },
  {
   "type": "Feature",
   "geometry": {
    "type": "Point",
    "coordinates": [
     144.72755878,
     -37.70271416
    ]
   },
   "properties": {
    "name": "14 TWAIN WAY FRASER RISE 3336",
    "locID": "LOC000156524518",
    "tech": "NULL",
    "upgrade": "NULL_NA",
    "gnaf_pid": "GAVIC719412579"
   }
  },
  {
   "type": "Feature",
   "geometry": {
    "type": "Point",
    "coordinates": [
     144.73152518,
     -37.71275239
    ]
   },
   "properties": {
    "name": "19 ZODIAC WAY FRASER RISE 3336",
    "locID": "LOC000139988542",
    "tech": "FTTP",
    "upgrade": "NULL_NA",
    "gnaf_pid": "GAVIC719412580"
   }
  },
  {
   "type": "Feature",
   "geometry": {
    "type": "Point",
    "coordinates": [
     144.72246562,
     -37.7197324
    ]
   },
   "properties": {
    "name": "40 LUXOR DRIVE FRASER RISE 3336",
    "locID": "LOC000145382949",
    "tech": "FTTP",
    "upgrade": "NULL_NA",
    "gnaf_pid": "GAVIC719412581"
   }
  },
  {
   "type": "Feature",
   "geometry": {
    "type": "Point",
    "coordinates": [
     144.72390699,
     -37.71229144
    ]
   },
   "properties": {
    "name": "16 SPRINGLANDS CRESCENT FRASER RISE 3336",
    "locID": "LOC000134962780",
    "tech": "FTTP",
    "upgrade": "NULL_NA",
    "gnaf_pid": "GAVIC719412582"
   }
  },
  {
   "type": "Feature",
   "geometry": {
    "type": "Point",
    "coordinates": [
     144.73027783,
     -37.71274907
    ]
   },
   "properties": {
    "name": "80 ENTERPRISE CIRCUIT FRASER RISE 3336",
    "locID": "LOC000181989620",
    "tech": "FTTP",
    "upgrade": "NULL_NA",
    "gnaf_pid": "GAVIC719412583"
   }
  },
  {
   "type": "Feature",
   "geometry": {
    "type": "Point",
    "coordinates": [
     144.73188812,
     -37.71196268
    ]
   },
   "properties": {
    "name": "11 SPECTRUM DRIVE FRASER RISE 3336",
    "locID": "LOC000139988437",
    "tech": "FTTP",
    "upgrade": "NULL_NA",
    "gnaf_pid": "GAVIC719412584"
   }
  },
  {
   "type": "Feature",
   "geometry": {
    "type": "Point",
    "coordinates": [
     144.7299327,
     -37.71843141
    ]
   },
   "properties": {
    "name": "36 GOLDSWORTHY DRIVE FRASER RISE 3336",
    "locID": "LOC000139449804",
    "tech": "FTTP",
    "upgrade": "NULL_NA",
    "gnaf_pid": "GAVIC719412585"
   }
  },
  {
   "type": "Feature",
   "geometry": {
    "type": "Point",
    "coordinates": [
     144.72856837,
     -37.70900289
    ]
   },
   "properties": {
    "name": "12 TRIDENT CRESCENT FRASER RISE 3336",
    "locID": "LOC000151307273",
    "tech": "FTTP",
    "upgrade": "NULL_NA",
    "gnaf_pid": "GAVIC719412587"
   }
  },
  {
   "type": "Feature",
   "geometry": {
    "type": "Point",
    "coordinates": [
     144.72558591,
     -37.71962631
    ]
   },
   "properties": {
    "name": "9 CITY VISTA COURT FRASER RISE 3336",
    "locID": "LOC000135563499",
    "tech": "FTTP",
    "upgrade": "NULL_NA",
    "gnaf_pid": "GAVIC719412588"
   }
  },
  {
   "type": "Feature",
   "geometry": {
    "type": "Point",
    "coordinates": [
     144.72421813,
     -37.71568134
    ]
   },
   "properties": {
    "name": "72 GALVESTON AVENUE FRASER RISE 3336",
    "locID": "LOC000166339117",
    "tech": "FTTP",
    "upgrade": "NULL_NA",
    "gnaf_pid": "GAVIC719412589"
   }
  },
  {
   "type": "Feature",
   "geometry": {
    "type": "Point",
    "coordinates": [
     144.72638148,
     -37.70878289
    ]
   },
   "properties": {
    "name": "85 LEGRANGE CRESCENT FRASER RISE 3336",
    "locID": "LOC000174091317",
    "tech": "FTTP",
    "upgrade": "NULL_NA",
    "gnaf_pid": "GAVIC719412590"
   }
  },
  {
   "type": "Feature",
   "geometry": {
    "type": "Point",
    "coordinates": [
     144.72597917,
     -37.70504252
    ]
   },
   "properties": {
    "name": "3 WILDE STREET FRASER RISE 3336",
    "locID": "LOC000156529522",
    "tech": "NULL",
    "upgrade": "NULL_NA",
    "gnaf_pid": "GAVIC719412594"
   }
  },
  {
   "type": "Feature",
   "geometry": {
    "type": "Point",
    "coordinates": [
     144.69408999,
     -37.70802739
    ]
   },
   "properties": {
    "name": "1251 PLUMPTON ROAD FRASER RISE 3336",
    "locID": "LOC100072037569",
    "tech": "WIRELESS",
    "upgrade": "NULL_NA",
    "gnaf_pid": "GAVIC719412595",
    "tech_change_status": "Not Planned",
    "program_type": "Fixed Wireless and Satellite Upgrade Program",
    "target_eligibility_quarter": "Dec 2024"
   }
  },
  {
   "type": "Feature",
   "geometry": {
    "type": "Point",
    "coordinates": [
     144.72741353,
     -37.69558803
    ]
   },
   "properties": {
    "name": "27 ROWLING STREET FRASER RISE 3336",
    "locID": "LOC000124528733",
    "tech": "NULL",
    "upgrade": "NULL_NA",
    "gnaf_pid": "GAVIC719412596"
   }
  },
  {
   "type": "Feature",
   "geometry": {
    "type": "Point",
    "coordinates": [
     144.72338838,
     -37.71248477
    ]
   },
   "properties": {
    "name": "19 SPRINGLANDS CRESCENT FRASER RISE 3336",
    "locID": "LOC000139464578",
    "tech": "FTTP",
    "upgrade": "NULL_NA",
    "gnaf_pid": "GAVIC719412597"
   }
  },
  {
   "type": "Feature",
   "geometry": {
    "type": "Point",
    "coordinates": [
     144.72446142,
     -37.71871076
    ]
   },
   "properties": {
    "name": "8 RIVOLI CLOSE FRASER RISE 3336",
    "locID": "LOC000124507774",
    "tech": "FTTP",
    "upgrade": "NULL_NA",
    "gnaf_pid": "GAVIC719412598"
   }
  },
  {
   "type": "Feature",
   "geometry": {
    "type": "Point",
    "coordinates": [
     144.73186774,
     -37.71825812
    ]
   },
   "properties": {
    "name": "46 ORBIS AVENUE FRASER RISE 3336",
    "locID": "LOC000136228774",
    "tech": "FTTP",
    "upgrade": "NULL_NA",
    "gnaf_pid": "GAVIC719412599"
   }
  },
  {
   "type": "Feature",
   "geometry": {
    "type": "Point",
    "coordinates": [
     144.72268965,
     -37.71032092
    ]
   },
   "properties": {
    "name": "24 PORTOFINO CRESCENT FRASER RISE 3336",
    "locID": "LOC000142669317",
    "tech": "FTTP",
    "upgrade": "NULL_NA",
    "gnaf_pid": "GAVIC719412600"
   }
  },
  {
   "type": "Feature",
   "geometry": {
    "type": "Point",
    "coordinates": [
     144.72780428,
     -37.70922635
    ]
   },
   "properties": {
    "name": "13 TRIDENT CRESCENT FRASER RISE 3336",
    "locID": "LOC000173402550",
    "tech": "FTTP",
    "upgrade": "NULL_NA",
    "gnaf_pid": "GAVIC719412601"
   }
  },
  {
   "type": "Feature",
   "geometry": {
    "type": "Point",
    "coordinates": [
     144.72507113,
     -37.71804782
    ]
   },
   "properties": {
    "name": "8 CONCORDE AVENUE FRASER RISE 3336",
    "locID": "LOC000135564279",
    "tech": "FTTP",
    "upgrade": "NULL_NA",
    "gnaf_pid": "GAVIC719412602"
   }
  },
  {
   "type": "Feature",
   "geometry": {
    "type": "Point",
    "coordinates": [
     144.72315886,
     -37.7084253
    ]
   },
   "properties": {
    "name": "69 HAWKING CRESCENT FRASER RISE 3336",
    "locID": "LOC000174465193",
    "tech": "FTTP",
    "upgrade": "NULL_NA",
    "gnaf_pid": "GAVIC719412603"
   }
  },
  {
   "type": "Feature",
   "geometry": {
    "type": "Point",
    "coordinates": [
     144.723747,
     -37.71183178
    ]
   },
   "properties": {
    "name": "568 HUME DRIVE FRASER RISE 3336",
    "locID": "LOC000134961698",
    "tech": "FTTP",
    "upgrade": "NULL_NA",
    "gnaf_pid": "GAVIC719412604"
   }
  },
  {
   "type": "Feature",
   "geometry": {
    "type": "Point",
    "coordinates": [
     144.72881899,
     -37.70538779
    ]
   },
   "properties": {
    "name": "24 HIGGINS STREET FRASER RISE 3336",
    "locID": "LOC000156530539",
    "tech": "NULL",
    "upgrade": "NULL_NA",
    "gnaf_pid": "GAVIC719412610"
   }
  },
  {
   "type": "Feature",
   "geometry": {
    "type": "Point",
    "coordinates": [
     144.72649041,
     -37.69810249
    ]
   },
   "properties": {
    "name": "54 ASPIRE BOULEVARD FRASER RISE 3336",
    "locID": "LOC000124491436",
    "tech": "NULL",
    "upgrade": "NULL_NA",
    "gnaf_pid": "GAVIC719412611"
   }
  },
  {
   "type": "Feature",
   "geometry": {
    "type": "Point",
    "coordinates": [
     144.72714365,
     -37.71891313
    ]
   },
   "properties": {
    "name": "12 ARIA BOULEVARD FRASER RISE 3336",
    "locID": "LOC000139389379",
    "tech": "FTTP",
    "upgrade": "NULL_NA",
    "gnaf_pid": "GAVIC719412612"
   }
  },
  {
   "type": "Feature",
   "geometry": {
    "type": "Point",
    "coordinates": [
     144.73042491,
     -37.720181
    ]
   },
   "properties": {
    "name": "11 MIRO WAY FRASER RISE 3336",
    "locID": "LOC000136229279",
    "tech": "FTTP",
    "upgrade": "NULL_NA",
    "gnaf_pid": "GAVIC719412613"
   }
  },
  {
   "type": "Feature",
   "geometry": {
    "type": "Point",
    "coordinates": [
     144.72438334,
     -37.71061427
    ]
   },
   "properties": {
    "name": "UNIT 2, 8 JARDINE DRIVE FRASER RISE 3336",
    "locID": "LOC000146353964",
    "tech": "FTTP",
    "upgrade": "NULL_NA",
    "gnaf_pid": "GAVIC719412614"
   }
  },
  {
   "type": "Feature",
   "geometry": {
    "type": "Point",
    "coordinates": [
     144.72443566,
     -37.71716847
    ]
   },
   "properties": {
    "name": "13 PHOENIX GROVE FRASER RISE 3336",
    "locID": "LOC000137384619",
    "tech": "FTTP",
    "upgrade": "NULL_NA",
    "gnaf_pid": "GAVIC719412615"
   }
  },
  {
   "type": "Feature",
   "geometry": {
    "type": "Point",
    "coordinates": [
     144.72810285,
     -37.71786964
    ]
   },
   "properties": {
    "name": "81 ORBIS AVENUE FRASER RISE 3336",
    "locID": "LOC000139886996",
    "tech": "FTTP",
    "upgrade": "NULL_NA",
    "gnaf_pid": "GAVIC719412616"
   }
  },
  {
   "type": "Feature",
   "geometry": {
    "type": "Point",
    "coordinates": [
     144.72702692,
     -37.71775929
    ]
   },
   "properties": {
    "name": "99 ORBIS AVENUE FRASER RISE 3336",
    "locID": "LOC000138812538",
    "tech": "FTTP",
    "upgrade": "NULL_NA",
    "gnaf_pid": "GAVIC719412617"
   }
  },
  {
   "type": "Feature",
   "geometry": {
    "type": "Point",
    "coordinates": [
     144.72471485,
     -37.70921055
    ]
   },
   "properties": {
    "name": "25 HAWKING CRESCENT FRASER RISE 3336",
    "locID": "LOC000174464997",
    "tech": "FTTP",
    "upgrade": "NULL_NA",
    "gnaf_pid": "GAVIC719412618"
   }
  },
  {
   "type": "Feature",
   "geometry": {
    "type": "Point",
    "coordinates": [
     144.72634207,
     -37.70979182
    ]
   },
   "properties": {
    "name": "3 HAWKING CRESCENT FRASER RISE 3336",
    "locID": "LOC000170242931",
    "tech": "FTTP",
    "upgrade": "NULL_NA",
    "gnaf_pid": "GAVIC719412619"
   }
  },
  {
   "type": "Feature",
   "geometry": {
    "type": "Point",
    "coordinates": [
     144.72759598,
     -37.7108949
    ]
   },
   "properties": {
    "name": "13 NEBULA COURT FRASER RISE 3336",
    "locID": "LOC000152854279",
    "tech": "FTTP",
    "upgrade": "NULL_NA",
    "gnaf_pid": "GAVIC719412620"
   }
  },
  {
   "type": "Feature",
   "geometry": {
    "type": "Point",
    "coordinates": [
     144.7219302,
     -37.71966789
    ]
   },
   "properties": {
    "name": "48 LUXOR DRIVE FRASER RISE 3336",
    "locID": "LOC000145382983",
    "tech": "FTTP",
    "upgrade": "NULL_NA",
    "gnaf_pid": "GAVIC719412621"
   }
  },
  {
   "type": "Feature",
   "geometry": {
    "type": "Point",
    "coordinates": [
     144.72301467,
     -37.71165796
    ]
   },
   "properties": {
    "name": "578 HUME DRIVE FRASER RISE 3336",
    "locID": "LOC000139464681",
    "tech": "FTTP",
    "upgrade": "NULL_NA",
    "gnaf_pid": "GAVIC719412622"
   }
  },
  {
   "type": "Feature",
   "geometry": {
    "type": "Point",
    "coordinates": [
     144.73013597,
     -37.70845341
    ]
   },
   "properties": {
    "name": "11 PATERA GROVE FRASER RISE 3336",
    "locID": "LOC000151307508",
    "tech": "FTTP",
    "upgrade": "NULL_NA",
    "gnaf_pid": "GAVIC719412631"
   }
  },
  {
   "type": "Feature",
   "geometry": {
    "type": "Point",
    "coordinates": [
     144.72760565,
     -37.71076794
    ]
   },
   "properties": {
    "name": "11 NEBULA COURT FRASER RISE 3336",
    "locID": "LOC000152854280",
    "tech": "FTTP",
    "upgrade": "NULL_NA",
    "gnaf_pid": "GAVIC719412632"
   }
  },
  {
   "type": "Feature",
   "geometry": {
    "type": "Point",
    "coordinates": [
     144.72360368,
     -37.71179774
    ]
   },
   "properties": {
    "name": "570 HUME DRIVE FRASER RISE 3336",
    "locID": "LOC000139464804",
    "tech": "FTTP",
    "upgrade": "NULL_NA",
    "gnaf_pid": "GAVIC719412633"
   }
  },
  {
   "type": "Feature",
   "geometry": {
    "type": "Point",
    "coordinates": [
     144.72550646,
     -37.71583707
    ]
   },
   "properties": {
    "name": "7 ROYALE DRIVE FRASER RISE 3336",
    "locID": "LOC000135610652",
    "tech": "FTTP",
    "upgrade": "NULL_NA",
    "gnaf_pid": "GAVIC719412634"
   }
  },
  {
   "type": "Feature",
   "geometry": {
    "type": "Point",
    "coordinates": [
     144.72605155,
     -37.71982875
    ]
   },
   "properties": {
    "name": "10 CITY VISTA COURT FRASER RISE 3336",
    "locID": "LOC000146039157",
    "tech": "FTTP",
    "upgrade": "NULL_NA",
    "gnaf_pid": "GAVIC719412636"
   }
  },
  {
   "type": "Feature",
   "geometry": {
    "type": "Point",
    "coordinates": [
     144.72651817,
     -37.70213399
    ]
   },
   "properties": {
    "name": "93 ASPIRE BOULEVARD FRASER RISE 3336",
    "locID": "LOC000156524489",
    "tech": "NULL",
    "upgrade": "NULL_NA",
    "gnaf_pid": "GAVIC719412639"
   }
  },
  {
   "type": "Feature",
   "geometry": {
    "type": "Point",
    "coordinates": [
     144.72587083,
     -37.70078759
    ]
   },
   "properties": {
    "name": "23 GOULDING DRIVE FRASER RISE 3336",
    "locID": "LOC000156519456",
    "tech": "NULL",
    "upgrade": "NULL_NA",
    "gnaf_pid": "GAVIC719412643"
   }
  },
  {
   "type": "Feature",
   "geometry": {
    "type": "Point",
    "coordinates": [
     144.72578654,
     -37.70120371
    ]
   },
   "properties": {
    "name": "31 GOULDING DRIVE FRASER RISE 3336",
    "locID": "LOC000156521928",
    "tech": "NULL",
    "upgrade": "NULL_NA",
    "gnaf_pid": "GAVIC719412644"
   }
  },
  {
   "type": "Feature",
   "geometry": {
    "type": "Point",
    "coordinates": [
     144.72776892,
     -37.70839886
    ]
   },
   "properties": {
    "name": "22 PULSAR WAY FRASER RISE 3336",
    "locID": "LOC000173402392",
    "tech": "FTTP",
    "upgrade": "NULL_NA",
    "gnaf_pid": "GAVIC719412645"
   }
  },
  {
   "type": "Feature",
   "geometry": {
    "type": "Point",
    "coordinates": [
     144.72351317,
     -37.71407952
    ]
   },
   "properties": {
    "name": "3 SARENNE WAY FRASER RISE 3336",
    "locID": "LOC000124537209",
    "tech": "NULL",
    "upgrade": "NULL_NA",
    "gnaf_pid": "GAVIC719412646"
   }
  },
  {
   "type": "Feature",
   "geometry": {
    "type": "Point",
    "coordinates": [
     144.72833467,
     -37.70793254
    ]
   },
   "properties": {
    "name": "35 VOYAGER DRIVE FRASER RISE 3336",
    "locID": "LOC000175207881",
    "tech": "FTTP",
    "upgrade": "NULL_NA",
    "gnaf_pid": "GAVIC719412648"
   }
  },
  {
   "type": "Feature",
   "geometry": {
    "type": "Point",
    "coordinates": [
     144.72906155,
     -37.70755688
    ]
   },
   "properties": {
    "name": "34 VOYAGER DRIVE FRASER RISE 3336",
    "locID": "LOC000175210237",
    "tech": "FTTP",
    "upgrade": "NULL_NA",
    "gnaf_pid": "GAVIC719412649"
   }
  },
  {
   "type": "Feature",
   "geometry": {
    "type": "Point",
    "coordinates": [
     144.7277504,
     -37.71029183
    ]
   },
   "properties": {
    "name": "3 NEBULA COURT FRASER RISE 3336",
    "locID": "LOC000152855127",
    "tech": "FTTP",
    "upgrade": "NULL_NA",
    "gnaf_pid": "GAVIC719412650"
   }
  },
  {
   "type": "Feature",
   "geometry": {
    "type": "Point",
    "coordinates": [
     144.73000832,
     -37.71255917
    ]
   },
   "properties": {
    "name": "5 OBERON COURT FRASER RISE 3336",
    "locID": "LOC000181989649",
    "tech": "FTTP",
    "upgrade": "NULL_NA",
    "gnaf_pid": "GAVIC719412651"
   }
  },
  {
   "type": "Feature",
   "geometry": {
    "type": "Point",
    "coordinates": [
     144.72682323,
     -37.71339753
    ]
   },
   "properties": {
    "name": "1 ENTERPRISE CIRCUIT FRASER RISE 3336",
    "locID": "LOC000145740224",
    "tech": "FTTP",
    "upgrade": "NULL_NA",
    "gnaf_pid": "GAVIC719412652"
   }
  },
  {
   "type": "Feature",
   "geometry": {
    "type": "Point",
    "coordinates": [
     144.73152654,
     -37.70974564
    ]
   },
   "properties": {
    "name": "5 ECLIPSE AVENUE FRASER RISE 3336",
    "locID": "LOC000139989843",
    "tech": "FTTP",
    "upgrade": "NULL_NA",
    "gnaf_pid": "GAVIC719412661"
   }
  },
  {
   "type": "Feature",
   "geometry": {
    "type": "Point",
    "coordinates": [
     144.72528796,
     -37.7025735
    ]
   },
   "properties": {
    "name": "45 WRIGHT CIRCUIT FRASER RISE 3336",
    "locID": "LOC000156528982",
    "tech": "NULL",
    "upgrade": "NULL_NA",
    "gnaf_pid": "GAVIC719412662"
   }
  },
  {
   "type": "Feature",
   "geometry": {
    "type": "Point",
    "coordinates": [
     144.72459161,
     -37.70202816
    ]
   },
   "properties": {
    "name": "15 WRIGHT CIRCUIT FRASER RISE 3336",
    "locID": "LOC000156527012",
    "tech": "NULL",
    "upgrade": "NULL_NA",
    "gnaf_pid": "GAVIC719412663"
   }
  },
  {
   "type": "Feature",
   "geometry": {
    "type": "Point",
    "coordinates": [
     144.72574296,
     -37.70217541
    ]
   },
   "properties": {
    "name": "3 WRIGHT CIRCUIT FRASER RISE 3336",
    "locID": "LOC000156527110",
    "tech": "NULL",
    "upgrade": "NULL_NA",
    "gnaf_pid": "GAVIC719412664"
   }
  },
  {
   "type": "Feature",
   "geometry": {
    "type": "Point",
    "coordinates": [
     144.72876211,
     -37.71794544
    ]
   },
   "properties": {
    "name": "69 ORBIS AVENUE FRASER RISE 3336",
    "locID": "LOC000139449495",
    "tech": "FTTP",
    "upgrade": "NULL_NA",
    "gnaf_pid": "GAVIC719412665"
   }
  },
  {
   "type": "Feature",
   "geometry": {
    "type": "Point",
    "coordinates": [
     144.73142305,
     -37.70873646
    ]
   },
   "properties": {
    "name": "6 LUNAR WAY FRASER RISE 3336",
    "locID": "LOC000146029151",
    "tech": "FTTP",
    "upgrade": "NULL_NA",
    "gnaf_pid": "GAVIC719412683"
   }
  },
  {
   "type": "Feature",
   "geometry": {
    "type": "Point",
    "coordinates": [
     144.73011055,
     -37.71315988
    ]
   },
   "properties": {
    "name": "75 ENTERPRISE CIRCUIT FRASER RISE 3336",
    "locID": "LOC000143996965",
    "tech": "FTTP",
    "upgrade": "NULL_NA",
    "gnaf_pid": "GAVIC719412684"
   }
  },
  {
   "type": "Feature",
   "geometry": {
    "type": "Point",
    "coordinates": [
     144.72961011,
     -37.71801604
    ]
   },
   "properties": {
    "name": "57 ORBIS AVENUE FRASER RISE 3336",
    "locID": "LOC000139449550",
    "tech": "FTTP",
    "upgrade": "NULL_NA",
    "gnaf_pid": "GAVIC719412685"
   }
  },
  {
   "type": "Feature",
   "geometry": {
    "type": "Point",
    "coordinates": [
     144.72874549,
     -37.70498925
    ]
   },
   "properties": {
    "name": "14 HIGGINS STREET FRASER RISE 3336",
    "locID": "LOC000156530212",
    "tech": "NULL",
    "upgrade": "NULL_NA",
    "gnaf_pid": "GAVIC719412704"
   }
  },
  {
   "type": "Feature",
   "geometry": {
    "type": "Point",
    "coordinates": [
     144.72888808,
     -37.72074914
    ]
   },
   "properties": {
    "name": "29 SERRA WAY FRASER RISE 3336",
    "locID": "LOC000139449453",
    "tech": "FTTP",
    "upgrade": "NULL_NA",
    "gnaf_pid": "GAVIC719412705"
   }
  },
  {
   "type": "Feature",
   "geometry": {
    "type": "Point",
    "coordinates": [
     144.72851802,
     -37.70133076
    ]
   },
   "properties": {
    "name": "7 MCKILLOP WAY FRASER RISE 3336",
    "locID": "LOC000156523829",
    "tech": "NULL",
    "upgrade": "NULL_NA",
    "gnaf_pid": "GAVIC719412707"
   }
  },
  {
   "type": "Feature",
   "geometry": {
    "type": "Point",
    "coordinates": [
     144.72492681,
     -37.70096874
    ]
   },
   "properties": {
    "name": "3 SOMERS STREET FRASER RISE 3336",
    "locID": "LOC000156521971",
    "tech": "NULL",
    "upgrade": "NULL_NA",
    "gnaf_pid": "GAVIC719412708"
   }
  },
  {
   "type": "Feature",
   "geometry": {
    "type": "Point",
    "coordinates": [
     144.72748982,
     -37.69600192
    ]
   },
   "properties": {
    "name": "33 ROWLING STREET FRASER RISE 3336",
    "locID": "LOC000124541233",
    "tech": "NULL",
    "upgrade": "NULL_NA",
    "gnaf_pid": "GAVIC719412724"
   }
  },
  {
   "type": "Feature",
   "geometry": {
    "type": "Point",
    "coordinates": [
     144.72931266,
     -37.71874447
    ]
   },
   "properties": {
    "name": "3 CARO WAY FRASER RISE 3336",
    "locID": "LOC000139449725",
    "tech": "FTTP",
    "upgrade": "NULL_NA",
    "gnaf_pid": "GAVIC719412725"
   }
  },
  {
   "type": "Feature",
   "geometry": {
    "type": "Point",
    "coordinates": [
     144.72956746,
     -37.70678836
    ]
   },
   "properties": {
    "name": "36 TORA CRESCENT FRASER RISE 3336",
    "locID": "LOC000156531056",
    "tech": "FTTP",
    "upgrade": "NULL_NA",
    "gnaf_pid": "GAVIC719412726"
   }
  },
  {
   "type": "Feature",
   "geometry": {
    "type": "Point",
    "coordinates": [
     144.73101249,
     -37.71162703
    ]
   },
   "properties": {
    "name": "45 ZODIAC WAY FRASER RISE 3336",
    "locID": "LOC000139988503",
    "tech": "FTTP",
    "upgrade": "NULL_NA",
    "gnaf_pid": "GAVIC719412727"
   }
  },
  {
   "type": "Feature",
   "geometry": {
    "type": "Point",
    "coordinates": [
     144.72829356,
     -37.70572482
    ]
   },
   "properties": {
    "name": "14 SNOWSILL WAY FRASER RISE 3336",
    "locID": "LOC000156531485",
    "tech": "NULL",
    "upgrade": "NULL_NA",
    "gnaf_pid": "GAVIC719412744"
   }
  },
  {
   "type": "Feature",
   "geometry": {
    "type": "Point",
    "coordinates": [
     144.72569522,
     -37.70478832
    ]
   },
   "properties": {
    "name": "4 WILDE STREET FRASER RISE 3336",
    "locID": "LOC000156529483",
    "tech": "NULL",
    "upgrade": "NULL_NA",
    "gnaf_pid": "GAVIC719412745"
   }
  },
  {
   "type": "Feature",
   "geometry": {
    "type": "Point",
    "coordinates": [
     144.72559541,
     -37.71725558
    ]
   },
   "properties": {
    "name": "12 PINNACLE WAY FRASER RISE 3336",
    "locID": "LOC000135611679",
    "tech": "FTTP",
    "upgrade": "NULL_NA",
    "gnaf_pid": "GAVIC719412746"
   }
  },
  {
   "type": "Feature",
   "geometry": {
    "type": "Point",
    "coordinates": [
     144.73227045,
     -37.71157195
    ]
   },
   "properties": {
    "name": "46 ZODIAC WAY FRASER RISE 3336",
    "locID": "LOC000139988640",
    "tech": "FTTP",
    "upgrade": "NULL_NA",
    "gnaf_pid": "GAVIC719412747"
   }
  },
  {
   "type": "Feature",
   "geometry": {
    "type": "Point",
    "coordinates": [
     144.72748001,
     -37.70703024
    ]
   },
   "properties": {
    "name": "64 TORA CRESCENT FRASER RISE 3336",
    "locID": "LOC000175211960",
    "tech": "FTTP",
    "upgrade": "NULL_NA",
    "gnaf_pid": "GAVIC719412748"
   }
  },
  {
   "type": "Feature",
   "geometry": {
    "type": "Point",
    "coordinates": [
     144.72216507,
     -37.71510626
    ]
   },
   "properties": {
    "name": "52 ROYALE DRIVE FRASER RISE 3336",
    "locID": "LOC000156518649",
    "tech": "FTTP",
    "upgrade": "NULL_NA",
    "gnaf_pid": "GAVIC719412749"
   }
  },
  {
   "type": "Feature",
   "geometry": {
    "type": "Point",
    "coordinates": [
     144.72283172,
     -37.71787432
    ]
   },
   "properties": {
    "name": "7 LANDO STREET FRASER RISE 3336",
    "locID": "LOC000151123705",
    "tech": "FTTP",
    "upgrade": "NULL_NA",
    "gnaf_pid": "GAVIC719412750"
   }
  },
  {
   "type": "Feature",
   "geometry": {
    "type": "Point",
    "coordinates": [
     144.7227161,
     -37.71202435
    ]
   },
   "properties": {
    "name": "32 SPRINGLANDS CRESCENT FRASER RISE 3336",
    "locID": "LOC000139464668",
    "tech": "FTTP",
    "upgrade": "NULL_NA",
    "gnaf_pid": "GAVIC719412762"
   }
  },
  {
   "type": "Feature",
   "geometry": {
    "type": "Point",
    "coordinates": [
     144.72327121,
     -37.71014546
    ]
   },
   "properties": {
    "name": "2 PORTOFINO CRESCENT FRASER RISE 3336",
    "locID": "LOC000152793976",
    "tech": "FTTP",
    "upgrade": "NULL_NA",
    "gnaf_pid": "GAVIC719412763"
   }
  },
  {
   "type": "Feature",
   "geometry": {
    "type": "Point",
    "coordinates": [
     144.7259543,
     -37.70567748
    ]
   },
   "properties": {
    "name": "9 NEWTON WAY FRASER RISE 3336",
    "locID": "LOC000156529735",
    "tech": "NULL",
    "upgrade": "NULL_NA",
    "gnaf_pid": "GAVIC719412764"
   }
  },
  {
   "type": "Feature",
   "geometry": {
    "type": "Point",
    "coordinates": [
     144.72995833,
     -37.71804014
    ]
   },
   "properties": {
    "name": "55 ORBIS AVENUE FRASER RISE 3336",
    "locID": "LOC000139449827",
    "tech": "FTTP",
    "upgrade": "NULL_NA",
    "gnaf_pid": "GAVIC719412765"
   }
  },
  {
   "type": "Feature",
   "geometry": {
    "type": "Point",
    "coordinates": [
     144.7288689,
     -37.70642297
    ]
   },
   "properties": {
    "name": "47 HIGGINS STREET FRASER RISE 3336",
    "locID": "LOC000156527632",
    "tech": "NULL",
    "upgrade": "NULL_NA",
    "gnaf_pid": "GAVIC719412766"
   }
  },
  {
   "type": "Feature",
   "geometry": {
    "type": "Point",
    "coordinates": [
     144.72699041,
     -37.70176033
    ]
   },
   "properties": {
    "name": "5 SEDGEMAN STREET FRASER RISE 3336",
    "locID": "LOC000156524174",
    "tech": "NULL",
    "upgrade": "NULL_NA",
    "gnaf_pid": "GAVIC719412768"
   }
  },
  {
   "type": "Feature",
   "geometry": {
    "type": "Point",
    "coordinates": [
     144.72583357,
     -37.70508335
    ]
   },
   "properties": {
    "name": "5 WILDE STREET FRASER RISE 3336",
    "locID": "LOC000156529533",
    "tech": "NULL",
    "upgrade": "NULL_NA",
    "gnaf_pid": "GAVIC719412769"
   }
  },
  {
   "type": "Feature",
   "geometry": {
    "type": "Point",
    "coordinates": [
     144.72811725,
     -37.70114606
    ]
   },
   "properties": {
    "name": "2 MCKILLOP WAY FRASER RISE 3336",
    "locID": "LOC000156523011",
    "tech": "NULL",
    "upgrade": "NULL_NA",
    "gnaf_pid": "GAVIC719412770"
   }
  },
  {
   "type": "Feature",
   "geometry": {
    "type": "Point",
    "coordinates": [
     144.72316819,
     -37.71213164
    ]
   },
   "properties": {
    "name": "26 SPRINGLANDS CRESCENT FRASER RISE 3336",
    "locID": "LOC000139464756",
    "tech": "FTTP",
    "upgrade": "NULL_NA",
    "gnaf_pid": "GAVIC719412771"
   }
  },
  {
   "type": "Feature",
   "geometry": {
    "type": "Point",
    "coordinates": [
     144.72378954,
     -37.71600104
    ]
   },
   "properties": {
    "name": "47 GALVESTON AVENUE FRASER RISE 3336",
    "locID": "LOC000160618010",
    "tech": "FTTP",
    "upgrade": "NULL_NA",
    "gnaf_pid": "GAVIC719412772"
   }
  },
  {
   "type": "Feature",
   "geometry": {
    "type": "Point",
    "coordinates": [
     144.72803153,
     -37.70347869
    ]
   },
   "properties": {
    "name": "18 WREN PARADE FRASER RISE 3336",
    "locID": "LOC000156524692",
    "tech": "NULL",
    "upgrade": "NULL_NA",
    "gnaf_pid": "GAVIC719412774"
   }
  },
  {
   "type": "Feature",
   "geometry": {
    "type": "Point",
    "coordinates": [
     144.72784079,
     -37.70350084
    ]
   },
   "properties": {
    "name": "16 WREN PARADE FRASER RISE 3336",
    "locID": "LOC000156524709",
    "tech": "NULL",
    "upgrade": "NULL_NA",
    "gnaf_pid": "GAVIC719412775"
   }
  },
  {
   "type": "Feature",
   "geometry": {
    "type": "Point",
    "coordinates": [
     144.72496081,
     -37.70526241
    ]
   },
   "properties": {
    "name": "5 FORRESTER GROVE FRASER RISE 3336",
    "locID": "LOC000156528694",
    "tech": "NULL",
    "upgrade": "NULL_NA",
    "gnaf_pid": "GAVIC719412778"
   }
  },
  {
   "type": "Feature",
   "geometry": {
    "type": "Point",
    "coordinates": [
     144.72304902,
     -37.71521316
    ]
   },
   "properties": {
    "name": "38 ROYALE DRIVE FRASER RISE 3336",
    "locID": "LOC000166338919",
    "tech": "FTTP",
    "upgrade": "NULL_NA",
    "gnaf_pid": "GAVIC719412779"
   }
  },
  {
   "type": "Feature",
   "geometry": {
    "type": "Point",
    "coordinates": [
     144.729265,
     -37.70782494
    ]
   },
   "properties": {
    "name": "23 VOYAGER DRIVE FRASER RISE 3336",
    "locID": "LOC000156530933",
    "tech": "FTTP",
    "upgrade": "NULL_NA",
    "gnaf_pid": "GAVIC719414526"
   }
  },
  {
   "type": "Feature",
   "geometry": {
    "type": "Point",
    "coordinates": [
     144.72554232,
     -37.69989239
    ]
   },
   "properties": {
    "name": "22 GOULDING DRIVE FRASER RISE 3336",
    "locID": "LOC000156519931",
    "tech": "NULL",
    "upgrade": "NULL_NA",
    "gnaf_pid": "GAVIC719414527"
   }
  },
  {
   "type": "Feature",
   "geometry": {
    "type": "Point",
    "coordinates": [
     144.7301373,
     -37.70831828
    ]
   },
   "properties": {
    "name": "13 PATERA GROVE FRASER RISE 3336",
    "locID": "LOC000151307499",
    "tech": "FTTP",
    "upgrade": "NULL_NA",
    "gnaf_pid": "GAVIC719414528"
   }
  },
  {
   "type": "Feature",
   "geometry": {
    "type": "Point",
    "coordinates": [
     144.72102074,
     -37.71956895
    ]
   },
   "properties": {
    "name": "2 AUBURN DRIVE FRASER RISE 3336",
    "locID": "LOC000151916459",
    "tech": "FTTP",
    "upgrade": "NULL_NA",
    "gnaf_pid": "GAVIC719414529"
   }
  },
  {
   "type": "Feature",
   "geometry": {
    "type": "Point",
    "coordinates": [
     144.72290012,
     -37.71978475
    ]
   },
   "properties": {
    "name": "34 LUXOR DRIVE FRASER RISE 3336",
    "locID": "LOC000145382912",
    "tech": "FTTP",
    "upgrade": "NULL_NA",
    "gnaf_pid": "GAVIC719414530"
   }
  },
  {
   "type": "Feature",
   "geometry": {
    "type": "Point",
    "coordinates": [
     144.72375388,
     -37.71989218
    ]
   },
   "properties": {
    "name": "28 LUXOR DRIVE FRASER RISE 3336",
    "locID": "LOC000124532989",
    "tech": "FTTP",
    "upgrade": "NULL_NA",
    "gnaf_pid": "GAVIC719414531"
   }
  },
  {
   "type": "Feature",
   "geometry": {
    "type": "Point",
    "coordinates": [
     144.73191491,
     -37.70823291
    ]
   },
   "properties": {
    "name": "33 INFINITY DRIVE FRASER RISE 3336",
    "locID": "LOC000146028585",
    "tech": "FTTP",
    "upgrade": "NULL_NA",
    "gnaf_pid": "GAVIC719414532"
   }
  },
  {
   "type": "Feature",
   "geometry": {
    "type": "Point",
    "coordinates": [
     144.72988825,
     -37.71874051
    ]
   },
   "properties": {
    "name": "30 GOLDSWORTHY DRIVE FRASER RISE 3336",
    "locID": "LOC000139449773",
    "tech": "FTTP",
    "upgrade": "NULL_NA",
    "gnaf_pid": "GAVIC719414533"
   }
  },
  {
   "type": "Feature",
   "geometry": {
    "type": "Point",
    "coordinates": [
     144.72580459,
     -37.71615762
    ]
   },
   "properties": {
    "name": "28 PINNACLE WAY FRASER RISE 3336",
    "locID": "LOC000135611452",
    "tech": "FTTP",
    "upgrade": "NULL_NA",
    "gnaf_pid": "GAVIC719414534"
   }
  },
  {
   "type": "Feature",
   "geometry": {
    "type": "Point",
    "coordinates": [
     144.72724015,
     -37.69464744
    ]
   },
   "properties": {
    "name": "13 ROWLING STREET FRASER RISE 3336",
    "locID": "LOC000124503476",
    "tech": "NULL",
    "upgrade": "NULL_NA",
    "gnaf_pid": "GAVIC719414632"
   }
  },
  {
   "type": "Feature",
   "geometry": {
    "type": "Point",
    "coordinates": [
     144.73014194,
     -37.70784759
    ]
   },
   "properties": {
    "name": "21 PATERA GROVE FRASER RISE 3336",
    "locID": "LOC000151307452",
    "tech": "FTTP",
    "upgrade": "NULL_NA",
    "gnaf_pid": "GAVIC719414633"
   }
  },
  {
   "type": "Feature",
   "geometry": {
    "type": "Point",
    "coordinates": [
     144.72435327,
     -37.71760085
    ]
   },
   "properties": {
    "name": "5 PHOENIX GROVE FRASER RISE 3336",
    "locID": "LOC000137384571",
    "tech": "FTTP",
    "upgrade": "NULL_NA",
    "gnaf_pid": "GAVIC719414634"
   }
  },
  {
   "type": "Feature",
   "geometry": {
    "type": "Point",
    "coordinates": [
     144.7254464,
     -37.70681994
    ]
   },
   "properties": {
    "name": "17 WAVELL PARADE FRASER RISE 3336",
    "locID": "LOC000156527894",
    "tech": "NULL",
    "upgrade": "NULL_NA",
    "gnaf_pid": "GAVIC719414635"
   }
  },
  {
   "type": "Feature",
   "geometry": {
    "type": "Point",
    "coordinates": [
     144.72858694,
     -37.72055423
    ]
   },
   "properties": {
    "name": "4 MANDALAY PARADE FRASER RISE 3336",
    "locID": "LOC000139450079",
    "tech": "FTTP",
    "upgrade": "NULL_NA",
    "gnaf_pid": "GAVIC719414636"
   }
  },
  {
   "type": "Feature",
   "geometry": {
    "type": "Point",
    "coordinates": [
     144.72892125,
     -37.70757311
    ]
   },
   "properties": {
    "name": "36 VOYAGER DRIVE FRASER RISE 3336",
    "locID": "LOC000175210341",
    "tech": "FTTP",
    "upgrade": "NULL_NA",
    "gnaf_pid": "GAVIC719414637"
   }
  },
  {
   "type": "Feature",
   "geometry": {
    "type": "Point",
    "coordinates": [
     144.72920947,
     -37.71284507
    ]
   },
   "properties": {
    "name": "16 KIRKWOOD AVENUE FRASER RISE 3336",
    "locID": "LOC000140002407",
    "tech": "FTTP",
    "upgrade": "NULL_NA",
    "gnaf_pid": "GAVIC719414638"
   }
  },