{
 "type": "FeatureCollection",
 "generated": "2023-10-24T05:23:26.981075",
 "suburb": "GLADSTONE PARK",
 "features": [
  {
   "type": "Feature",
   "geometry": {
    "type": "Point",
    "coordinates": [
     144.8881638,
     -37.69410455
    ]
   },
   "properties": {
    "name": "23 ELMHURST ROAD GLADSTONE PARK 3043",
    "locID": "LOC000092165174",
    "tech": "FTTP",
    "upgrade": "NULL_NA",
    "gnaf_pid": "GAVIC411438765"
   }
  },
  {
   "type": "Feature",
   "geometry": {
    "type": "Point",
    "coordinates": [
     144.88424656,
     -37.68937375
    ]
   },
   "properties": {
    "name": "17 GLADSTONE PARK DRIVE GLADSTONE PARK 3043",
    "locID": "LOC000051815710",
    "tech": "FTTP",
    "upgrade": "NULL_NA",
    "gnaf_pid": "GAVIC411438793"
   }
  },
  {
   "type": "Feature",
   "geometry": {
    "type": "Point",
    "coordinates": [
     144.8886624,
     -37.6974116
    ]
   },
   "properties": {
    "name": "UNIT 4, 33 SAMARA GROVE GLADSTONE PARK 3043",
    "locID": "LOC000006860672",
    "tech": "FTTP",
    "upgrade": "NULL_NA",
    "gnaf_pid": "GAVIC411439795"
   }
  },
  {
   "type": "Feature",
   "geometry": {
    "type": "Point",
    "coordinates": [
     144.88887768,
     -37.69743535
    ]
   },
   "properties": {
    "name": "UNIT 3, 33 SAMARA GROVE GLADSTONE PARK 3043",
    "locID": "LOC000006860672",
    "tech": "FTTP",
    "upgrade": "NULL_NA",
    "gnaf_pid": "GAVIC411439796"
   }
  },
  {
   "type": "Feature",
   "geometry": {
    "type": "Point",
    "coordinates": [
     144.897365,
     -37.696277
    ]
   },
   "properties": {
    "name": "8 SHANE COURT GLADSTONE PARK 3043",
    "locID": "LOC000066105175",
    "tech": "FTTP",
    "upgrade": "NULL_NA",
    "gnaf_pid": "GAVIC411440597"
   }
  },
  {
   "type": "Feature",
   "geometry": {
    "type": "Point",
    "coordinates": [
     144.89888623,
     -37.68546708
    ]
   },
   "properties": {
    "name": "1 NEATH CLOSE GLADSTONE PARK 3043",
    "locID": "LOC000085521623",
    "tech": "FTTP",
    "upgrade": "NULL_NA",
    "gnaf_pid": "GAVIC411440607"
   }
  },
  {
   "type": "Feature",
   "geometry": {
    "type": "Point",
    "coordinates": [
     144.9000704,
     -37.68681783
    ]
   },
   "properties": {
    "name": "2 ADAM COURT GLADSTONE PARK 3043",
    "locID": "LOC000061062620",
    "tech": "FTTP",
    "upgrade": "NULL_NA",
    "gnaf_pid": "GAVIC411440610"
   }
  },
  {
   "type": "Feature",
   "geometry": {
    "type": "Point",
    "coordinates": [
     144.897539,
     -37.690107
    ]
   },
   "properties": {
    "name": "193 CARRICK DRIVE GLADSTONE PARK 3043",
    "locID": "LOC000033873713",
    "tech": "FTTP",
    "upgrade": "NULL_NA",
    "gnaf_pid": "GAVIC411441472"
   }
  },
  {
   "type": "Feature",
   "geometry": {
    "type": "Point",
    "coordinates": [
     144.89750606,
     -37.6968816
    ]
   },
   "properties": {
    "name": "UNIT 1, 13 GABRIELLE CRESCENT GLADSTONE PARK 3043",
    "locID": "LOC000021047343",
    "tech": "FTTP",
    "upgrade": "NULL_NA",
    "gnaf_pid": "GAVIC411441502"
   }
  },
  {
   "type": "Feature",
   "geometry": {
    "type": "Point",
    "coordinates": [
     144.898944,
     -37.687735
    ]
   },
   "properties": {
    "name": "2A HENLEY DRIVE GLADSTONE PARK 3043",
    "locID": "ChIJUdM3IUZa1moRwckXAmBS_Ho",
    "tech": "FTTP",
    "upgrade": "UNKNOWN",
    "gnaf_pid": "GAVIC411442484"
   }
  },
  {
   "type": "Feature",
   "geometry": {
    "type": "Point",
    "coordinates": [
     144.89227698,
     -37.69651611
    ]
   },
   "properties": {
    "name": "66 ELMHURST ROAD GLADSTONE PARK 3043",
    "locID": "LOC000063289980",
    "tech": "FTTP",
    "upgrade": "NULL_NA",
    "gnaf_pid": "GAVIC411443258"
   }
  },
  {
   "type": "Feature",
   "geometry": {
    "type": "Point",
    "coordinates": [
     144.88994793,
     -37.69976568
    ]
   },
   "properties": {
    "name": "20 TECOMA COURT GLADSTONE PARK 3043",
    "locID": "LOC000024420872",
    "tech": "FTTP",
    "upgrade": "NULL_NA",
    "gnaf_pid": "GAVIC411445219"
   }
  },
  {
   "type": "Feature",
   "geometry": {
    "type": "Point",
    "coordinates": [
     144.88968601,
     -37.68314958
    ]
   },
   "properties": {
    "name": "2 TAUNTON PLACE GLADSTONE PARK 3043",
    "locID": "LOC000047694950",
    "tech": "FTTP",
    "upgrade": "NULL_NA",
    "gnaf_pid": "GAVIC411445454"
   }
  },
  {
   "type": "Feature",
   "geometry": {
    "type": "Point",
    "coordinates": [
     144.89161068,
     -37.68362091
    ]
   },
   "properties": {
    "name": "2 KINGSMERE CLOSE GLADSTONE PARK 3043",
    "locID": "LOC000002874271",
    "tech": "FTTP",
    "upgrade": "NULL_NA",
    "gnaf_pid": "GAVIC411447487"
   }
  },
  {
   "type": "Feature",
   "geometry": {
    "type": "Point",
    "coordinates": [
     144.88404378,
     -37.68291513
    ]
   },
   "properties": {
    "name": "11A SNAEFELL CRESCENT GLADSTONE PARK 3043",
    "locID": "ChIJ3eny_y9a1moRYf9Lm1I37Hs",
    "tech": "FTTP",
    "upgrade": "UNKNOWN",
    "gnaf_pid": "GAVIC411448154"
   }
  },
  {
   "type": "Feature",
   "geometry": {
    "type": "Point",
    "coordinates": [
     144.89719646,
     -37.69774311
    ]
   },
   "properties": {
    "name": "UNIT 2, 20 GABRIELLE CRESCENT GLADSTONE PARK 3043",
    "locID": "LOC000067710596",
    "tech": "FTTP",
    "upgrade": "NULL_NA",
    "gnaf_pid": "GAVIC411449576"
   }
  },
  {
   "type": "Feature",
   "geometry": {
    "type": "Point",
    "coordinates": [
     144.897037,
     -37.697759
    ]
   },
   "properties": {
    "name": "UNIT 3, 96 LENOAK STREET GLADSTONE PARK 3043",
    "locID": "LOC000082747263",
    "tech": "FTTP",
    "upgrade": "NULL_NA",
    "gnaf_pid": "GAVIC411449655"
   }
  },
  {
   "type": "Feature",
   "geometry": {
    "type": "Point",
    "coordinates": [
     144.89538442,
     -37.69132138
    ]
   },
   "properties": {
    "name": "2 COSDOWN CLOSE GLADSTONE PARK 3043",
    "locID": "LOC000020327867",
    "tech": "FTTP",
    "upgrade": "NULL_NA",
    "gnaf_pid": "GAVIC411451604"
   }
  },
  {
   "type": "Feature",
   "geometry": {
    "type": "Point",
    "coordinates": [
     144.89561558,
     -37.69156882
    ]
   },
   "properties": {
    "name": "1 COSDOWN CLOSE GLADSTONE PARK 3043",
    "locID": "LOC000040424037",
    "tech": "FTTP",
    "upgrade": "NULL_NA",
    "gnaf_pid": "GAVIC411451607"
   }
  },
  {
   "type": "Feature",
   "geometry": {
    "type": "Point",
    "coordinates": [
     144.89709259,
     -37.68304289
    ]
   },
   "properties": {
    "name": "67 CLARKE DRIVE GLADSTONE PARK 3043",
    "locID": "LOC000050544996",
    "tech": "FTTP",
    "upgrade": "NULL_NA",
    "gnaf_pid": "GAVIC411453043"
   }
  },
  {
   "type": "Feature",
   "geometry": {
    "type": "Point",
    "coordinates": [
     144.89613452,
     -37.68790461
    ]
   },
   "properties": {
    "name": "5 TOWNSEND AVENUE GLADSTONE PARK 3043",
    "locID": "LOC000045776380",
    "tech": "FTTP",
    "upgrade": "NULL_NA",
    "gnaf_pid": "GAVIC411454030"
   }
  },
  {
   "type": "Feature",
   "geometry": {
    "type": "Point",
    "coordinates": [
     144.89089708,
     -37.69939196
    ]
   },
   "properties": {
    "name": "1 TECOMA COURT GLADSTONE PARK 3043",
    "locID": "LOC000122927384",
    "tech": "FTTP",
    "upgrade": "NULL_NA",
    "gnaf_pid": "GAVIC411454055"
   }
  },
  {
   "type": "Feature",
   "geometry": {
    "type": "Point",
    "coordinates": [
     144.8890849,
     -37.69387825
    ]
   },
   "properties": {
    "name": "88 SOUTH CIRCULAR ROAD GLADSTONE PARK 3043",
    "locID": "LOC000005264467",
    "tech": "FTTP",
    "upgrade": "NULL_NA",
    "gnaf_pid": "GAVIC411454084"
   }
  },
  {
   "type": "Feature",
   "geometry": {
    "type": "Point",
    "coordinates": [
     144.88861176,
     -37.69756401
    ]
   },
   "properties": {
    "name": "UNIT 1, 33 SAMARA GROVE GLADSTONE PARK 3043",
    "locID": "LOC000007134341",
    "tech": "FTTP",
    "upgrade": "NULL_NA",
    "gnaf_pid": "GAVIC411454143"
   }
  },
  {
   "type": "Feature",
   "geometry": {
    "type": "Point",
    "coordinates": [
     144.89589969,
     -37.68494906
    ]
   },
   "properties": {
    "name": "10 FARLEY COURT GLADSTONE PARK 3043",
    "locID": "LOC000122927425",
    "tech": "FTTP",
    "upgrade": "NULL_NA",
    "gnaf_pid": "GAVIC411454867"
   }
  },
  {
   "type": "Feature",
   "geometry": {
    "type": "Point",
    "coordinates": [
     144.88887959,
     -37.69759356
    ]
   },
   "properties": {
    "name": "UNIT 2, 33 SAMARA GROVE GLADSTONE PARK 3043",
    "locID": "LOC000007138495",
    "tech": "FTTP",
    "upgrade": "NULL_NA",
    "gnaf_pid": "GAVIC411456614"
   }
  },
  {
   "type": "Feature",
   "geometry": {
    "type": "Point",
    "coordinates": [
     144.8843321,
     -37.68317506
    ]
   },
   "properties": {
    "name": "1 INN COURT GLADSTONE PARK 3043",
    "locID": "LOC000030989205",
    "tech": "FTTP",
    "upgrade": "NULL_NA",
    "gnaf_pid": "GAVIC411456618"
   }
  },
  {
   "type": "Feature",
   "geometry": {
    "type": "Point",
    "coordinates": [
     144.89716376,
     -37.6978644
    ]
   },
   "properties": {
    "name": "UNIT 4, 96 LENOAK STREET GLADSTONE PARK 3043",
    "locID": "LOC000082138652",
    "tech": "FTTP",
    "upgrade": "NULL_NA",
    "gnaf_pid": "GAVIC411456717"
   }
  },
  {
   "type": "Feature",
   "geometry": {
    "type": "Point",
    "coordinates": [
     144.89636018,
     -37.68400386
    ]
   },
   "properties": {
    "name": "280 CARRICK DRIVE GLADSTONE PARK 3043",
    "locID": "LOC000036868526",
    "tech": "FTTP",
    "upgrade": "NULL_NA",
    "gnaf_pid": "GAVIC411456787"
   }
  },
  {
   "type": "Feature",
   "geometry": {
    "type": "Point",
    "coordinates": [
     144.9006566,
     -37.68211508
    ]
   },
   "properties": {
    "name": "UNIT 2, 58 CLARKE DRIVE GLADSTONE PARK 3043",
    "locID": "LOC000092543497",
    "tech": "FTTP",
    "upgrade": "NULL_NA",
    "gnaf_pid": "GAVIC411456788"
   }
  },
  {
   "type": "Feature",
   "geometry": {
    "type": "Point",
    "coordinates": [
     144.89714666,
     -37.69746749
    ]
   },
   "properties": {
    "name": "UNIT 1, 20 GABRIELLE CRESCENT GLADSTONE PARK 3043",
    "locID": "LOC000067710596",
    "tech": "FTTP",
    "upgrade": "NULL_NA",
    "gnaf_pid": "GAVIC411457644"
   }
  },
  {
   "type": "Feature",
   "geometry": {
    "type": "Point",
    "coordinates": [
     144.89737799,
     -37.69679255
    ]
   },
   "properties": {
    "name": "UNIT 2, 13 GABRIELLE CRESCENT GLADSTONE PARK 3043",
    "locID": "LOC000021047343",
    "tech": "FTTP",
    "upgrade": "NULL_NA",
    "gnaf_pid": "GAVIC411458626"
   }
  },
  {
   "type": "Feature",
   "geometry": {
    "type": "Point",
    "coordinates": [
     144.8950817,
     -37.6839803
    ]
   },
   "properties": {
    "name": "43 BERESFORD CRESCENT GLADSTONE PARK 3043",
    "locID": "LOC000092742996",
    "tech": "FTTP",
    "upgrade": "NULL_NA",
    "gnaf_pid": "GAVIC411458674"
   }
  },
  {
   "type": "Feature",
   "geometry": {
    "type": "Point",
    "coordinates": [
     144.88862841,
     -37.6981192
    ]
   },
   "properties": {
    "name": "3 KYLIE PLACE GLADSTONE PARK 3043",
    "locID": "LOC000048714962",
    "tech": "FTTP",
    "upgrade": "NULL_NA",
    "gnaf_pid": "GAVIC411458683"
   }
  },
  {
   "type": "Feature",
   "geometry": {
    "type": "Point",
    "coordinates": [
     144.89687175,
     -37.69784788
    ]
   },
   "properties": {
    "name": "UNIT 2, 96 LENOAK STREET GLADSTONE PARK 3043",
    "locID": "LOC000082417994",
    "tech": "FTTP",
    "upgrade": "NULL_NA",
    "gnaf_pid": "GAVIC411459379"
   }
  },
  {
   "type": "Feature",
   "geometry": {
    "type": "Point",
    "coordinates": [
     144.89235816,
     -37.68725705
    ]
   },
   "properties": {
    "name": "1 WILTSHIRE ROAD GLADSTONE PARK 3043",
    "locID": "LOC000007825707",
    "tech": "FTTP",
    "upgrade": "NULL_NA",
    "gnaf_pid": "GAVIC411461106"
   }
  },
  {
   "type": "Feature",
   "geometry": {
    "type": "Point",
    "coordinates": [
     144.88521629,
     -37.6855791
    ]
   },
   "properties": {
    "name": "8 DOLPHIN COURT GLADSTONE PARK 3043",
    "locID": "LOC000048741171",
    "tech": "FTTP",
    "upgrade": "NULL_NA",
    "gnaf_pid": "GAVIC411461289"
   }
  },
  {
   "type": "Feature",
   "geometry": {
    "type": "Point",
    "coordinates": [
     144.89799283,
     -37.69716011
    ]
   },
   "properties": {
    "name": "UNIT 2, 30 GABRIELLE CRESCENT GLADSTONE PARK 3043",
    "locID": "LOC000020963499",
    "tech": "FTTP",
    "upgrade": "NULL_NA",
    "gnaf_pid": "GAVIC411461409"
   }
  },
  {
   "type": "Feature",
   "geometry": {
    "type": "Point",
    "coordinates": [
     144.89114721,
     -37.68236898
    ]
   },
   "properties": {
    "name": "49 NORTH CIRCULAR ROAD GLADSTONE PARK 3043",
    "locID": "LOC000095916322",
    "tech": "FTTP",
    "upgrade": "NULL_NA",
    "gnaf_pid": "GAVIC411463070"
   }
  },
  {
   "type": "Feature",
   "geometry": {
    "type": "Point",
    "coordinates": [
     144.89638594,
     -37.6964129
    ]
   },
   "properties": {
    "name": "40A VAUCLUSE AVENUE GLADSTONE PARK 3043",
    "locID": "LOC000029261761",
    "tech": "FTTP",
    "upgrade": "NULL_NA",
    "gnaf_pid": "GAVIC411463148"
   }
  },
  {
   "type": "Feature",
   "geometry": {
    "type": "Point",
    "coordinates": [
     144.89547533,
     -37.68409546
    ]
   },
   "properties": {
    "name": "40 BERESFORD CRESCENT GLADSTONE PARK 3043",
    "locID": "LOC000003891295",
    "tech": "FTTP",
    "upgrade": "NULL_NA",
    "gnaf_pid": "GAVIC411463172"
   }
  },
  {
   "type": "Feature",
   "geometry": {
    "type": "Point",
    "coordinates": [
     144.89638594,
     -37.6964129
    ]
   },
   "properties": {
    "name": "40B VAUCLUSE AVENUE GLADSTONE PARK 3043",
    "locID": "LOC000029371815",
    "tech": "FTTP",
    "upgrade": "NULL_NA",
    "gnaf_pid": "GAVIC411464638"
   }
  },
  {
   "type": "Feature",
   "geometry": {
    "type": "Point",
    "coordinates": [
     144.89780098,
     -37.6970806
    ]
   },
   "properties": {
    "name": "UNIT 1, 30 GABRIELLE CRESCENT GLADSTONE PARK 3043",
    "locID": "LOC000021255513",
    "tech": "FTTP",
    "upgrade": "NULL_NA",
    "gnaf_pid": "GAVIC411464643"
   }
  },
  {
   "type": "Feature",
   "geometry": {
    "type": "Point",
    "coordinates": [
     144.89676781,
     -37.69793629
    ]
   },
   "properties": {
    "name": "UNIT 1, 96 LENOAK STREET GLADSTONE PARK 3043",
    "locID": "LOC000081996079",
    "tech": "FTTP",
    "upgrade": "NULL_NA",
    "gnaf_pid": "GAVIC411464664"
   }
  },
  {
   "type": "Feature",
   "geometry": {
    "type": "Point",
    "coordinates": [
     144.888637,
     -37.682107
    ]
   },
   "properties": {
    "name": "10 RODWELL PLACE GLADSTONE PARK 3043",
    "locID": "LOC000100232341",
    "tech": "FTTP",
    "upgrade": "NULL_NA",
    "gnaf_pid": "GAVIC411464772"
   }
  },
  {
   "type": "Feature",
   "geometry": {
    "type": "Point",
    "coordinates": [
     144.89111692,
     -37.68274405
    ]
   },
   "properties": {
    "name": "44 NORTH CIRCULAR ROAD GLADSTONE PARK 3043",
    "locID": "LOC000089712591",
    "tech": "FTTP",
    "upgrade": "NULL_NA",
    "gnaf_pid": "GAVIC411464778"
   }
  },
  {
   "type": "Feature",
   "geometry": {
    "type": "Point",
    "coordinates": [
     144.89185936,
     -37.69165498
    ]
   },
   "properties": {
    "name": "114 SOUTH CIRCULAR ROAD GLADSTONE PARK 3043",
    "locID": "LOC000041275148",
    "tech": "FTTP",
    "upgrade": "NULL_NA",
    "gnaf_pid": "GAVIC411476015"
   }
  },
  {
   "type": "Feature",
   "geometry": {
    "type": "Point",
    "coordinates": [
     144.88911666,
     -37.69758978
    ]
   },
   "properties": {
    "name": "37 SAMARA GROVE GLADSTONE PARK 3043",
    "locID": "LOC000103636382",
    "tech": "FTTP",
    "upgrade": "NULL_NA",
    "gnaf_pid": "GAVIC411476054"
   }
  },
  {
   "type": "Feature",
   "geometry": {
    "type": "Point",
    "coordinates": [
     144.90073492,
     -37.68215252
    ]
   },
   "properties": {
    "name": "58B CLARKE DRIVE GLADSTONE PARK 3043",
    "locID": "LOC000092543497",
    "tech": "FTTP",
    "upgrade": "NULL_NA",
    "gnaf_pid": "GAVIC412957693"
   }
  },
  {
   "type": "Feature",
   "geometry": {
    "type": "Point",
    "coordinates": [
     144.89085804,
     -37.68650897
    ]
   },
   "properties": {
    "name": "2 WOLVERTON DRIVE GLADSTONE PARK 3043",
    "locID": "LOC000100171765",
    "tech": "FTTP",
    "upgrade": "NULL_NA",
    "gnaf_pid": "GAVIC412957783"
   }
  },
  {
   "type": "Feature",
   "geometry": {
    "type": "Point",
    "coordinates": [
     144.897539,
     -37.690107
    ]
   },
   "properties": {
    "name": "193A CARRICK DRIVE GLADSTONE PARK 3043",
    "locID": "LOC000033424768",
    "tech": "FTTP",
    "upgrade": "NULL_NA",
    "gnaf_pid": "GAVIC412957930"
   }
  },
  {
   "type": "Feature",
   "geometry": {
    "type": "Point",
    "coordinates": [
     144.89896108,
     -37.68714955
    ]
   },
   "properties": {
    "name": "236 CARRICK DRIVE GLADSTONE PARK 3043",
    "locID": "LOC000016859599",
    "tech": "FTTP",
    "upgrade": "NULL_NA",
    "gnaf_pid": "GAVIC412957933"
   }
  },
  {
   "type": "Feature",
   "geometry": {
    "type": "Point",
    "coordinates": [
     144.89347256,
     -37.69559811
    ]
   },
   "properties": {
    "name": "129 CARRICK DRIVE GLADSTONE PARK 3043",
    "locID": "LOC000083341592",
    "tech": "FTTP",
    "upgrade": "NULL_NA",
    "gnaf_pid": "GAVIC412957939"
   }
  },
  {
   "type": "Feature",
   "geometry": {
    "type": "Point",
    "coordinates": [
     144.883295,
     -37.688536
    ]
   },
   "properties": {
    "name": "25A GLADSTONE PARK DRIVE GLADSTONE PARK 3043",
    "locID": "LOC000002786441",
    "tech": "FTTP",
    "upgrade": "NULL_NA",
    "gnaf_pid": "GAVIC412958099"
   }
  },
  {
   "type": "Feature",
   "geometry": {
    "type": "Point",
    "coordinates": [
     144.89709421,
     -37.69279069
    ]
   },
   "properties": {
    "name": "2 CRANBROOK COURT GLADSTONE PARK 3043",
    "locID": "ChIJAfNCOkpa1moRf89LFQCFxls",
    "tech": "FTTP",
    "upgrade": "UNKNOWN",
    "gnaf_pid": "GAVIC412961241"
   }
  },
  {
   "type": "Feature",
   "geometry": {
    "type": "Point",
    "coordinates": [
     144.89709421,
     -37.69279069
    ]
   },
   "properties": {
    "name": "15 CRANBROOK COURT GLADSTONE PARK 3043",
    "locID": "ChIJAfNCOkpa1moRIipDeT5wNp0",
    "tech": "FTTP",
    "upgrade": "UNKNOWN",
    "gnaf_pid": "GAVIC412961242"
   }
  },
  {
   "type": "Feature",
   "geometry": {
    "type": "Point",
    "coordinates": [
     144.89709421,
     -37.69279069
    ]
   },
   "properties": {
    "name": "16 CRANBROOK COURT GLADSTONE PARK 3043",
    "locID": "ChIJAfNCOkpa1moRQLFpJdi5uWA",
    "tech": "FTTP",
    "upgrade": "UNKNOWN",
    "gnaf_pid": "GAVIC412961243"
   }
  },
  {
   "type": "Feature",
   "geometry": {
    "type": "Point",
    "coordinates": [
     144.89709421,
     -37.69279069
    ]
   },
   "properties": {
    "name": "17 CRANBROOK COURT GLADSTONE PARK 3043",
    "locID": "ChIJvXRBOkpa1moRRe2Hqkynz3Q",
    "tech": "FTTP",
    "upgrade": "UNKNOWN",
    "gnaf_pid": "GAVIC412961244"
   }
  },
  {
   "type": "Feature",
   "geometry": {
    "type": "Point",
    "coordinates": [
     144.89709421,
     -37.69279069
    ]
   },
   "properties": {
    "name": "18 CRANBROOK COURT GLADSTONE PARK 3043",
    "locID": "ChIJAfNCOkpa1moRZTE_hQrQ-38",
    "tech": "FTTP",
    "upgrade": "UNKNOWN",
    "gnaf_pid": "GAVIC412961245"
   }
  },
  {
   "type": "Feature",
   "geometry": {
    "type": "Point",
    "coordinates": [
     144.88288035,
     -37.68836693
    ]
   },
   "properties": {
    "name": "1 DUDLEY COURT GLADSTONE PARK 3043",
    "locID": "LOC000046778008",
    "tech": "FTTP",
    "upgrade": "NULL_NA",
    "gnaf_pid": "GAVIC412961284"
   }
  },
  {
   "type": "Feature",
   "geometry": {
    "type": "Point",
    "coordinates": [
     144.88936,
     -37.691403
    ]
   },
   "properties": {
    "name": "25B PRIOR AVENUE GLADSTONE PARK 3043",
    "locID": "ChIJn5hCgTNa1moRU_GWIF93dfI",
    "tech": "FTTP",
    "upgrade": "UNKNOWN",
    "gnaf_pid": "GAVIC412962880"
   }
  },
  {
   "type": "Feature",
   "geometry": {
    "type": "Point",
    "coordinates": [
     144.88776,
     -37.694618
    ]
   },
   "properties": {
    "name": "18 ELMHURST ROAD GLADSTONE PARK 3043",
    "locID": "LOC100023361908",
    "tech": "FTTP",
    "upgrade": "NULL_NA",
    "gnaf_pid": "GAVIC412966694"
   }
  },
  {
   "type": "Feature",
   "geometry": {
    "type": "Point",
    "coordinates": [
     144.89233048,
     -37.69667125
    ]
   },
   "properties": {
    "name": "68 ELMHURST ROAD GLADSTONE PARK 3043",
    "locID": "LOC000080691677",
    "tech": "FTTP",
    "upgrade": "NULL_NA",
    "gnaf_pid": "GAVIC412966695"
   }
  },
  {
   "type": "Feature",
   "geometry": {
    "type": "Point",
    "coordinates": [
     144.898863,
     -37.688211
    ]
   },
   "properties": {
    "name": "226A CARRICK DRIVE GLADSTONE PARK 3043",
    "locID": "ChIJt0IInEha1moRGGe68G88Nuo",
    "tech": "FTTP",
    "upgrade": "UNKNOWN",
    "gnaf_pid": "GAVIC412967685"
   }
  },
  {
   "type": "Feature",
   "geometry": {
    "type": "Point",
    "coordinates": [
     144.898863,
     -37.688211
    ]
   },
   "properties": {
    "name": "226B CARRICK DRIVE GLADSTONE PARK 3043",
    "locID": "ChIJt0IInEha1moRNPiraPRTzxA",
    "tech": "FTTP",
    "upgrade": "UNKNOWN",
    "gnaf_pid": "GAVIC412967686"
   }
  },
  {
   "type": "Feature",
   "geometry": {
    "type": "Point",
    "coordinates": [
     144.89420699,
     -37.68243266
    ]
   },
   "properties": {
    "name": "9-11 CLAREDALE AVENUE GLADSTONE PARK 3043",
    "locID": "LOC000048686857",
    "tech": "FTTP",
    "upgrade": "NULL_NA",
    "gnaf_pid": "GAVIC412974626"
   }
  },
  {
   "type": "Feature",
   "geometry": {
    "type": "Point",
    "coordinates": [
     144.89704949,
     -37.69799245
    ]
   },
   "properties": {
    "name": "UNIT 5, 96 LENOAK STREET GLADSTONE PARK 3043",
    "locID": "LOC000082034120",
    "tech": "FTTP",
    "upgrade": "NULL_NA",
    "gnaf_pid": "GAVIC412977412"
   }
  },
  {
   "type": "Feature",
   "geometry": {
    "type": "Point",
    "coordinates": [
     144.89693491,
     -37.69807978
    ]
   },
   "properties": {
    "name": "UNIT 6, 96 LENOAK STREET GLADSTONE PARK 3043",
    "locID": "LOC000082331974",
    "tech": "FTTP",
    "upgrade": "NULL_NA",
    "gnaf_pid": "GAVIC412977413"
   }
  },
  {
   "type": "Feature",
   "geometry": {
    "type": "Point",
    "coordinates": [
     144.89677181,
     -37.69815135
    ]
   },
   "properties": {
    "name": "UNIT 7, 96 LENOAK STREET GLADSTONE PARK 3043",
    "locID": "LOC000082504046",
    "tech": "FTTP",
    "upgrade": "NULL_NA",
    "gnaf_pid": "GAVIC412977414"
   }
  },
  {
   "type": "Feature",
   "geometry": {
    "type": "Point",
    "coordinates": [
     144.88956215,
     -37.68908153
    ]
   },
   "properties": {
    "name": "14-36 TAYLOR DRIVE GLADSTONE PARK 3043",
    "locID": "LOC000016910273",
    "tech": "FTTP",
    "upgrade": "NULL_NA",
    "gnaf_pid": "GAVIC412979346"
   }
  },
  {
   "type": "Feature",
   "geometry": {
    "type": "Point",
    "coordinates": [
     144.88872406,
     -37.68880556
    ]
   },
   "properties": {
    "name": "91 TAYLOR DRIVE GLADSTONE PARK 3043",
    "locID": "LOC000095492943",
    "tech": "FTTP",
    "upgrade": "NULL_NA",
    "gnaf_pid": "GAVIC412979347"
   }
  },
  {
   "type": "Feature",
   "geometry": {
    "type": "Point",
    "coordinates": [
     144.89643594,
     -37.69327662
    ]
   },
   "properties": {
    "name": "2 MIDWAY CLOSE GLADSTONE PARK 3043",
    "locID": "ChIJm2fxaUpa1moRPG_4RFBMj5o",
    "tech": "FTTP",
    "upgrade": "UNKNOWN",
    "gnaf_pid": "GAVIC412980055"
   }
  },
  {
   "type": "Feature",
   "geometry": {
    "type": "Point",
    "coordinates": [
     144.89089708,
     -37.69939196
    ]
   },
   "properties": {
    "name": "21 TECOMA COURT GLADSTONE PARK 3043",
    "locID": "ChIJ6TC0X8lb1moRlLzomj3s5C4",
    "tech": "FTTP",
    "upgrade": "UNKNOWN",
    "gnaf_pid": "GAVIC412980257"
   }
  },
  {
   "type": "Feature",
   "geometry": {
    "type": "Point",
    "coordinates": [
     144.89975451,
     -37.69179259
    ]
   },
   "properties": {
    "name": "10 ORMSBY CLOSE GLADSTONE PARK 3043",
    "locID": "ChIJtQp3R0la1moRtwakTp7U6hM",
    "tech": "FTTP",
    "upgrade": "UNKNOWN",
    "gnaf_pid": "GAVIC412984604"
   }
  },
  {
   "type": "Feature",
   "geometry": {
    "type": "Point",
    "coordinates": [
     144.892445,
     -37.686159
    ]
   },
   "properties": {
    "name": "5 CALSHOT GROVE GLADSTONE PARK 3043",
    "locID": "LOC000057981405",
    "tech": "FTTP",
    "upgrade": "NULL_NA",
    "gnaf_pid": "GAVIC419607393"
   }
  },
  {
   "type": "Feature",
   "geometry": {
    "type": "Point",
    "coordinates": [
     144.892279,
     -37.686426
    ]
   },
   "properties": {
    "name": "6 CALSHOT GROVE GLADSTONE PARK 3043",
    "locID": "LOC000057756589",
    "tech": "FTTP",
    "upgrade": "NULL_NA",
    "gnaf_pid": "GAVIC419607394"
   }
  },
  {
   "type": "Feature",
   "geometry": {
    "type": "Point",
    "coordinates": [
     144.892677,
     -37.686397
    ]
   },
   "properties": {
    "name": "9 CALSHOT GROVE GLADSTONE PARK 3043",
    "locID": "LOC000093556521",
    "tech": "FTTP",
    "upgrade": "NULL_NA",
    "gnaf_pid": "GAVIC419607395"
   }
  },
  {
   "type": "Feature",
   "geometry": {
    "type": "Point",
    "coordinates": [
     144.892644,
     -37.686766
    ]
   },
   "properties": {
    "name": "12 CALSHOT GROVE GLADSTONE PARK 3043",
    "locID": "LOC000063575647",
    "tech": "FTTP",
    "upgrade": "NULL_NA",
    "gnaf_pid": "GAVIC419607396"
   }
  },
  {
   "type": "Feature",
   "geometry": {
    "type": "Point",
    "coordinates": [
     144.893579,
     -37.691397
    ]
   },
   "properties": {
    "name": "3 BAXTER CLOSE GLADSTONE PARK 3043",
    "locID": "LOC000070413634",
    "tech": "FTTP",
    "upgrade": "NULL_NA",
    "gnaf_pid": "GAVIC419607581"
   }
  },
  {
   "type": "Feature",
   "geometry": {
    "type": "Point",
    "coordinates": [
     144.89393,
     -37.691412
    ]
   },
   "properties": {
    "name": "4 BAXTER CLOSE GLADSTONE PARK 3043",
    "locID": "LOC000086365533",
    "tech": "FTTP",
    "upgrade": "NULL_NA",
    "gnaf_pid": "GAVIC419607582"
   }
  },
  {
   "type": "Feature",
   "geometry": {
    "type": "Point",
    "coordinates": [
     144.89428,
     -37.689445
    ]
   },
   "properties": {
    "name": "8 ABINGER COURT GLADSTONE PARK 3043",
    "locID": "LOC000080028891",
    "tech": "FTTP",
    "upgrade": "NULL_NA",
    "gnaf_pid": "GAVIC419608292"
   }
  },
  {
   "type": "Feature",
   "geometry": {
    "type": "Point",
    "coordinates": [
     144.891434,
     -37.68742
    ]
   },
   "properties": {
    "name": "5 ADRIAN COURT GLADSTONE PARK 3043",
    "locID": "LOC000067233130",
    "tech": "FTTP",
    "upgrade": "NULL_NA",
    "gnaf_pid": "GAVIC419608299"
   }
  },
  {
   "type": "Feature",
   "geometry": {
    "type": "Point",
    "coordinates": [
     144.89488959,
     -37.68357342
    ]
   },
   "properties": {
    "name": "300 CARRICK DRIVE GLADSTONE PARK 3043",
    "locID": "ChIJXwa0UEda1moRCv1i2_0XOiI",
    "tech": "HFC",
    "upgrade": "UNKNOWN",
    "gnaf_pid": "GAVIC419610824"
   }
  },
  {
   "type": "Feature",
   "geometry": {
    "type": "Point",
    "coordinates": [
     144.890395,
     -37.699747
    ]
   },
   "properties": {
    "name": "13 TECOMA COURT GLADSTONE PARK 3043",
    "locID": "LOC000076152734",
    "tech": "FTTP",
    "upgrade": "NULL_NA",
    "gnaf_pid": "GAVIC419610828"
   }
  },
  {
   "type": "Feature",
   "geometry": {
    "type": "Point",
    "coordinates": [
     144.886859,
     -37.682991
    ]
   },
   "properties": {
    "name": "UNIT 2, 22 OSBORNE AVENUE GLADSTONE PARK 3043",
    "locID": "LOC000097274807",
    "tech": "FTTP",
    "upgrade": "NULL_NA",
    "gnaf_pid": "GAVIC419615415"
   }
  },
  {
   "type": "Feature",
   "geometry": {
    "type": "Point",
    "coordinates": [
     144.898899,
     -37.696283
    ]
   },
   "properties": {
    "name": "UNIT 1, 48 GABRIELLE CRESCENT GLADSTONE PARK 3043",
    "locID": "LOC000080549555",
    "tech": "FTTP",
    "upgrade": "NULL_NA",
    "gnaf_pid": "GAVIC419617010"
   }
  },
  {
   "type": "Feature",
   "geometry": {
    "type": "Point",
    "coordinates": [
     144.890354,
     -37.693538
    ]
   },
   "properties": {
    "name": "5 ARCHER COURT GLADSTONE PARK 3043",
    "locID": "LOC000038632159",
    "tech": "FTTP",
    "upgrade": "NULL_NA",
    "gnaf_pid": "GAVIC419618166"
   }
  },
  {
   "type": "Feature",
   "geometry": {
    "type": "Point",
    "coordinates": [
     144.89069,
     -37.693283
    ]
   },
   "properties": {
    "name": "10 ARCHER COURT GLADSTONE PARK 3043",
    "locID": "LOC000035953066",
    "tech": "FTTP",
    "upgrade": "NULL_NA",
    "gnaf_pid": "GAVIC419618167"
   }
  },
  {
   "type": "Feature",
   "geometry": {
    "type": "Point",
    "coordinates": [
     144.892377,
     -37.685364
    ]
   },
   "properties": {
    "name": "1 ARDOCH COURT GLADSTONE PARK 3043",
    "locID": "LOC000045787621",
    "tech": "FTTP",
    "upgrade": "NULL_NA",
    "gnaf_pid": "GAVIC419618169"
   }
  },
  {
   "type": "Feature",
   "geometry": {
    "type": "Point",
    "coordinates": [
     144.895807,
     -37.694419
    ]
   },
   "properties": {
    "name": "3 BURBANK AVENUE GLADSTONE PARK 3043",
    "locID": "LOC000101303905",
    "tech": "FTTP",
    "upgrade": "NULL_NA",
    "gnaf_pid": "GAVIC419619009"
   }
  },
  {
   "type": "Feature",
   "geometry": {
    "type": "Point",
    "coordinates": [
     144.896371,
     -37.694114
    ]
   },
   "properties": {
    "name": "10 BURBANK AVENUE GLADSTONE PARK 3043",
    "locID": "LOC000058194007",
    "tech": "FTTP",
    "upgrade": "NULL_NA",
    "gnaf_pid": "GAVIC419619010"
   }
  },
  {
   "type": "Feature",
   "geometry": {
    "type": "Point",
    "coordinates": [
     144.896822,
     -37.693798
    ]
   },
   "properties": {
    "name": "16 BURBANK AVENUE GLADSTONE PARK 3043",
    "locID": "LOC000044854371",
    "tech": "FTTP",
    "upgrade": "NULL_NA",
    "gnaf_pid": "GAVIC419619011"
   }
  },
  {
   "type": "Feature",
   "geometry": {
    "type": "Point",
    "coordinates": [
     144.896799,
     -37.69341
    ]
   },
   "properties": {
    "name": "17 BURBANK AVENUE GLADSTONE PARK 3043",
    "locID": "LOC000074075971",
    "tech": "FTTP",
    "upgrade": "NULL_NA",
    "gnaf_pid": "GAVIC419619012"
   }
  },
  {
   "type": "Feature",
   "geometry": {
    "type": "Point",
    "coordinates": [
     144.897168,
     -37.693597
    ]
   },
   "properties": {
    "name": "20 BURBANK AVENUE GLADSTONE PARK 3043",
    "locID": "LOC000063703983",
    "tech": "FTTP",
    "upgrade": "NULL_NA",
    "gnaf_pid": "GAVIC419619013"
   }
  },
  {
   "type": "Feature",
   "geometry": {
    "type": "Point",
    "coordinates": [
     144.897341,
     -37.693492
    ]
   },
   "properties": {
    "name": "22 BURBANK AVENUE GLADSTONE PARK 3043",
    "locID": "LOC000022733953",
    "tech": "FTTP",
    "upgrade": "NULL_NA",
    "gnaf_pid": "GAVIC419619014"
   }
  },
  {
   "type": "Feature",
   "geometry": {
    "type": "Point",
    "coordinates": [
     144.894338,
     -37.687797
    ]
   },
   "properties": {
    "name": "6 BURGESS CLOSE GLADSTONE PARK 3043",
    "locID": "LOC000091091230",
    "tech": "FTTP",
    "upgrade": "NULL_NA",
    "gnaf_pid": "GAVIC419619015"
   }
  },
  {
   "type": "Feature",
   "geometry": {
    "type": "Point",
    "coordinates": [
     144.889484,
     -37.694225
    ]
   },
   "properties": {
    "name": "14 BURNLEIGH DRIVE GLADSTONE PARK 3043",
    "locID": "LOC000063593113",
    "tech": "FTTP",
    "upgrade": "NULL_NA",
    "gnaf_pid": "GAVIC419619016"
   }
  },
  {
   "type": "Feature",
   "geometry": {
    "type": "Point",
    "coordinates": [
     144.888671,
     -37.684505
    ]
   },
   "properties": {
    "name": "2 BYFIELD CLOSE GLADSTONE PARK 3043",
    "locID": "LOC000051225721",
    "tech": "FTTP",
    "upgrade": "NULL_NA",
    "gnaf_pid": "GAVIC419620808"
   }
  },
  {
   "type": "Feature",
   "geometry": {
    "type": "Point",
    "coordinates": [
     144.888777,
     -37.684363
    ]
   },
   "properties": {
    "name": "4 BYFIELD CLOSE GLADSTONE PARK 3043",
    "locID": "LOC000074341485",
    "tech": "FTTP",
    "upgrade": "NULL_NA",
    "gnaf_pid": "GAVIC419620809"
   }
  },
  {
   "type": "Feature",
   "geometry": {
    "type": "Point",
    "coordinates": [
     144.888909,
     -37.683698
    ]
   },
   "properties": {
    "name": "9 BYFIELD CLOSE GLADSTONE PARK 3043",
    "locID": "LOC000066276435",
    "tech": "FTTP",
    "upgrade": "NULL_NA",
    "gnaf_pid": "GAVIC419620810"
   }
  },
  {
   "type": "Feature",
   "geometry": {
    "type": "Point",
    "coordinates": [
     144.888217,
     -37.690904
    ]
   },
   "properties": {
    "name": "39 PRIOR AVENUE GLADSTONE PARK 3043",
    "locID": "LOC000065575201",
    "tech": "FTTP",
    "upgrade": "NULL_NA",
    "gnaf_pid": "GAVIC419621489"
   }
  },
  {
   "type": "Feature",
   "geometry": {
    "type": "Point",
    "coordinates": [
     144.887214,
     -37.68949
    ]
   },
   "properties": {
    "name": "61 PRIOR AVENUE GLADSTONE PARK 3043",
    "locID": "LOC000031178381",
    "tech": "FTTP",
    "upgrade": "NULL_NA",
    "gnaf_pid": "GAVIC419621490"
   }
  },
  {
   "type": "Feature",
   "geometry": {
    "type": "Point",
    "coordinates": [
     144.887052,
     -37.689216
    ]
   },
   "properties": {
    "name": "65 PRIOR AVENUE GLADSTONE PARK 3043",
    "locID": "LOC000074253848",
    "tech": "FTTP",
    "upgrade": "NULL_NA",
    "gnaf_pid": "GAVIC419621491"
   }
  },
  {
   "type": "Feature",
   "geometry": {
    "type": "Point",
    "coordinates": [
     144.898594,
     -37.689702
    ]
   },
   "properties": {
    "name": "1 PYKE DRIVE GLADSTONE PARK 3043",
    "locID": "LOC000076851873",
    "tech": "FTTP",
    "upgrade": "NULL_NA",
    "gnaf_pid": "GAVIC419621501"
   }
  },
  {
   "type": "Feature",
   "geometry": {
    "type": "Point",
    "coordinates": [
     144.898382,
     -37.689977
    ]
   },
   "properties": {
    "name": "2 PYKE DRIVE GLADSTONE PARK 3043",
    "locID": "LOC000036815065",
    "tech": "FTTP",
    "upgrade": "NULL_NA",
    "gnaf_pid": "GAVIC419621502"
   }
  },
  {
   "type": "Feature",
   "geometry": {
    "type": "Point",
    "coordinates": [
     144.886329,
     -37.689906
    ]
   },
   "properties": {
    "name": "44 SOUTH CIRCULAR ROAD GLADSTONE PARK 3043",
    "locID": "LOC000073013975",
    "tech": "FTTP",
    "upgrade": "NULL_NA",
    "gnaf_pid": "GAVIC419621557"
   }
  },
  {
   "type": "Feature",
   "geometry": {
    "type": "Point",
    "coordinates": [
     144.886983,
     -37.690837
    ]
   },
   "properties": {
    "name": "58 SOUTH CIRCULAR ROAD GLADSTONE PARK 3043",
    "locID": "LOC000101635760",
    "tech": "FTTP",
    "upgrade": "NULL_NA",
    "gnaf_pid": "GAVIC419621558"
   }
  },
  {
   "type": "Feature",
   "geometry": {
    "type": "Point",
    "coordinates": [
     144.887415,
     -37.690791
    ]
   },
   "properties": {
    "name": "59 SOUTH CIRCULAR ROAD GLADSTONE PARK 3043",
    "locID": "LOC000100462456",
    "tech": "FTTP",
    "upgrade": "NULL_NA",
    "gnaf_pid": "GAVIC419621559"
   }
  },
  {
   "type": "Feature",
   "geometry": {
    "type": "Point",
    "coordinates": [
     144.888546,
     -37.692091
    ]
   },
   "properties": {
    "name": "80 SOUTH CIRCULAR ROAD GLADSTONE PARK 3043",
    "locID": "LOC000018581073",
    "tech": "FTTP",
    "upgrade": "NULL_NA",
    "gnaf_pid": "GAVIC419621560"
   }
  },
  {
   "type": "Feature",
   "geometry": {
    "type": "Point",
    "coordinates": [
     144.888984,
     -37.691864
    ]
   },
   "properties": {
    "name": "81 SOUTH CIRCULAR ROAD GLADSTONE PARK 3043",
    "locID": "LOC000017059254",
    "tech": "FTTP",
    "upgrade": "NULL_NA",
    "gnaf_pid": "GAVIC419621561"
   }
  },
  {
   "type": "Feature",
   "geometry": {
    "type": "Point",
    "coordinates": [
     144.889165,
     -37.691868
    ]
   },
   "properties": {
    "name": "83 SOUTH CIRCULAR ROAD GLADSTONE PARK 3043",
    "locID": "LOC000103348788",
    "tech": "FTTP",
    "upgrade": "NULL_NA",
    "gnaf_pid": "GAVIC419621562"
   }
  },
  {
   "type": "Feature",
   "geometry": {
    "type": "Point",
    "coordinates": [
     144.888906,
     -37.692187
    ]
   },
   "properties": {
    "name": "84 SOUTH CIRCULAR ROAD GLADSTONE PARK 3043",
    "locID": "LOC000034218249",
    "tech": "FTTP",
    "upgrade": "NULL_NA",
    "gnaf_pid": "GAVIC419621563"
   }
  },
  {
   "type": "Feature",
   "geometry": {
    "type": "Point",
    "coordinates": [
     144.89034,
     -37.692042
    ]
   },
   "properties": {
    "name": "98 SOUTH CIRCULAR ROAD GLADSTONE PARK 3043",
    "locID": "LOC000020325237",
    "tech": "FTTP",
    "upgrade": "NULL_NA",
    "gnaf_pid": "GAVIC419621566"
   }
  },
  {
   "type": "Feature",
   "geometry": {
    "type": "Point",
    "coordinates": [
     144.89162,
     -37.691686
    ]
   },
   "properties": {
    "name": "112 SOUTH CIRCULAR ROAD GLADSTONE PARK 3043",
    "locID": "LOC000004413707",
    "tech": "FTTP",
    "upgrade": "NULL_NA",
    "gnaf_pid": "GAVIC419621568"
   }
  },
  {
   "type": "Feature",
   "geometry": {
    "type": "Point",
    "coordinates": [
     144.893179,
     -37.691489
    ]
   },
   "properties": {
    "name": "121 SOUTH CIRCULAR ROAD GLADSTONE PARK 3043",
    "locID": "LOC000079727584",
    "tech": "FTTP",
    "upgrade": "NULL_NA",
    "gnaf_pid": "GAVIC419621569"
   }
  },
  {
   "type": "Feature",
   "geometry": {
    "type": "Point",
    "coordinates": [
     144.893504,
     -37.692432
    ]
   },
   "properties": {
    "name": "18 HARCOURT CRESCENT GLADSTONE PARK 3043",
    "locID": "LOC000100330895",
    "tech": "FTTP",
    "upgrade": "NULL_NA",
    "gnaf_pid": "GAVIC419621613"
   }
  },
  {
   "type": "Feature",
   "geometry": {
    "type": "Point",
    "coordinates": [
     144.884156,
     -37.683361
    ]
   },
   "properties": {
    "name": "3 INN COURT GLADSTONE PARK 3043",
    "locID": "LOC000075775800",
    "tech": "FTTP",
    "upgrade": "NULL_NA",
    "gnaf_pid": "GAVIC419621627"
   }
  },
  {
   "type": "Feature",
   "geometry": {
    "type": "Point",
    "coordinates": [
     144.883915,
     -37.683059
    ]
   },
   "properties": {
    "name": "4 INN COURT GLADSTONE PARK 3043",
    "locID": "LOC000088909920",
    "tech": "FTTP",
    "upgrade": "NULL_NA",
    "gnaf_pid": "GAVIC419621628"
   }
  },
  {
   "type": "Feature",
   "geometry": {
    "type": "Point",
    "coordinates": [
     144.883742,
     -37.683164
    ]
   },
   "properties": {
    "name": "6 INN COURT GLADSTONE PARK 3043",
    "locID": "LOC000054268713",
    "tech": "FTTP",
    "upgrade": "NULL_NA",
    "gnaf_pid": "GAVIC419621629"
   }
  },
  {
   "type": "Feature",
   "geometry": {
    "type": "Point",
    "coordinates": [
     144.891255,
     -37.692148
    ]
   },
   "properties": {
    "name": "8 ELIZA COURT GLADSTONE PARK 3043",
    "locID": "LOC000032784675",
    "tech": "FTTP",
    "upgrade": "NULL_NA",
    "gnaf_pid": "GAVIC419621639"
   }
  },
  {
   "type": "Feature",
   "geometry": {
    "type": "Point",
    "coordinates": [
     144.884989,
     -37.68397
    ]
   },
   "properties": {
    "name": "1 MOOAR COURT GLADSTONE PARK 3043",
    "locID": "LOC000092155677",
    "tech": "FTTP",
    "upgrade": "NULL_NA",
    "gnaf_pid": "GAVIC419621646"
   }
  },
  {
   "type": "Feature",
   "geometry": {
    "type": "Point",
    "coordinates": [
     144.88483,
     -37.684004
    ]
   },
   "properties": {
    "name": "3 MOOAR COURT GLADSTONE PARK 3043",
    "locID": "LOC000069143794",
    "tech": "FTTP",
    "upgrade": "NULL_NA",
    "gnaf_pid": "GAVIC419621647"
   }
  },
  {
   "type": "Feature",
   "geometry": {
    "type": "Point",
    "coordinates": [
     144.887138,
     -37.695364
    ]
   },
   "properties": {
    "name": "8 WINSLOW COURT GLADSTONE PARK 3043",
    "locID": "LOC000059177416",
    "tech": "FTTP",
    "upgrade": "NULL_NA",
    "gnaf_pid": "GAVIC419621803"
   }
  },
  {
   "type": "Feature",
   "geometry": {
    "type": "Point",
    "coordinates": [
     144.888904,
     -37.697883
    ]
   },
   "properties": {
    "name": "34 SAMARA GROVE GLADSTONE PARK 3043",
    "locID": "LOC000009343417",
    "tech": "FTTP",
    "upgrade": "NULL_NA",
    "gnaf_pid": "GAVIC419622128"
   }
  },
  {
   "type": "Feature",
   "geometry": {
    "type": "Point",
    "coordinates": [
     144.890442,
     -37.681617
    ]
   },
   "properties": {
    "name": "3 DRAKE CLOSE GLADSTONE PARK 3043",
    "locID": "LOC000105811445",
    "tech": "FTTP",
    "upgrade": "NULL_NA",
    "gnaf_pid": "GAVIC419622157"
   }
  },
  {
   "type": "Feature",
   "geometry": {
    "type": "Point",
    "coordinates": [
     144.894019,
     -37.695063
    ]
   },
   "properties": {
    "name": "130 CARRICK DRIVE GLADSTONE PARK 3043",
    "locID": "LOC000072581531",
    "tech": "FTTP",
    "upgrade": "NULL_NA",
    "gnaf_pid": "GAVIC419622304"
   }
  },
  {
   "type": "Feature",
   "geometry": {
    "type": "Point",
    "coordinates": [
     144.89486,
     -37.693393
    ]
   },
   "properties": {
    "name": "150 CARRICK DRIVE GLADSTONE PARK 3043",
    "locID": "LOC000080953901",
    "tech": "FTTP",
    "upgrade": "NULL_NA",
    "gnaf_pid": "GAVIC419622305"
   }
  },
  {
   "type": "Feature",
   "geometry": {
    "type": "Point",
    "coordinates": [
     144.894478,
     -37.693287
    ]
   },
   "properties": {
    "name": "151 CARRICK DRIVE GLADSTONE PARK 3043",
    "locID": "LOC000048840577",
    "tech": "FTTP",
    "upgrade": "NULL_NA",
    "gnaf_pid": "GAVIC419622306"
   }
  },
  {
   "type": "Feature",
   "geometry": {
    "type": "Point",
    "coordinates": [
     144.895306,
     -37.692861
    ]
   },
   "properties": {
    "name": "158 CARRICK DRIVE GLADSTONE PARK 3043",
    "locID": "LOC000048818783",
    "tech": "FTTP",
    "upgrade": "NULL_NA",
    "gnaf_pid": "GAVIC419622307"
   }
  },
  {
   "type": "Feature",
   "geometry": {
    "type": "Point",
    "coordinates": [
     144.896649,
     -37.691091
    ]
   },
   "properties": {
    "name": "181 CARRICK DRIVE GLADSTONE PARK 3043",
    "locID": "LOC000011826424",
    "tech": "FTTP",
    "upgrade": "NULL_NA",
    "gnaf_pid": "GAVIC419622308"
   }
  },
  {
   "type": "Feature",
   "geometry": {
    "type": "Point",
    "coordinates": [
     144.897287,
     -37.690994
    ]
   },
   "properties": {
    "name": "186 CARRICK DRIVE GLADSTONE PARK 3043",
    "locID": "LOC000002836805",
    "tech": "FTTP",
    "upgrade": "NULL_NA",
    "gnaf_pid": "GAVIC419622309"
   }
  },
  {
   "type": "Feature",
   "geometry": {
    "type": "Point",
    "coordinates": [
     144.89766,
     -37.690622
    ]
   },
   "properties": {
    "name": "192 CARRICK DRIVE GLADSTONE PARK 3043",
    "locID": "LOC000101225520",
    "tech": "FTTP",
    "upgrade": "NULL_NA",
    "gnaf_pid": "GAVIC419622310"
   }
  },
  {
   "type": "Feature",
   "geometry": {
    "type": "Point",
    "coordinates": [
     144.898068,
     -37.69026
    ]
   },
   "properties": {
    "name": "198 CARRICK DRIVE GLADSTONE PARK 3043",
    "locID": "LOC000029325734",
    "tech": "FTTP",
    "upgrade": "NULL_NA",
    "gnaf_pid": "GAVIC419622311"
   }
  },
  {
   "type": "Feature",
   "geometry": {
    "type": "Point",
    "coordinates": [
     144.898545,
     -37.687394
    ]
   },
   "properties": {
    "name": "235 CARRICK DRIVE GLADSTONE PARK 3043",
    "locID": "LOC000042515908",
    "tech": "FTTP",
    "upgrade": "NULL_NA",
    "gnaf_pid": "GAVIC419622312"
   }
  },
  {
   "type": "Feature",
   "geometry": {
    "type": "Point",
    "coordinates": [
     144.89818,
     -37.686288
    ]
   },
   "properties": {
    "name": "247 CARRICK DRIVE GLADSTONE PARK 3043",
    "locID": "LOC000027784725",
    "tech": "FTTP",
    "upgrade": "NULL_NA",
    "gnaf_pid": "GAVIC419622313"
   }
  },
  {
   "type": "Feature",
   "geometry": {
    "type": "Point",
    "coordinates": [
     144.898219,
     -37.685685
    ]
   },
   "properties": {
    "name": "252 CARRICK DRIVE GLADSTONE PARK 3043",
    "locID": "LOC000048347232",
    "tech": "FTTP",
    "upgrade": "NULL_NA",
    "gnaf_pid": "GAVIC419622314"
   }
  },
  {
   "type": "Feature",
   "geometry": {
    "type": "Point",
    "coordinates": [
     144.897686,
     -37.6849
    ]
   },
   "properties": {
    "name": "262 CARRICK DRIVE GLADSTONE PARK 3043",
    "locID": "LOC000034934741",
    "tech": "FTTP",
    "upgrade": "NULL_NA",
    "gnaf_pid": "GAVIC419622315"
   }
  },
  {
   "type": "Feature",
   "geometry": {
    "type": "Point",
    "coordinates": [
     144.897466,
     -37.684653
    ]
   },
   "properties": {
    "name": "266 CARRICK DRIVE GLADSTONE PARK 3043",
    "locID": "LOC000095347442",
    "tech": "FTTP",
    "upgrade": "NULL_NA",
    "gnaf_pid": "GAVIC419622316"
   }
  },
  {
   "type": "Feature",
   "geometry": {
    "type": "Point",
    "coordinates": [
     144.895811,
     -37.68384
    ]
   },
   "properties": {
    "name": "282 CARRICK DRIVE GLADSTONE PARK 3043",
    "locID": "LOC000070773250",
    "tech": "FTTP",
    "upgrade": "NULL_NA",
    "gnaf_pid": "GAVIC419622317"
   }
  },
  {
   "type": "Feature",
   "geometry": {
    "type": "Point",
    "coordinates": [
     144.89669,
     -37.688848
    ]
   },
   "properties": {
    "name": "6 ALISON CLOSE GLADSTONE PARK 3043",
    "locID": "LOC000103031989",
    "tech": "FTTP",
    "upgrade": "NULL_NA",
    "gnaf_pid": "GAVIC419622342"
   }
  },
  {
   "type": "Feature",
   "geometry": {
    "type": "Point",
    "coordinates": [
     144.898784,
     -37.689786
    ]
   },
   "properties": {
    "name": "3 PYKE DRIVE GLADSTONE PARK 3043",
    "locID": "LOC000076404934",
    "tech": "FTTP",
    "upgrade": "NULL_NA",
    "gnaf_pid": "GAVIC419622344"
   }
  },
  {
   "type": "Feature",
   "geometry": {
    "type": "Point",
    "coordinates": [
     144.898785,
     -37.690156
    ]
   },
   "properties": {
    "name": "6 PYKE DRIVE GLADSTONE PARK 3043",
    "locID": "LOC000016085453",
    "tech": "FTTP",
    "upgrade": "NULL_NA",
    "gnaf_pid": "GAVIC419622345"
   }
  },
  {
   "type": "Feature",
   "geometry": {
    "type": "Point",
    "coordinates": [
     144.892575,
     -37.693992
    ]
   },
   "properties": {
    "name": "11 SHERBOURNE ROAD GLADSTONE PARK 3043",
    "locID": "LOC000106249970",
    "tech": "FTTP",
    "upgrade": "NULL_NA",
    "gnaf_pid": "GAVIC419622348"
   }
  },
  {
   "type": "Feature",
   "geometry": {
    "type": "Point",
    "coordinates": [
     144.899136,
     -37.687756
    ]
   },
   "properties": {
    "name": "4 HENLEY DRIVE GLADSTONE PARK 3043",
    "locID": "LOC000032825071",
    "tech": "FTTP",
    "upgrade": "NULL_NA",
    "gnaf_pid": "GAVIC419622454"
   }
  },
  {
   "type": "Feature",
   "geometry": {
    "type": "Point",
    "coordinates": [
     144.899529,
     -37.687502
    ]
   },
   "properties": {
    "name": "5 HENLEY DRIVE GLADSTONE PARK 3043",
    "locID": "LOC000045738227",
    "tech": "FTTP",
    "upgrade": "NULL_NA",
    "gnaf_pid": "GAVIC419622455"
   }
  },
  {
   "type": "Feature",
   "geometry": {
    "type": "Point",
    "coordinates": [
     144.899498,
     -37.687789
    ]
   },
   "properties": {
    "name": "8 HENLEY DRIVE GLADSTONE PARK 3043",
    "locID": "LOC000083519026",
    "tech": "FTTP",
    "upgrade": "NULL_NA",
    "gnaf_pid": "GAVIC419622456"
   }
  },
  {
   "type": "Feature",
   "geometry": {
    "type": "Point",
    "coordinates": [
     144.900339,
     -37.687318
    ]
   },
   "properties": {
    "name": "20 HENLEY DRIVE GLADSTONE PARK 3043",
    "locID": "LOC000096665515",
    "tech": "FTTP",
    "upgrade": "NULL_NA",
    "gnaf_pid": "GAVIC419622457"
   }
  },
  {
   "type": "Feature",
   "geometry": {
    "type": "Point",
    "coordinates": [
     144.900559,
     -37.68597
    ]
   },
   "properties": {
    "name": "38 HENLEY DRIVE GLADSTONE PARK 3043",
    "locID": "LOC000060548657",
    "tech": "FTTP",
    "upgrade": "NULL_NA",
    "gnaf_pid": "GAVIC419622458"
   }
  },
  {
   "type": "Feature",
   "geometry": {
    "type": "Point",
    "coordinates": [
     144.884501,
     -37.689594
    ]
   },
   "properties": {
    "name": "15 GLADSTONE PARK DRIVE GLADSTONE PARK 3043",
    "locID": "LOC000010140189",
    "tech": "FTTP",
    "upgrade": "NULL_NA",
    "gnaf_pid": "GAVIC419622492"
   }
  },
  {
   "type": "Feature",
   "geometry": {
    "type": "Point",
    "coordinates": [
     144.88387,
     -37.689051
    ]
   },
   "properties": {
    "name": "21 GLADSTONE PARK DRIVE GLADSTONE PARK 3043",
    "locID": "LOC000012938753",
    "tech": "FTTP",
    "upgrade": "NULL_NA",
    "gnaf_pid": "GAVIC419622493"
   }
  },
  {
   "type": "Feature",
   "geometry": {
    "type": "Point",
    "coordinates": [
     144.893387,
     -37.700558
    ]
   },
   "properties": {
    "name": "48 LENOAK STREET GLADSTONE PARK 3043",
    "locID": "LOC000031798252",
    "tech": "FTTP",
    "upgrade": "NULL_NA",
    "gnaf_pid": "GAVIC419622527"
   }
  },
  {
   "type": "Feature",
   "geometry": {
    "type": "Point",
    "coordinates": [
     144.894126,
     -37.698508
    ]
   },
   "properties": {
    "name": "71 LENOAK STREET GLADSTONE PARK 3043",
    "locID": "LOC000007836885",
    "tech": "FTTP",
    "upgrade": "NULL_NA",
    "gnaf_pid": "GAVIC419622528"
   }
  },
  {
   "type": "Feature",
   "geometry": {
    "type": "Point",
    "coordinates": [
     144.894123,
     -37.698201
    ]
   },
   "properties": {
    "name": "75 LENOAK STREET GLADSTONE PARK 3043",
    "locID": "LOC000053065491",
    "tech": "FTTP",
    "upgrade": "NULL_NA",
    "gnaf_pid": "GAVIC419622529"
   }
  },
  {
   "type": "Feature",
   "geometry": {
    "type": "Point",
    "coordinates": [
     144.895345,
     -37.698304
    ]
   },
   "properties": {
    "name": "89 LENOAK STREET GLADSTONE PARK 3043",
    "locID": "LOC000045337833",
    "tech": "FTTP",
    "upgrade": "NULL_NA",
    "gnaf_pid": "GAVIC419622531"
   }
  },
  {
   "type": "Feature",
   "geometry": {
    "type": "Point",
    "coordinates": [
     144.896265,
     -37.698267
    ]
   },
   "properties": {
    "name": "99 LENOAK STREET GLADSTONE PARK 3043",
    "locID": "LOC000048619329",
    "tech": "FTTP",
    "upgrade": "NULL_NA",
    "gnaf_pid": "GAVIC419622532"
   }
  },
  {
   "type": "Feature",
   "geometry": {
    "type": "Point",
    "coordinates": [
     144.893143,
     -37.685549
    ]
   },
   "properties": {
    "name": "1 MAYFAIR CLOSE GLADSTONE PARK 3043",
    "locID": "LOC000038781167",
    "tech": "FTTP",
    "upgrade": "NULL_NA",
    "gnaf_pid": "GAVIC419622535"
   }
  },
  {
   "type": "Feature",
   "geometry": {
    "type": "Point",
    "coordinates": [
     144.893195,
     -37.685721
    ]
   },
   "properties": {
    "name": "3 MAYFAIR CLOSE GLADSTONE PARK 3043",
    "locID": "LOC000034217742",
    "tech": "FTTP",
    "upgrade": "NULL_NA",
    "gnaf_pid": "GAVIC419622536"
   }
  },
  {
   "type": "Feature",
   "geometry": {
    "type": "Point",
    "coordinates": [
     144.892885,
     -37.685869
    ]
   },
   "properties": {
    "name": "4 MAYFAIR CLOSE GLADSTONE PARK 3043",
    "locID": "LOC000048592759",
    "tech": "FTTP",
    "upgrade": "NULL_NA",
    "gnaf_pid": "GAVIC419622537"
   }
  },
  {
   "type": "Feature",
   "geometry": {
    "type": "Point",
    "coordinates": [
     144.893156,
     -37.686289
    ]
   },
   "properties": {
    "name": "10 MAYFAIR CLOSE GLADSTONE PARK 3043",
    "locID": "LOC000107768625",
    "tech": "FTTP",
    "upgrade": "NULL_NA",
    "gnaf_pid": "GAVIC419622538"
   }
  },
  {
   "type": "Feature",
   "geometry": {
    "type": "Point",
    "coordinates": [
     144.890784,
     -37.698755
    ]
   },
   "properties": {
    "name": "5 THE CIRCUIT GLADSTONE PARK 3043",
    "locID": "LOC000016001776",
    "tech": "FTTP",
    "upgrade": "NULL_NA",
    "gnaf_pid": "GAVIC419622569"
   }
  },
  {
   "type": "Feature",
   "geometry": {
    "type": "Point",
    "coordinates": [
     144.889734,
     -37.700592
    ]
   },
   "properties": {
    "name": "35 THE CIRCUIT GLADSTONE PARK 3043",
    "locID": "LOC000102446517",
    "tech": "FTTP",
    "upgrade": "NULL_NA",
    "gnaf_pid": "GAVIC419622570"
   }
  },
  {
   "type": "Feature",
   "geometry": {
    "type": "Point",
    "coordinates": [
     144.898939,
     -37.691537
    ]
   },
   "properties": {
    "name": "9 LEURA COURT GLADSTONE PARK 3043",
    "locID": "LOC000097005499",
    "tech": "FTTP",
    "upgrade": "NULL_NA",
    "gnaf_pid": "GAVIC419622699"
   }
  },
  {
   "type": "Feature",
   "geometry": {
    "type": "Point",
    "coordinates": [
     144.898736,
     -37.691489
    ]
   },
   "properties": {
    "name": "11 LEURA COURT GLADSTONE PARK 3043",
    "locID": "LOC000103711313",
    "tech": "FTTP",
    "upgrade": "NULL_NA",
    "gnaf_pid": "GAVIC419622700"
   }
  },
  {
   "type": "Feature",
   "geometry": {
    "type": "Point",
    "coordinates": [
     144.889453,
     -37.690512
    ]
   },
   "properties": {
    "name": "8 GOODWOOD CRESCENT GLADSTONE PARK 3043",
    "locID": "LOC000085408691",
    "tech": "FTTP",
    "upgrade": "NULL_NA",
    "gnaf_pid": "GAVIC419622717"
   }
  },
  {
   "type": "Feature",
   "geometry": {
    "type": "Point",
    "coordinates": [
     144.889312,
     -37.690293
    ]
   },
   "properties": {
    "name": "12 GOODWOOD CRESCENT GLADSTONE PARK 3043",
    "locID": "LOC000025948771",
    "tech": "FTTP",
    "upgrade": "NULL_NA",
    "gnaf_pid": "GAVIC419622718"
   }
  },
  {
   "type": "Feature",
   "geometry": {
    "type": "Point",
    "coordinates": [
     144.888711,
     -37.689471
    ]
   },
   "properties": {
    "name": "24 GOODWOOD CRESCENT GLADSTONE PARK 3043",
    "locID": "LOC000075976812",
    "tech": "FTTP",
    "upgrade": "NULL_NA",
    "gnaf_pid": "GAVIC419622719"
   }
  },
  {
   "type": "Feature",
   "geometry": {
    "type": "Point",
    "coordinates": [
     144.887687,
     -37.689597
    ]
   },
   "properties": {
    "name": "27 GOODWOOD CRESCENT GLADSTONE PARK 3043",
    "locID": "LOC000028915450",
    "tech": "FTTP",
    "upgrade": "NULL_NA",
    "gnaf_pid": "GAVIC419622720"
   }
  },
  {
   "type": "Feature",
   "geometry": {
    "type": "Point",
    "coordinates": [
     144.894566,
     -37.690964
    ]
   },
   "properties": {
    "name": "5 MYRA COURT GLADSTONE PARK 3043",
    "locID": "LOC000033656231",
    "tech": "FTTP",
    "upgrade": "NULL_NA",
    "gnaf_pid": "GAVIC419622777"
   }
  },
  {
   "type": "Feature",
   "geometry": {
    "type": "Point",
    "coordinates": [
     144.884911,
     -37.681554
    ]
   },
   "properties": {
    "name": "29 SNAEFELL CRESCENT GLADSTONE PARK 3043",
    "locID": "LOC000100581131",
    "tech": "FTTP",
    "upgrade": "NULL_NA",
    "gnaf_pid": "GAVIC419622788"
   }
  },
  {
   "type": "Feature",
   "geometry": {
    "type": "Point",
    "coordinates": [
     144.887549,
     -37.681268
    ]
   },
   "properties": {
    "name": "36 SNAEFELL CRESCENT GLADSTONE PARK 3043",
    "locID": "LOC000087178053",
    "tech": "FTTP",
    "upgrade": "NULL_NA",
    "gnaf_pid": "GAVIC419622789"
   }
  },
  {
   "type": "Feature",
   "geometry": {
    "type": "Point",
    "coordinates": [
     144.885832,
     -37.681057
    ]
   },
   "properties": {
    "name": "41 SNAEFELL CRESCENT GLADSTONE PARK 3043",
    "locID": "LOC000010623725",
    "tech": "FTTP",
    "upgrade": "NULL_NA",
    "gnaf_pid": "GAVIC419622790"
   }
  },
  {
   "type": "Feature",
   "geometry": {
    "type": "Point",
    "coordinates": [
     144.896952,
     -37.68559
    ]
   },
   "properties": {
    "name": "8 OLDFIELD GROVE GLADSTONE PARK 3043",
    "locID": "LOC000088981734",
    "tech": "FTTP",
    "upgrade": "NULL_NA",
    "gnaf_pid": "GAVIC419623190"
   }
  },
  {
   "type": "Feature",
   "geometry": {
    "type": "Point",
    "coordinates": [
     144.897268,
     -37.686046
    ]
   },
   "properties": {
    "name": "9 OLDFIELD GROVE GLADSTONE PARK 3043",
    "locID": "LOC000077032292",
    "tech": "FTTP",
    "upgrade": "NULL_NA",
    "gnaf_pid": "GAVIC419623191"
   }
  },
  {
   "type": "Feature",
   "geometry": {
    "type": "Point",
    "coordinates": [
     144.897977,
     -37.691448
    ]
   },
   "properties": {
    "name": "2 SHELDON COURT GLADSTONE PARK 3043",
    "locID": "LOC000031663360",
    "tech": "FTTP",
    "upgrade": "NULL_NA",
    "gnaf_pid": "GAVIC419623232"
   }
  },
  {
   "type": "Feature",
   "geometry": {
    "type": "Point",
    "coordinates": [
     144.898105,
     -37.691333
    ]
   },
   "properties": {
    "name": "4 SHELDON COURT GLADSTONE PARK 3043",
    "locID": "LOC000192486225",
    "tech": "FTTP",
    "upgrade": "NULL_NA",
    "gnaf_pid": "GAVIC419623233"
   }
  },
  {
   "type": "Feature",
   "geometry": {
    "type": "Point",
    "coordinates": [
     144.893802,
     -37.69433
    ]
   },
   "properties": {
    "name": "1 SHERBOURNE ROAD GLADSTONE PARK 3043",
    "locID": "LOC000075866628",
    "tech": "FTTP",
    "upgrade": "NULL_NA",
    "gnaf_pid": "GAVIC419623239"
   }
  },
  {
   "type": "Feature",
   "geometry": {
    "type": "Point",
    "coordinates": [
     144.889723,
     -37.701403
    ]
   },
   "properties": {
    "name": "50 THE CIRCUIT GLADSTONE PARK 3043",
    "locID": "LOC000074959175",
    "tech": "FTTP",
    "upgrade": "NULL_NA",
    "gnaf_pid": "GAVIC419623252"
   }
  },
  {
   "type": "Feature",
   "geometry": {
    "type": "Point",
    "coordinates": [
     144.890067,
     -37.701662
    ]
   },
   "properties": {
    "name": "56 THE CIRCUIT GLADSTONE PARK 3043",
    "locID": "LOC000044936051",
    "tech": "FTTP",
    "upgrade": "NULL_NA",
    "gnaf_pid": "GAVIC419623253"
   }
  },
  {
   "type": "Feature",
   "geometry": {
    "type": "Point",
    "coordinates": [
     144.890336,
     -37.701766
    ]
   },
   "properties": {
    "name": "60 THE CIRCUIT GLADSTONE PARK 3043",
    "locID": "LOC000062410101",
    "tech": "FTTP",
    "upgrade": "NULL_NA",
    "gnaf_pid": "GAVIC419623254"
   }
  },
  {
   "type": "Feature",
   "geometry": {
    "type": "Point",
    "coordinates": [
     144.891154,
     -37.701735
    ]
   },
   "properties": {
    "name": "70 THE CIRCUIT GLADSTONE PARK 3043",
    "locID": "LOC000004401343",
    "tech": "FTTP",
    "upgrade": "NULL_NA",
    "gnaf_pid": "GAVIC419623255"
   }
  },
  {
   "type": "Feature",
   "geometry": {
    "type": "Point",
    "coordinates": [
     144.887103,
     -37.68381
    ]
   },
   "properties": {
    "name": "9 CHISHOLM CLOSE GLADSTONE PARK 3043",
    "locID": "LOC000051196028",
    "tech": "FTTP",
    "upgrade": "NULL_NA",
    "gnaf_pid": "GAVIC419623256"
   }
  },
  {
   "type": "Feature",
   "geometry": {
    "type": "Point",
    "coordinates": [
     144.892357,
     -37.685688
    ]
   },
   "properties": {
    "name": "12 BERESFORD CRESCENT GLADSTONE PARK 3043",
    "locID": "LOC000086507784",
    "tech": "FTTP",
    "upgrade": "NULL_NA",
    "gnaf_pid": "GAVIC419623261"
   }
  },
  {
   "type": "Feature",
   "geometry": {
    "type": "Point",
    "coordinates": [
     144.890237,
     -37.698069
    ]
   },
   "properties": {
    "name": "86 CARRICK DRIVE GLADSTONE PARK 3043",
    "locID": "LOC000004415719",
    "tech": "FTTP",
    "upgrade": "NULL_NA",
    "gnaf_pid": "GAVIC419623265"
   }
  },
  {
   "type": "Feature",
   "geometry": {
    "type": "Point",
    "coordinates": [
     144.890631,
     -37.68737
    ]
   },
   "properties": {
    "name": "9 BLADEN PLACE GLADSTONE PARK 3043",
    "locID": "LOC000098017479",
    "tech": "FTTP",
    "upgrade": "NULL_NA",
    "gnaf_pid": "GAVIC419623275"
   }
  },
  {
   "type": "Feature",
   "geometry": {
    "type": "Point",
    "coordinates": [
     144.895946,
     -37.687492
    ]
   },
   "properties": {
    "name": "4 HOCTOR CLOSE GLADSTONE PARK 3043",
    "locID": "LOC000008799506",
    "tech": "FTTP",
    "upgrade": "NULL_NA",
    "gnaf_pid": "GAVIC419623354"
   }
  },
  {
   "type": "Feature",
   "geometry": {
    "type": "Point",
    "coordinates": [
     144.884103,
     -37.68244
    ]
   },
   "properties": {
    "name": "17 SNAEFELL CRESCENT GLADSTONE PARK 3043",
    "locID": "LOC000024229972",
    "tech": "FTTP",
    "upgrade": "NULL_NA",
    "gnaf_pid": "GAVIC419623412"
   }
  },
  {
   "type": "Feature",
   "geometry": {
    "type": "Point",
    "coordinates": [
     144.894645,
     -37.686982
    ]
   },
   "properties": {
    "name": "19 WILTSHIRE ROAD GLADSTONE PARK 3043",
    "locID": "LOC000069127591",
    "tech": "FTTP",
    "upgrade": "NULL_NA",
    "gnaf_pid": "GAVIC419623610"
   }
  },
  {
   "type": "Feature",
   "geometry": {
    "type": "Point",
    "coordinates": [
     144.894883,
     -37.686977
    ]
   },
   "properties": {
    "name": "21 WILTSHIRE ROAD GLADSTONE PARK 3043",
    "locID": "LOC000066823821",
    "tech": "FTTP",
    "upgrade": "NULL_NA",
    "gnaf_pid": "GAVIC419623611"
   }
  },
  {
   "type": "Feature",
   "geometry": {
    "type": "Point",
    "coordinates": [
     144.894773,
     -37.687273
    ]
   },
   "properties": {
    "name": "22 WILTSHIRE ROAD GLADSTONE PARK 3043",
    "locID": "LOC000082639811",
    "tech": "FTTP",
    "upgrade": "NULL_NA",
    "gnaf_pid": "GAVIC419623612"
   }
  },
  {
   "type": "Feature",
   "geometry": {
    "type": "Point",
    "coordinates": [
     144.896484,
     -37.695738
    ]
   },
   "properties": {
    "name": "6 WINDERMERE CRESCENT GLADSTONE PARK 3043",
    "locID": "LOC000008033444",
    "tech": "FTTP",
    "upgrade": "NULL_NA",
    "gnaf_pid": "GAVIC419623615"
   }
  },
  {
   "type": "Feature",
   "geometry": {
    "type": "Point",
    "coordinates": [
     144.899675,
     -37.68234
    ]
   },
   "properties": {
    "name": "3 KEYES PLACE GLADSTONE PARK 3043",
    "locID": "LOC000038166648",
    "tech": "FTTP",
    "upgrade": "NULL_NA",
    "gnaf_pid": "GAVIC419623638"
   }
  },
  {
   "type": "Feature",
   "geometry": {
    "type": "Point",
    "coordinates": [
     144.89931,
     -37.682388
    ]
   },
   "properties": {
    "name": "4 KEYES PLACE GLADSTONE PARK 3043",
    "locID": "LOC000025025059",
    "tech": "FTTP",
    "upgrade": "NULL_NA",
    "gnaf_pid": "GAVIC419623639"
   }
  },
  {
   "type": "Feature",
   "geometry": {
    "type": "Point",
    "coordinates": [
     144.899331,
     -37.682857
    ]
   },
   "properties": {
    "name": "10 KEYES PLACE GLADSTONE PARK 3043",
    "locID": "LOC000071643928",
    "tech": "FTTP",
    "upgrade": "NULL_NA",
    "gnaf_pid": "GAVIC419623640"
   }
  },
  {
   "type": "Feature",
   "geometry": {
    "type": "Point",
    "coordinates": [
     144.890677,
     -37.696941
    ]
   },
   "properties": {
    "name": "52 FINTON GROVE GLADSTONE PARK 3043",
    "locID": "LOC000040521301",
    "tech": "FTTP",
    "upgrade": "NULL_NA",
    "gnaf_pid": "GAVIC419623955"
   }
  },
  {
   "type": "Feature",
   "geometry": {
    "type": "Point",
    "coordinates": [
     144.891298,
     -37.696637
    ]
   },
   "properties": {
    "name": "60 FINTON GROVE GLADSTONE PARK 3043",
    "locID": "LOC000088783819",
    "tech": "FTTP",
    "upgrade": "NULL_NA",
    "gnaf_pid": "GAVIC419623956"
   }
  },
  {
   "type": "Feature",
   "geometry": {
    "type": "Point",
    "coordinates": [
     144.891621,
     -37.696445
    ]
   },
   "properties": {
    "name": "64 FINTON GROVE GLADSTONE PARK 3043",
    "locID": "LOC000059988445",
    "tech": "FTTP",
    "upgrade": "NULL_NA",
    "gnaf_pid": "GAVIC419623957"
   }
  },
  {
   "type": "Feature",
   "geometry": {
    "type": "Point",
    "coordinates": [
     144.883628,
     -37.690759
    ]
   },
   "properties": {
    "name": "3 FLEETWOOD COURT GLADSTONE PARK 3043",
    "locID": "LOC000043302346",
    "tech": "FTTP",
    "upgrade": "NULL_NA",
    "gnaf_pid": "GAVIC419623960"
   }
  },
  {
   "type": "Feature",
   "geometry": {
    "type": "Point",
    "coordinates": [
     144.883341,
     -37.690502
    ]
   },
   "properties": {
    "name": "7 FLEETWOOD COURT GLADSTONE PARK 3043",
    "locID": "LOC000058284371",
    "tech": "FTTP",
    "upgrade": "NULL_NA",
    "gnaf_pid": "GAVIC419623961"
   }
  },
  {
   "type": "Feature",
   "geometry": {
    "type": "Point",
    "coordinates": [
     144.883532,
     -37.690153
    ]
   },
   "properties": {
    "name": "8 FLEETWOOD COURT GLADSTONE PARK 3043",
    "locID": "LOC000038060094",
    "tech": "FTTP",
    "upgrade": "NULL_NA",
    "gnaf_pid": "GAVIC419623962"
   }
  },
  {
   "type": "Feature",
   "geometry": {
    "type": "Point",
    "coordinates": [
     144.883133,
     -37.690218
    ]
   },
   "properties": {
    "name": "11 FLEETWOOD COURT GLADSTONE PARK 3043",
    "locID": "LOC000068177962",
    "tech": "FTTP",
    "upgrade": "NULL_NA",
    "gnaf_pid": "GAVIC419623963"
   }
  },
  {
   "type": "Feature",
   "geometry": {
    "type": "Point",
    "coordinates": [
     144.883301,
     -37.689897
    ]
   },
   "properties": {
    "name": "12 FLEETWOOD COURT GLADSTONE PARK 3043",
    "locID": "LOC000063584177",
    "tech": "FTTP",
    "upgrade": "NULL_NA",
    "gnaf_pid": "GAVIC419623964"
   }
  },
  {
   "type": "Feature",
   "geometry": {
    "type": "Point",
    "coordinates": [
     144.889687,
     -37.694247
    ]
   },
   "properties": {
    "name": "16 BURNLEIGH DRIVE GLADSTONE PARK 3043",
    "locID": "LOC000109833995",
    "tech": "FTTP",
    "upgrade": "NULL_NA",
    "gnaf_pid": "GAVIC419624066"
   }
  },
  {
   "type": "Feature",
   "geometry": {
    "type": "Point",
    "coordinates": [
     144.891278,
     -37.693735
    ]
   },
   "properties": {
    "name": "29 BURNLEIGH DRIVE GLADSTONE PARK 3043",
    "locID": "LOC000066283926",
    "tech": "FTTP",
    "upgrade": "NULL_NA",
    "gnaf_pid": "GAVIC419624067"
   }
  },
  {
   "type": "Feature",
   "geometry": {
    "type": "Point",
    "coordinates": [
     144.889853,
     -37.696016
    ]
   },
   "properties": {
    "name": "3 SAMARA GROVE GLADSTONE PARK 3043",
    "locID": "LOC000086239273",
    "tech": "FTTP",
    "upgrade": "NULL_NA",
    "gnaf_pid": "GAVIC419624089"
   }
  },
  {
   "type": "Feature",
   "geometry": {
    "type": "Point",
    "coordinates": [
     144.889799,
     -37.696304
    ]
   },
   "properties": {
    "name": "7 SAMARA GROVE GLADSTONE PARK 3043",
    "locID": "LOC000088591143",
    "tech": "FTTP",
    "upgrade": "NULL_NA",
    "gnaf_pid": "GAVIC419624090"
   }
  },
  {
   "type": "Feature",
   "geometry": {
    "type": "Point",
    "coordinates": [
     144.889529,
     -37.696623
    ]
   },
   "properties": {
    "name": "13 SAMARA GROVE GLADSTONE PARK 3043",
    "locID": "LOC000100995542",
    "tech": "FTTP",
    "upgrade": "NULL_NA",
    "gnaf_pid": "GAVIC419624091"
   }
  },
  {
   "type": "Feature",
   "geometry": {
    "type": "Point",
    "coordinates": [
     144.88862,
     -37.697076
    ]
   },
   "properties": {
    "name": "25 SAMARA GROVE GLADSTONE PARK 3043",
    "locID": "LOC000011011478",
    "tech": "FTTP",
    "upgrade": "NULL_NA",
    "gnaf_pid": "GAVIC419624092"
   }
  },
  {
   "type": "Feature",
   "geometry": {
    "type": "Point",
    "coordinates": [
     144.888381,
     -37.697504
    ]
   },
   "properties": {
    "name": "31 SAMARA GROVE GLADSTONE PARK 3043",
    "locID": "LOC000038809657",
    "tech": "FTTP",
    "upgrade": "NULL_NA",
    "gnaf_pid": "GAVIC419624094"
   }
  },
  {
   "type": "Feature",
   "geometry": {
    "type": "Point",
    "coordinates": [
     144.884975,
     -37.690846
    ]
   },
   "properties": {
    "name": "7 SUTTON CLOSE GLADSTONE PARK 3043",
    "locID": "LOC000038757823",
    "tech": "FTTP",
    "upgrade": "NULL_NA",
    "gnaf_pid": "GAVIC419624099"
   }
  },
  {
   "type": "Feature",
   "geometry": {
    "type": "Point",
    "coordinates": [
     144.883241,
     -37.685642
    ]
   },
   "properties": {
    "name": "224 MICKLEHAM ROAD GLADSTONE PARK 3043",
    "locID": "LOC000030166325",
    "tech": "FTTP",
    "upgrade": "NULL_NA",
    "gnaf_pid": "GAVIC419624181"
   }
  },
  {
   "type": "Feature",
   "geometry": {
    "type": "Point",
    "coordinates": [
     144.895739,
     -37.693616
    ]
   },
   "properties": {
    "name": "16 AVONDALE COURT GLADSTONE PARK 3043",
    "locID": "LOC000036910820",
    "tech": "FTTP",
    "upgrade": "NULL_NA",
    "gnaf_pid": "GAVIC419624304"
   }
  },
  {
   "type": "Feature",
   "geometry": {
    "type": "Point",
    "coordinates": [
     144.89572,
     -37.693463
    ]
   },
   "properties": {
    "name": "18 AVONDALE COURT GLADSTONE PARK 3043",
    "locID": "LOC000071288945",
    "tech": "FTTP",
    "upgrade": "NULL_NA",
    "gnaf_pid": "GAVIC419624305"
   }
  },
  {
   "type": "Feature",
   "geometry": {
    "type": "Point",
    "coordinates": [
     144.887347,
     -37.692403
    ]
   },
   "properties": {
    "name": "9 AYLESBURY CRESCENT GLADSTONE PARK 3043",
    "locID": "LOC000098089307",
    "tech": "FTTP",
    "upgrade": "NULL_NA",
    "gnaf_pid": "GAVIC419624306"
   }
  },
  {
   "type": "Feature",
   "geometry": {
    "type": "Point",
    "coordinates": [
     144.886945,
     -37.691765
    ]
   },
   "properties": {
    "name": "16 AYLESBURY CRESCENT GLADSTONE PARK 3043",
    "locID": "LOC000065934512",
    "tech": "FTTP",
    "upgrade": "NULL_NA",
    "gnaf_pid": "GAVIC419624307"
   }
  },
  {
   "type": "Feature",
   "geometry": {
    "type": "Point",
    "coordinates": [
     144.886167,
     -37.691201
    ]
   },
   "properties": {
    "name": "25 AYLESBURY CRESCENT GLADSTONE PARK 3043",
    "locID": "LOC000039403002",
    "tech": "FTTP",
    "upgrade": "NULL_NA",
    "gnaf_pid": "GAVIC419624308"
   }
  },
  {
   "type": "Feature",
   "geometry": {
    "type": "Point",
    "coordinates": [
     144.88639,
     -37.690935
    ]
   },
   "properties": {
    "name": "28 AYLESBURY CRESCENT GLADSTONE PARK 3043",
    "locID": "LOC000089953444",
    "tech": "FTTP",
    "upgrade": "NULL_NA",
    "gnaf_pid": "GAVIC419624309"
   }
  },
  {
   "type": "Feature",
   "geometry": {
    "type": "Point",
    "coordinates": [
     144.898176,
     -37.695246
    ]
   },
   "properties": {
    "name": "8 BALLARD CLOSE GLADSTONE PARK 3043",
    "locID": "LOC000088838139",
    "tech": "FTTP",
    "upgrade": "NULL_NA",
    "gnaf_pid": "GAVIC419624315"
   }
  },
  {
   "type": "Feature",
   "geometry": {
    "type": "Point",
    "coordinates": [
     144.894431,
     -37.688943
    ]
   },
   "properties": {
    "name": "3 ABINGER COURT GLADSTONE PARK 3043",
    "locID": "LOC000070272828",
    "tech": "FTTP",
    "upgrade": "NULL_NA",
    "gnaf_pid": "GAVIC419624778"
   }
  },
  {
   "type": "Feature",
   "geometry": {
    "type": "Point",
    "coordinates": [
     144.887761,
     -37.696988
    ]
   },
   "properties": {
    "name": "3 BEGA COURT GLADSTONE PARK 3043",
    "locID": "LOC000022942471",
    "tech": "FTTP",
    "upgrade": "NULL_NA",
    "gnaf_pid": "GAVIC419624787"
   }
  },
  {
   "type": "Feature",
   "geometry": {
    "type": "Point",
    "coordinates": [
     144.891656,
     -37.700401
    ]
   },
   "properties": {
    "name": "6 CARLINGA COURT GLADSTONE PARK 3043",
    "locID": "LOC000026088818",
    "tech": "FTTP",
    "upgrade": "NULL_NA",
    "gnaf_pid": "GAVIC419624811"
   }
  },
  {
   "type": "Feature",
   "geometry": {
    "type": "Point",
    "coordinates": [
     144.891451,
     -37.700848
    ]
   },
   "properties": {
    "name": "11 CARLINGA COURT GLADSTONE PARK 3043",
    "locID": "LOC000099663372",
    "tech": "FTTP",
    "upgrade": "NULL_NA",
    "gnaf_pid": "GAVIC419624812"
   }
  },
  {
   "type": "Feature",
   "geometry": {
    "type": "Point",
    "coordinates": [
     144.890763,
     -37.701106
    ]
   },
   "properties": {
    "name": "19 CARLINGA COURT GLADSTONE PARK 3043",
    "locID": "LOC000104599294",
    "tech": "FTTP",
    "upgrade": "NULL_NA",
    "gnaf_pid": "GAVIC419624813"
   }
  },
  {
   "type": "Feature",
   "geometry": {
    "type": "Point",
    "coordinates": [
     144.890439,
     -37.700938
    ]
   },
   "properties": {
    "name": "22 CARLINGA COURT GLADSTONE PARK 3043",
    "locID": "LOC000094644237",
    "tech": "FTTP",
    "upgrade": "NULL_NA",
    "gnaf_pid": "GAVIC419624814"
   }
  },
  {
   "type": "Feature",
   "geometry": {
    "type": "Point",
    "coordinates": [
     144.885174,
     -37.693022
    ]
   },
   "properties": {
    "name": "12 AITKEN PLACE GLADSTONE PARK 3043",
    "locID": "LOC000071330171",
    "tech": "FTTP",
    "upgrade": "NULL_NA",
    "gnaf_pid": "GAVIC419624817"
   }
  },
  {
   "type": "Feature",
   "geometry": {
    "type": "Point",
    "coordinates": [
     144.89570087,
     -37.69569368
    ]
   },
   "properties": {
    "name": "7 WINDERMERE CRESCENT GLADSTONE PARK 3043",
    "locID": "LOC000186480074",
    "tech": "FTTP",
    "upgrade": "NULL_NA",
    "gnaf_pid": "GAVIC419625114"
   }
  },
  {
   "type": "Feature",
   "geometry": {
    "type": "Point",
    "coordinates": [
     144.895055,
     -37.695343
    ]
   },
   "properties": {
    "name": "24 WINDERMERE CRESCENT GLADSTONE PARK 3043",
    "locID": "LOC000094223057",
    "tech": "FTTP",
    "upgrade": "NULL_NA",
    "gnaf_pid": "GAVIC419625115"
   }
  },
  {
   "type": "Feature",
   "geometry": {
    "type": "Point",
    "coordinates": [
     144.894379,
     -37.686761
    ]
   },
   "properties": {
    "name": "4 WYLYE CLOSE GLADSTONE PARK 3043",
    "locID": "LOC000044980725",
    "tech": "FTTP",
    "upgrade": "NULL_NA",
    "gnaf_pid": "GAVIC419625121"
   }
  },
  {
   "type": "Feature",
   "geometry": {
    "type": "Point",
    "coordinates": [
     144.893998,
     -37.686592
    ]
   },
   "properties": {
    "name": "5 WYLYE CLOSE GLADSTONE PARK 3043",
    "locID": "LOC000048012144",
    "tech": "FTTP",
    "upgrade": "NULL_NA",
    "gnaf_pid": "GAVIC419625122"
   }
  },
  {
   "type": "Feature",
   "geometry": {
    "type": "Point",
    "coordinates": [
     144.89417,
     -37.686532
    ]
   },
   "properties": {
    "name": "7 WYLYE CLOSE GLADSTONE PARK 3043",
    "locID": "LOC000021059569",
    "tech": "FTTP",
    "upgrade": "NULL_NA",
    "gnaf_pid": "GAVIC419625123"
   }
  },
  {
   "type": "Feature",
   "geometry": {
    "type": "Point",
    "coordinates": [
     144.897116,
     -37.68781
    ]
   },
   "properties": {
    "name": "6 RODDA COURT GLADSTONE PARK 3043",
    "locID": "LOC000018540964",
    "tech": "FTTP",
    "upgrade": "NULL_NA",
    "gnaf_pid": "GAVIC419625138"
   }
  },
  {
   "type": "Feature",
   "geometry": {
    "type": "Point",
    "coordinates": [
     144.888825,
     -37.681876
    ]
   },
   "properties": {
    "name": "7 RODWELL PLACE GLADSTONE PARK 3043",
    "locID": "LOC000013475703",
    "tech": "FTTP",
    "upgrade": "NULL_NA",
    "gnaf_pid": "GAVIC419625142"
   }
  },
  {
   "type": "Feature",
   "geometry": {
    "type": "Point",
    "coordinates": [
     144.897612,
     -37.686314
    ]
   },
   "properties": {
    "name": "10 COUSEN PLACE GLADSTONE PARK 3043",
    "locID": "LOC000020033590",
    "tech": "FTTP",
    "upgrade": "NULL_NA",
    "gnaf_pid": "GAVIC419625162"
   }
  },
  {
   "type": "Feature",
   "geometry": {
    "type": "Point",
    "coordinates": [
     144.896535,
     -37.692729
    ]
   },
   "properties": {
    "name": "9 CRANBROOK COURT GLADSTONE PARK 3043",
    "locID": "LOC000102346306",
    "tech": "FTTP",
    "upgrade": "NULL_NA",
    "gnaf_pid": "GAVIC419625164"
   }
  },
  {
   "type": "Feature",
   "geometry": {
    "type": "Point",
    "coordinates": [
     144.893467,
     -37.681707
    ]
   },
   "properties": {
    "name": "3 CROSBY CLOSE GLADSTONE PARK 3043",
    "locID": "LOC000071324128",
    "tech": "FTTP",
    "upgrade": "NULL_NA",
    "gnaf_pid": "GAVIC419625170"
   }
  },
  {
   "type": "Feature",
   "geometry": {
    "type": "Point",
    "coordinates": [
     144.894878,
     -37.689978
    ]
   },
   "properties": {
    "name": "4 GAYNOR CRESCENT GLADSTONE PARK 3043",
    "locID": "LOC000019595033",
    "tech": "FTTP",
    "upgrade": "NULL_NA",
    "gnaf_pid": "GAVIC419625191"
   }
  },
  {
   "type": "Feature",
   "geometry": {
    "type": "Point",
    "coordinates": [
     144.898987,
     -37.685816
    ]
   },
   "properties": {
    "name": "6 NEATH CLOSE GLADSTONE PARK 3043",
    "locID": "LOC000035595338",
    "tech": "FTTP",
    "upgrade": "NULL_NA",
    "gnaf_pid": "GAVIC419625239"
   }
  },
  {
   "type": "Feature",
   "geometry": {
    "type": "Point",
    "coordinates": [
     144.899189,
     -37.685873
    ]
   },
   "properties": {
    "name": "8 NEATH CLOSE GLADSTONE PARK 3043",
    "locID": "LOC000038709412",
    "tech": "FTTP",
    "upgrade": "NULL_NA",
    "gnaf_pid": "GAVIC419625240"
   }
  },
  {
   "type": "Feature",
   "geometry": {
    "type": "Point",
    "coordinates": [
     144.890487,
     -37.683249
    ]
   },
   "properties": {
    "name": "14 KINGSMERE CLOSE GLADSTONE PARK 3043",
    "locID": "LOC000014334843",
    "tech": "FTTP",
    "upgrade": "NULL_NA",
    "gnaf_pid": "GAVIC419625872"
   }
  },
  {
   "type": "Feature",
   "geometry": {
    "type": "Point",
    "coordinates": [
     144.890437,
     -37.68341
    ]
   },
   "properties": {
    "name": "16 KINGSMERE CLOSE GLADSTONE PARK 3043",
    "locID": "LOC000002837645",
    "tech": "FTTP",
    "upgrade": "NULL_NA",
    "gnaf_pid": "GAVIC419625873"
   }
  },
  {
   "type": "Feature",
   "geometry": {
    "type": "Point",
    "coordinates": [
     144.889208,
     -37.690742
    ]
   },
   "properties": {
    "name": "3 GOODWOOD CRESCENT GLADSTONE PARK 3043",
    "locID": "LOC000048987897",
    "tech": "FTTP",
    "upgrade": "NULL_NA",
    "gnaf_pid": "GAVIC419626079"
   }
  },
  {
   "type": "Feature",
   "geometry": {
    "type": "Point",
    "coordinates": [
     144.889551,
     -37.69064
    ]
   },
   "properties": {
    "name": "6 GOODWOOD CRESCENT GLADSTONE PARK 3043",
    "locID": "LOC000080253025",
    "tech": "FTTP",
    "upgrade": "NULL_NA",
    "gnaf_pid": "GAVIC419626080"
   }
  },
  {
   "type": "Feature",
   "geometry": {
    "type": "Point",
    "coordinates": [
     144.89116,
     -37.68309
    ]
   },
   "properties": {
    "name": "6 KENTON PLACE GLADSTONE PARK 3043",
    "locID": "LOC000026078534",
    "tech": "FTTP",
    "upgrade": "NULL_NA",
    "gnaf_pid": "GAVIC419626270"
   }
  },
  {
   "type": "Feature",
   "geometry": {
    "type": "Point",
    "coordinates": [
     144.896496,
     -37.69691
    ]
   },
   "properties": {
    "name": "8 GABRIELLE CRESCENT GLADSTONE PARK 3043",
    "locID": "LOC000002059531",
    "tech": "FTTP",
    "upgrade": "NULL_NA",
    "gnaf_pid": "GAVIC419626279"
   }
  },
  {
   "type": "Feature",
   "geometry": {
    "type": "Point",
    "coordinates": [
     144.89674,
     -37.697104
    ]
   },
   "properties": {
    "name": "12 GABRIELLE CRESCENT GLADSTONE PARK 3043",
    "locID": "LOC000082693100",
    "tech": "FTTP",
    "upgrade": "NULL_NA",
    "gnaf_pid": "GAVIC419626280"
   }
  },
  {
   "type": "Feature",
   "geometry": {
    "type": "Point",
    "coordinates": [
     144.898422,
     -37.696593
    ]
   },
   "properties": {
    "name": "40 GABRIELLE CRESCENT GLADSTONE PARK 3043",
    "locID": "LOC000047692659",
    "tech": "FTTP",
    "upgrade": "NULL_NA",
    "gnaf_pid": "GAVIC419626282"
   }
  },
  {
   "type": "Feature",
   "geometry": {
    "type": "Point",
    "coordinates": [
     144.898659,
     -37.695813
    ]
   },
   "properties": {
    "name": "56 GABRIELLE CRESCENT GLADSTONE PARK 3043",
    "locID": "LOC000102808353",
    "tech": "FTTP",
    "upgrade": "NULL_NA",
    "gnaf_pid": "GAVIC419626283"
   }
  },
  {
   "type": "Feature",
   "geometry": {
    "type": "Point",
    "coordinates": [
     144.898537,
     -37.695739
    ]
   },
   "properties": {
    "name": "58 GABRIELLE CRESCENT GLADSTONE PARK 3043",
    "locID": "LOC000070288828",
    "tech": "FTTP",
    "upgrade": "NULL_NA",
    "gnaf_pid": "GAVIC419626284"
   }
  },
  {
   "type": "Feature",
   "geometry": {
    "type": "Point",
    "coordinates": [
     144.897859,
     -37.695637
    ]
   },
   "properties": {
    "name": "66 GABRIELLE CRESCENT GLADSTONE PARK 3043",
    "locID": "LOC000084433699",
    "tech": "FTTP",
    "upgrade": "NULL_NA",
    "gnaf_pid": "GAVIC419626285"
   }
  },
  {
   "type": "Feature",
   "geometry": {
    "type": "Point",
    "coordinates": [
     144.887803,
     -37.685102
    ]
   },
   "properties": {
    "name": "8 GALWAY GROVE GLADSTONE PARK 3043",
    "locID": "LOC000009772730",
    "tech": "FTTP",
    "upgrade": "NULL_NA",
    "gnaf_pid": "GAVIC419626291"
   }
  },
  {
   "type": "Feature",
   "geometry": {
    "type": "Point",
    "coordinates": [
     144.89457,
     -37.699642
    ]
   },
   "properties": {
    "name": "4 LYRE COURT GLADSTONE PARK 3043",
    "locID": "LOC000103064700",
    "tech": "FTTP",
    "upgrade": "NULL_NA",
    "gnaf_pid": "GAVIC419626738"
   }
  },
  {
   "type": "Feature",
   "geometry": {
    "type": "Point",
    "coordinates": [
     144.888964,
     -37.691359
    ]
   },
   "properties": {
    "name": "29 PRIOR AVENUE GLADSTONE PARK 3043",
    "locID": "LOC000013803431",
    "tech": "FTTP",
    "upgrade": "NULL_NA",
    "gnaf_pid": "GAVIC419626808"
   }
  },
  {
   "type": "Feature",
   "geometry": {
    "type": "Point",
    "coordinates": [
     144.887884,
     -37.689862
    ]
   },
   "properties": {
    "name": "38 PRIOR AVENUE GLADSTONE PARK 3043",
    "locID": "LOC000006053935",
    "tech": "FTTP",
    "upgrade": "NULL_NA",
    "gnaf_pid": "GAVIC419626809"
   }
  },
  {
   "type": "Feature",
   "geometry": {
    "type": "Point",
    "coordinates": [
     144.891837,
     -37.699233
    ]
   },
   "properties": {
    "name": "19 TRENTHAM DRIVE GLADSTONE PARK 3043",
    "locID": "LOC000106374287",
    "tech": "FTTP",
    "upgrade": "NULL_NA",
    "gnaf_pid": "GAVIC419626921"
   }
  },
  {
   "type": "Feature",
   "geometry": {
    "type": "Point",
    "coordinates": [
     144.891557,
     -37.699516
    ]
   },
   "properties": {
    "name": "20 TRENTHAM DRIVE GLADSTONE PARK 3043",
    "locID": "LOC000045872204",
    "tech": "FTTP",
    "upgrade": "NULL_NA",
    "gnaf_pid": "GAVIC419626922"
   }
  },
  {
   "type": "Feature",
   "geometry": {
    "type": "Point",
    "coordinates": [
     144.892038,
     -37.700147
    ]
   },
   "properties": {
    "name": "26 TRENTHAM DRIVE GLADSTONE PARK 3043",
    "locID": "LOC000104399405",
    "tech": "FTTP",
    "upgrade": "NULL_NA",
    "gnaf_pid": "GAVIC419626923"
   }
  },
  {
   "type": "Feature",
   "geometry": {
    "type": "Point",
    "coordinates": [
     144.893361,
     -37.68266
    ]
   },
   "properties": {
    "name": "8 HART COURT GLADSTONE PARK 3043",
    "locID": "LOC000100793129",
    "tech": "FTTP",
    "upgrade": "NULL_NA",
    "gnaf_pid": "GAVIC419626961"
   }
  },
  {
   "type": "Feature",
   "geometry": {
    "type": "Point",
    "coordinates": [
     144.885752,
     -37.691852
    ]
   },
   "properties": {
    "name": "2 BRIAR CLOSE GLADSTONE PARK 3043",
    "locID": "LOC000014314622",
    "tech": "FTTP",
    "upgrade": "NULL_NA",
    "gnaf_pid": "GAVIC419627009"
   }
  },
  {
   "type": "Feature",
   "geometry": {
    "type": "Point",
    "coordinates": [
     144.885824,
     -37.691709
    ]
   },
   "properties": {
    "name": "4 BRIAR CLOSE GLADSTONE PARK 3043",
    "locID": "LOC000082342429",
    "tech": "FTTP",
    "upgrade": "NULL_NA",
    "gnaf_pid": "GAVIC419627010"
   }
  },
  {
   "type": "Feature",
   "geometry": {
    "type": "Point",
    "coordinates": [
     144.895113,
     -37.687657
    ]
   },
   "properties": {
    "name": "5 WARRISS COURT GLADSTONE PARK 3043",
    "locID": "LOC000013494797",
    "tech": "FTTP",
    "upgrade": "NULL_NA",
    "gnaf_pid": "GAVIC419627052"
   }
  },
  {
   "type": "Feature",
   "geometry": {
    "type": "Point",
    "coordinates": [
     144.885072,
     -37.683458
    ]
   },
   "properties": {
    "name": "1 SNAEFELL CRESCENT GLADSTONE PARK 3043",
    "locID": "LOC000062662054",
    "tech": "FTTP",
    "upgrade": "NULL_NA",
    "gnaf_pid": "GAVIC419627603"
   }
  },
  {
   "type": "Feature",
   "geometry": {
    "type": "Point",
    "coordinates": [
     144.884813,
     -37.682588
    ]
   },
   "properties": {
    "name": "4 READE PLACE GLADSTONE PARK 3043",
    "locID": "LOC000071638640",
    "tech": "FTTP",
    "upgrade": "NULL_NA",
    "gnaf_pid": "GAVIC419627638"
   }
  },
  {
   "type": "Feature",
   "geometry": {
    "type": "Point",
    "coordinates": [
     144.884979,
     -37.682727
    ]
   },
   "properties": {
    "name": "6 READE PLACE GLADSTONE PARK 3043",
    "locID": "LOC000098341305",
    "tech": "FTTP",
    "upgrade": "NULL_NA",
    "gnaf_pid": "GAVIC419627639"
   }
  },
  {
   "type": "Feature",
   "geometry": {
    "type": "Point",
    "coordinates": [
     144.88529,
     -37.68257
    ]
   },
   "properties": {
    "name": "9 READE PLACE GLADSTONE PARK 3043",
    "locID": "LOC000056148036",
    "tech": "FTTP",
    "upgrade": "NULL_NA",
    "gnaf_pid": "GAVIC419627640"
   }
  },
  {
   "type": "Feature",
   "geometry": {
    "type": "Point",
    "coordinates": [
     144.897503,
     -37.693783
    ]
   },
   "properties": {
    "name": "11 REDWOOD CLOSE GLADSTONE PARK 3043",
    "locID": "LOC000079669721",
    "tech": "FTTP",
    "upgrade": "NULL_NA",
    "gnaf_pid": "GAVIC419627645"
   }
  },
  {
   "type": "Feature",
   "geometry": {
    "type": "Point",
    "coordinates": [
     144.899075,
     -37.683898
    ]
   },
   "properties": {
    "name": "3 REEVES CLOSE GLADSTONE PARK 3043",
    "locID": "LOC000091439737",
    "tech": "FTTP",
    "upgrade": "NULL_NA",
    "gnaf_pid": "GAVIC419627649"
   }
  },
  {
   "type": "Feature",
   "geometry": {
    "type": "Point",
    "coordinates": [
     144.898539,
     -37.685204
    ]
   },
   "properties": {
    "name": "5 CLARKE DRIVE GLADSTONE PARK 3043",
    "locID": "LOC000037920279",
    "tech": "FTTP",
    "upgrade": "NULL_NA",
    "gnaf_pid": "GAVIC419627764"
   }
  },
  {
   "type": "Feature",
   "geometry": {
    "type": "Point",
    "coordinates": [
     144.899012,
     -37.68533
    ]
   },
   "properties": {
    "name": "8 CLARKE DRIVE GLADSTONE PARK 3043",
    "locID": "LOC000104874847",
    "tech": "FTTP",
    "upgrade": "NULL_NA",
    "gnaf_pid": "GAVIC419627766"
   }
  },
  {
   "type": "Feature",
   "geometry": {
    "type": "Point",
    "coordinates": [
     144.885168,
     -37.69203
    ]
   },
   "properties": {
    "name": "29 WOODSTOCK DRIVE GLADSTONE PARK 3043",
    "locID": "LOC000089615815",
    "tech": "FTTP",
    "upgrade": "NULL_NA",
    "gnaf_pid": "GAVIC419627819"
   }
  },
  {
   "type": "Feature",
   "geometry": {
    "type": "Point",
    "coordinates": [
     144.891192,
     -37.694364
    ]
   },
   "properties": {
    "name": "4 PENDLE CLOSE GLADSTONE PARK 3043",
    "locID": "LOC000051453592",
    "tech": "FTTP",
    "upgrade": "NULL_NA",
    "gnaf_pid": "GAVIC419627860"
   }
  },
  {
   "type": "Feature",
   "geometry": {
    "type": "Point",
    "coordinates": [
     144.891644,
     -37.694435
    ]
   },
   "properties": {
    "name": "7 PENDLE CLOSE GLADSTONE PARK 3043",
    "locID": "LOC000062357232",
    "tech": "FTTP",
    "upgrade": "NULL_NA",
    "gnaf_pid": "GAVIC419627861"
   }
  },
  {
   "type": "Feature",
   "geometry": {
    "type": "Point",
    "coordinates": [
     144.895501,
     -37.689998
    ]
   },
   "properties": {
    "name": "4 ROYSTON PLACE GLADSTONE PARK 3043",
    "locID": "LOC000033764540",
    "tech": "FTTP",
    "upgrade": "NULL_NA",
    "gnaf_pid": "GAVIC419627875"
   }
  },
  {
   "type": "Feature",
   "geometry": {
    "type": "Point",
    "coordinates": [
     144.896026,
     -37.691062
    ]
   },
   "properties": {
    "name": "4 ELVIN CLOSE GLADSTONE PARK 3043",
    "locID": "LOC000004426207",
    "tech": "FTTP",
    "upgrade": "NULL_NA",
    "gnaf_pid": "GAVIC419627918"
   }
  },
  {
   "type": "Feature",
   "geometry": {
    "type": "Point",
    "coordinates": [
     144.893486,
     -37.688241
    ]
   },
   "properties": {
    "name": "11 WAVERLEY COURT GLADSTONE PARK 3043",
    "locID": "LOC000055945148",
    "tech": "FTTP",
    "upgrade": "NULL_NA",
    "gnaf_pid": "GAVIC419627959"
   }
  },
  {
   "type": "Feature",
   "geometry": {
    "type": "Point",
    "coordinates": [
     144.893303,
     -37.688301
    ]
   },
   "properties": {
    "name": "13 WAVERLEY COURT GLADSTONE PARK 3043",
    "locID": "LOC000097857183",
    "tech": "FTTP",
    "upgrade": "NULL_NA",
    "gnaf_pid": "GAVIC419627961"
   }
  },
  {
   "type": "Feature",
   "geometry": {
    "type": "Point",
    "coordinates": [
     144.888558,
     -37.69566
    ]
   },
   "properties": {
    "name": "1 ALTAIR COURT GLADSTONE PARK 3043",
    "locID": "LOC000023467212",
    "tech": "FTTP",
    "upgrade": "NULL_NA",
    "gnaf_pid": "GAVIC419628299"
   }
  },
  {
   "type": "Feature",
   "geometry": {
    "type": "Point",
    "coordinates": [
     144.888323,
     -37.695962
    ]
   },
   "properties": {
    "name": "5 ALTAIR COURT GLADSTONE PARK 3043",
    "locID": "LOC000100145563",
    "tech": "FTTP",
    "upgrade": "NULL_NA",
    "gnaf_pid": "GAVIC419628300"
   }
  },
  {
   "type": "Feature",
   "geometry": {
    "type": "Point",
    "coordinates": [
     144.887977,
     -37.696181
    ]
   },
   "properties": {
    "name": "9 ALTAIR COURT GLADSTONE PARK 3043",
    "locID": "LOC000073895903",
    "tech": "FTTP",
    "upgrade": "NULL_NA",
    "gnaf_pid": "GAVIC419628301"
   }
  },
  {
   "type": "Feature",
   "geometry": {
    "type": "Point",
    "coordinates": [
     144.888786,
     -37.685652
    ]
   },
   "properties": {
    "name": "3 BOOTH COURT GLADSTONE PARK 3043",
    "locID": "LOC000031124277",
    "tech": "FTTP",
    "upgrade": "NULL_NA",
    "gnaf_pid": "GAVIC419628475"
   }
  },
  {
   "type": "Feature",
   "geometry": {
    "type": "Point",
    "coordinates": [
     144.898873,
     -37.685039
    ]
   },
   "properties": {
    "name": "9 CLARKE DRIVE GLADSTONE PARK 3043",
    "locID": "LOC000022150727",
    "tech": "FTTP",
    "upgrade": "NULL_NA",
    "gnaf_pid": "GAVIC419628482"
   }
  },
  {
   "type": "Feature",
   "geometry": {
    "type": "Point",
    "coordinates": [
     144.901182,
     -37.683557
    ]
   },
   "properties": {
    "name": "36 CLARKE DRIVE GLADSTONE PARK 3043",
    "locID": "LOC000010156665",
    "tech": "FTTP",
    "upgrade": "NULL_NA",
    "gnaf_pid": "GAVIC419628483"
   }
  },
  {
   "type": "Feature",
   "geometry": {
    "type": "Point",
    "coordinates": [
     144.900064,
     -37.682203
    ]
   },
   "properties": {
    "name": "49 CLARKE DRIVE GLADSTONE PARK 3043",
    "locID": "LOC000006138459",
    "tech": "FTTP",
    "upgrade": "NULL_NA",
    "gnaf_pid": "GAVIC419628484"
   }
  },
  {
   "type": "Feature",
   "geometry": {
    "type": "Point",
    "coordinates": [
     144.9006566,
     -37.68211508
    ]
   },
   "properties": {
    "name": "58A CLARKE DRIVE GLADSTONE PARK 3043",
    "locID": "LOC000092575668",
    "tech": "FTTP",
    "upgrade": "NULL_NA",
    "gnaf_pid": "GAVIC419628485"
   }
  },
  {
   "type": "Feature",
   "geometry": {
    "type": "Point",
    "coordinates": [
     144.897929,
     -37.682715
    ]
   },
   "properties": {
    "name": "61 CLARKE DRIVE GLADSTONE PARK 3043",
    "locID": "LOC000046840494",
    "tech": "FTTP",
    "upgrade": "NULL_NA",
    "gnaf_pid": "GAVIC419628486"
   }
  },
  {
   "type": "Feature",
   "geometry": {
    "type": "Point",
    "coordinates": [
     144.896417,
     -37.68367
    ]
   },
   "properties": {
    "name": "73 CLARKE DRIVE GLADSTONE PARK 3043",
    "locID": "LOC000022843676",
    "tech": "FTTP",
    "upgrade": "NULL_NA",
    "gnaf_pid": "GAVIC419628487"
   }
  },
  {
   "type": "Feature",
   "geometry": {
    "type": "Point",
    "coordinates": [
     144.89873,
     -37.682062
    ]
   },
   "properties": {
    "name": "78 CLARKE DRIVE GLADSTONE PARK 3043",
    "locID": "LOC000056559002",
    "tech": "FTTP",
    "upgrade": "NULL_NA",
    "gnaf_pid": "GAVIC419628488"
   }
  },
  {
   "type": "Feature",
   "geometry": {
    "type": "Point",
    "coordinates": [
     144.897422,
     -37.682598
    ]
   },
   "properties": {
    "name": "92 CLARKE DRIVE GLADSTONE PARK 3043",
    "locID": "LOC000066044574",
    "tech": "FTTP",
    "upgrade": "NULL_NA",
    "gnaf_pid": "GAVIC419628489"
   }
  },
  {
   "type": "Feature",
   "geometry": {
    "type": "Point",
    "coordinates": [
     144.891771,
     -37.701548
    ]
   },
   "properties": {
    "name": "78 THE CIRCUIT GLADSTONE PARK 3043",
    "locID": "LOC000086478794",
    "tech": "FTTP",
    "upgrade": "NULL_NA",
    "gnaf_pid": "GAVIC419628495"
   }
  },
  {
   "type": "Feature",
   "geometry": {
    "type": "Point",
    "coordinates": [
     144.892368,
     -37.701297
    ]
   },
   "properties": {
    "name": "86 THE CIRCUIT GLADSTONE PARK 3043",
    "locID": "LOC000057319944",
    "tech": "FTTP",
    "upgrade": "NULL_NA",
    "gnaf_pid": "GAVIC419628496"
   }
  },
  {
   "type": "Feature",
   "geometry": {
    "type": "Point",
    "coordinates": [
     144.891218,
     -37.683839
    ]
   },
   "properties": {
    "name": "3 KINGSMERE CLOSE GLADSTONE PARK 3043",
    "locID": "LOC000061597436",
    "tech": "FTTP",
    "upgrade": "NULL_NA",
    "gnaf_pid": "GAVIC419628532"
   }
  },
  {
   "type": "Feature",
   "geometry": {
    "type": "Point",
    "coordinates": [
     144.89444,
     -37.688618
    ]
   },
   "properties": {
    "name": "18 GRANTLEY DRIVE GLADSTONE PARK 3043",
    "locID": "LOC000051070657",
    "tech": "FTTP",
    "upgrade": "NULL_NA",
    "gnaf_pid": "GAVIC419628569"
   }
  },
  {
   "type": "Feature",
   "geometry": {
    "type": "Point",
    "coordinates": [
     144.894624,
     -37.688514
    ]
   },
   "properties": {
    "name": "20 GRANTLEY DRIVE GLADSTONE PARK 3043",
    "locID": "LOC000107569498",
    "tech": "FTTP",
    "upgrade": "NULL_NA",
    "gnaf_pid": "GAVIC419628570"
   }
  },
  {
   "type": "Feature",
   "geometry": {
    "type": "Point",
    "coordinates": [
     144.894886,
     -37.688077
    ]
   },
   "properties": {
    "name": "21 GRANTLEY DRIVE GLADSTONE PARK 3043",
    "locID": "LOC000037196544",
    "tech": "FTTP",
    "upgrade": "NULL_NA",
    "gnaf_pid": "GAVIC419628571"
   }
  },
  {
   "type": "Feature",
   "geometry": {
    "type": "Point",
    "coordinates": [
     144.89506,
     -37.688341
    ]
   },
   "properties": {
    "name": "24 GRANTLEY DRIVE GLADSTONE PARK 3043",
    "locID": "LOC000001847701",
    "tech": "FTTP",
    "upgrade": "NULL_NA",
    "gnaf_pid": "GAVIC419628572"
   }
  },
  {
   "type": "Feature",
   "geometry": {
    "type": "Point",
    "coordinates": [
     144.895353,
     -37.688391
    ]
   },
   "properties": {
    "name": "26 GRANTLEY DRIVE GLADSTONE PARK 3043",
    "locID": "LOC000063726465",
    "tech": "FTTP",
    "upgrade": "NULL_NA",
    "gnaf_pid": "GAVIC419628573"
   }
  },
  {
   "type": "Feature",
   "geometry": {
    "type": "Point",
    "coordinates": [
     144.894149,
     -37.685675
    ]
   },
   "properties": {
    "name": "3 CLIVEDON PLACE GLADSTONE PARK 3043",
    "locID": "LOC000061343672",
    "tech": "FTTP",
    "upgrade": "NULL_NA",
    "gnaf_pid": "GAVIC419628654"
   }
  },
  {
   "type": "Feature",
   "geometry": {
    "type": "Point",
    "coordinates": [
     144.88471,
     -37.692193
    ]
   },
   "properties": {
    "name": "4 BOWER COURT GLADSTONE PARK 3043",
    "locID": "LOC000007065905",
    "tech": "FTTP",
    "upgrade": "NULL_NA",
    "gnaf_pid": "GAVIC419628678"
   }
  },
  {
   "type": "Feature",
   "geometry": {
    "type": "Point",
    "coordinates": [
     144.887003,
     -37.684142
    ]
   },
   "properties": {
    "name": "6 BRAEMAR CLOSE GLADSTONE PARK 3043",
    "locID": "LOC000022178645",
    "tech": "FTTP",
    "upgrade": "NULL_NA",
    "gnaf_pid": "GAVIC419628684"
   }
  },
  {
   "type": "Feature",
   "geometry": {
    "type": "Point",
    "coordinates": [
     144.897792,
     -37.683154
    ]
   },
   "properties": {
    "name": "5 VAN COURT GLADSTONE PARK 3043",
    "locID": "LOC000042313108",
    "tech": "FTTP",
    "upgrade": "NULL_NA",
    "gnaf_pid": "GAVIC419628706"
   }
  },
  {
   "type": "Feature",
   "geometry": {
    "type": "Point",
    "coordinates": [
     144.893699,
     -37.697149
    ]
   },
   "properties": {
    "name": "7 VAUCLUSE AVENUE GLADSTONE PARK 3043",
    "locID": "LOC000075965882",
    "tech": "FTTP",
    "upgrade": "NULL_NA",
    "gnaf_pid": "GAVIC419628707"
   }
  },
  {
   "type": "Feature",
   "geometry": {
    "type": "Point",
    "coordinates": [
     144.893588,
     -37.697471
    ]
   },
   "properties": {
    "name": "10 VAUCLUSE AVENUE GLADSTONE PARK 3043",
    "locID": "LOC000013866059",
    "tech": "FTTP",
    "upgrade": "NULL_NA",
    "gnaf_pid": "GAVIC419628708"
   }
  },
  {
   "type": "Feature",
   "geometry": {
    "type": "Point",
    "coordinates": [
     144.894236,
     -37.69741
    ]
   },
   "properties": {
    "name": "13 VAUCLUSE AVENUE GLADSTONE PARK 3043",
    "locID": "LOC000069606928",
    "tech": "FTTP",
    "upgrade": "NULL_NA",
    "gnaf_pid": "GAVIC419628709"
   }
  },
  {
   "type": "Feature",
   "geometry": {
    "type": "Point",
    "coordinates": [
     144.894659,
     -37.697697
    ]
   },
   "properties": {
    "name": "22 VAUCLUSE AVENUE GLADSTONE PARK 3043",
    "locID": "LOC000089587299",
    "tech": "FTTP",
    "upgrade": "NULL_NA",
    "gnaf_pid": "GAVIC419628710"
   }
  },
  {
   "type": "Feature",
   "geometry": {
    "type": "Point",
    "coordinates": [
     144.89526,
     -37.697303
    ]
   },
   "properties": {
    "name": "30 VAUCLUSE AVENUE GLADSTONE PARK 3043",
    "locID": "LOC000050349632",
    "tech": "FTTP",
    "upgrade": "NULL_NA",
    "gnaf_pid": "GAVIC419628711"
   }
  },
  {
   "type": "Feature",
   "geometry": {
    "type": "Point",
    "coordinates": [
     144.885631,
     -37.684523
    ]
   },
   "properties": {
    "name": "18 RYLANDES DRIVE GLADSTONE PARK 3043",
    "locID": "LOC000083635638",
    "tech": "FTTP",
    "upgrade": "NULL_NA",
    "gnaf_pid": "GAVIC419628733"
   }
  },
  {
   "type": "Feature",
   "geometry": {
    "type": "Point",
    "coordinates": [
     144.885078,
     -37.684828
    ]
   },
   "properties": {
    "name": "19 RYLANDES DRIVE GLADSTONE PARK 3043",
    "locID": "LOC000101251611",
    "tech": "FTTP",
    "upgrade": "NULL_NA",
    "gnaf_pid": "GAVIC419628734"
   }
  },
  {
   "type": "Feature",
   "geometry": {
    "type": "Point",
    "coordinates": [
     144.898641,
     -37.693244
    ]
   },
   "properties": {
    "name": "9 LINACRE CRESCENT GLADSTONE PARK 3043",
    "locID": "LOC000100793439",
    "tech": "FTTP",
    "upgrade": "NULL_NA",
    "gnaf_pid": "GAVIC419628801"
   }
  },
  {
   "type": "Feature",
   "geometry": {
    "type": "Point",
    "coordinates": [
     144.890833,
     -37.690645
    ]
   },
   "properties": {
    "name": "4 TAYLOR DRIVE GLADSTONE PARK 3043",
    "locID": "LOC000095183090",
    "tech": "FTTP",
    "upgrade": "NULL_NA",
    "gnaf_pid": "GAVIC419628803"
   }
  },
  {
   "type": "Feature",
   "geometry": {
    "type": "Point",
    "coordinates": [
     144.889654,
     -37.689822
    ]
   },
   "properties": {
    "name": "19 TAYLOR DRIVE GLADSTONE PARK 3043",
    "locID": "LOC000004461132",
    "tech": "FTTP",
    "upgrade": "NULL_NA",
    "gnaf_pid": "GAVIC419628804"
   }
  },