{
 "type": "FeatureCollection",
 "generated": "2024-09-04T02:40:58.434713",
 "suburb": "GLENBRAE",
 "features": [
  {
   "type": "Feature",
   "geometry": {
    "type": "Point",
    "coordinates": [
     143.56782366,
     -37.35572345
    ]
   },
   "properties": {
    "name": "160 GLENBRAE SCHOOL ROAD GLENBRAE 3352",
    "locID": "LOC000030074623",
    "tech": "SATELLITE",
    "upgrade": "NULL_NA",
    "gnaf_pid": "GAVIC420075606",
    "tech_change_status": "Not Planned"
   }
  },
  {
   "type": "Feature",
   "geometry": {
    "type": "Point",
    "coordinates": [
     143.57422327,
     -37.37099735
    ]
   },
   "properties": {
    "name": "449 BEAUFORT-WAUBRA ROAD GLENBRAE 3352",
    "locID": "LOC000032011820",
    "tech": "SATELLITE",
    "upgrade": "NULL_NA",
    "gnaf_pid": "GAVIC420335105",
    "tech_change_status": "Not Planned"
   }
  },
  {
   "type": "Feature",
   "geometry": {
    "type": "Point",
    "coordinates": [
     143.572398,
     -37.33228
    ]
   },
   "properties": {
    "name": "425 GLENBRAE SCHOOL ROAD GLENBRAE 3352",
    "locID": "LOC000044489950",
    "tech": "SATELLITE",
    "upgrade": "NULL_NA",
    "gnaf_pid": "GAVIC420370855",
    "tech_change_status": "Not Planned"
   }
  },
  {
   "type": "Feature",
   "geometry": {
    "type": "Point",
    "coordinates": [
     143.54752331,
     -37.36156453
    ]
   },
   "properties": {
    "name": "67 LOBBS ROAD GLENBRAE 3352",
    "locID": "LOC000046056699",
    "tech": "WIRELESS",
    "upgrade": "NULL_NA",
    "gnaf_pid": "GAVIC420370864",
    "tech_change_status": "Not Planned",
    "program_type": "Fixed Wireless and Satellite Upgrade Program",
    "target_eligibility_quarter": "Dec 2024"
   }
  },
  {
   "type": "Feature",
   "geometry": {
    "type": "Point",
    "coordinates": [
     143.54054829,
     -37.34087695
    ]
   },
   "properties": {
    "name": "211 CLARKS ROAD GLENBRAE 3352",
    "locID": "LOC000091784294",
    "tech": "SATELLITE",
    "upgrade": "NULL_NA",
    "gnaf_pid": "GAVIC420445898",
    "tech_change_status": "Not Planned"
   }
  },
  {
   "type": "Feature",
   "geometry": {
    "type": "Point",
    "coordinates": [
     143.594229,
     -37.33076
    ]
   },
   "properties": {
    "name": "2561 SUNRAYSIA HIGHWAY GLENBRAE 3352",
    "locID": "LOC000086434594",
    "tech": "SATELLITE",
    "upgrade": "NULL_NA",
    "gnaf_pid": "GAVIC420586566",
    "tech_change_status": "Not Planned"
   }
  },
  {
   "type": "Feature",
   "geometry": {
    "type": "Point",
    "coordinates": [
     143.55272693,
     -37.33956802
    ]
   },
   "properties": {
    "name": "318 LOBBS ROAD GLENBRAE 3352",
    "locID": "LOC000069272039",
    "tech": "SATELLITE",
    "upgrade": "NULL_NA",
    "gnaf_pid": "GAVIC420683675",
    "tech_change_status": "Not Planned"
   }
  },
  {
   "type": "Feature",
   "geometry": {
    "type": "Point",
    "coordinates": [
     143.55020043,
     -37.35153161
    ]
   },
   "properties": {
    "name": "182 LOBBS ROAD GLENBRAE 3352",
    "locID": "LOC000088560217",
    "tech": "SATELLITE",
    "upgrade": "NULL_NA",
    "gnaf_pid": "GAVIC420683676",
    "tech_change_status": "Not Planned"
   }
  },
  {
   "type": "Feature",
   "geometry": {
    "type": "Point",
    "coordinates": [
     143.5548269,
     -37.3287765
    ]
   },
   "properties": {
    "name": "438 LOBBS ROAD GLENBRAE 3352",
    "locID": "LOC000048945765",
    "tech": "SATELLITE",
    "upgrade": "NULL_NA",
    "gnaf_pid": "GAVIC421216908",
    "tech_change_status": "Not Planned"
   }
  },
  {
   "type": "Feature",
   "geometry": {
    "type": "Point",
    "coordinates": [
     143.53842762,
     -37.37027658
    ]
   },
   "properties": {
    "name": "123 BEAUFORT-WAUBRA ROAD GLENBRAE 3352",
    "locID": "LOC000080264101",
    "tech": "SATELLITE",
    "upgrade": "NULL_NA",
    "gnaf_pid": "GAVIC421476279",
    "tech_change_status": "Not Planned"
   }
  },
  {
   "type": "Feature",
   "geometry": {
    "type": "Point",
    "coordinates": [
     143.523512,
     -37.359147
    ]
   },
   "properties": {
    "name": "1154 BLACK BOTTOM ROAD GLENBRAE 3352",
    "locID": "LOC000038643757",
    "tech": "SATELLITE",
    "upgrade": "NULL_NA",
    "gnaf_pid": "GAVIC421506084",
    "tech_change_status": "Not Planned"
   }
  },
  {
   "type": "Feature",
   "geometry": {
    "type": "Point",
    "coordinates": [
     143.52235868,
     -37.35491435
    ]
   },
   "properties": {
    "name": "1202 BLACK BOTTOM ROAD GLENBRAE 3352",
    "locID": "LOC000081185462",
    "tech": "SATELLITE",
    "upgrade": "NULL_NA",
    "gnaf_pid": "GAVIC421840222",
    "tech_change_status": "Not Planned"
   }
  },
  {
   "type": "Feature",
   "geometry": {
    "type": "Point",
    "coordinates": [
     143.569468,
     -37.346074
    ]
   },
   "properties": {
    "name": "269 GLENBRAE SCHOOL ROAD GLENBRAE 3352",
    "locID": "LOC000081106638",
    "tech": "SATELLITE",
    "upgrade": "NULL_NA",
    "gnaf_pid": "GAVIC421901602",
    "tech_change_status": "Not Planned"
   }
  },
  {
   "type": "Feature",
   "geometry": {
    "type": "Point",
    "coordinates": [
     143.518111,
     -37.337595
    ]
   },
   "properties": {
    "name": "1152 JONES ROAD GLENBRAE 3352",
    "locID": "LOC000042463473",
    "tech": "SATELLITE",
    "upgrade": "NULL_NA",
    "gnaf_pid": "GAVIC421912610",
    "tech_change_status": "Not Planned"
   }
  }
 ]
}