{
 "type": "FeatureCollection",
 "generated": "2023-10-24T05:47:21.914647",
 "suburb": "GLENGARRY",
 "features": [
  {
   "type": "Feature",
   "geometry": {
    "type": "Point",
    "coordinates": [
     146.58006796,
     -38.11556307
    ]
   },
   "properties": {
    "name": "142A TRARALGON-MAFFRA ROAD GLENGARRY 3854",
    "locID": "ChIJybzdxsYhKWsRiHH43EJozZM",
    "tech": "WIRELESS",
    "upgrade": "UNKNOWN",
    "gnaf_pid": "GAVIC411467183"
   }
  },
  {
   "type": "Feature",
   "geometry": {
    "type": "Point",
    "coordinates": [
     146.57183135,
     -38.12409694
    ]
   },
   "properties": {
    "name": "72 TRARALGON-MAFFRA ROAD GLENGARRY 3854",
    "locID": "LOC000113018829",
    "tech": "WIRELESS",
    "upgrade": "NULL_NA",
    "gnaf_pid": "GAVIC411467189"
   }
  },
  {
   "type": "Feature",
   "geometry": {
    "type": "Point",
    "coordinates": [
     146.55823745,
     -38.12260864
    ]
   },
   "properties": {
    "name": "90 RIFLE RANGE ROAD GLENGARRY 3854",
    "locID": "LOC000033428037",
    "tech": "WIRELESS",
    "upgrade": "NULL_NA",
    "gnaf_pid": "GAVIC411468734"
   }
  },
  {
   "type": "Feature",
   "geometry": {
    "type": "Point",
    "coordinates": [
     146.56980673,
     -38.14192059
    ]
   },
   "properties": {
    "name": "10 BLACK TANK ROAD GLENGARRY 3854",
    "locID": "LOC000059486845",
    "tech": "WIRELESS",
    "upgrade": "NULL_NA",
    "gnaf_pid": "GAVIC411470917"
   }
  },
  {
   "type": "Feature",
   "geometry": {
    "type": "Point",
    "coordinates": [
     146.57329209,
     -38.12276979
    ]
   },
   "properties": {
    "name": "18 GLEN ELWYN AVENUE GLENGARRY 3854",
    "locID": "ChIJMzMNpOghKWsRwCQZAg-RDfM",
    "tech": "WIRELESS",
    "upgrade": "UNKNOWN",
    "gnaf_pid": "GAVIC411470942"
   }
  },
  {
   "type": "Feature",
   "geometry": {
    "type": "Point",
    "coordinates": [
     146.57351607,
     -38.12461375
    ]
   },
   "properties": {
    "name": "UNIT 1, 37 MAIN STREET GLENGARRY 3854",
    "locID": "LOC000088778375",
    "tech": "WIRELESS",
    "upgrade": "NULL_NA",
    "gnaf_pid": "GAVIC411470948"
   }
  },
  {
   "type": "Feature",
   "geometry": {
    "type": "Point",
    "coordinates": [
     146.54620396,
     -38.13874045
    ]
   },
   "properties": {
    "name": "220 BLACK TANK ROAD GLENGARRY 3854",
    "locID": "LOC000048614427",
    "tech": "WIRELESS",
    "upgrade": "NULL_NA",
    "gnaf_pid": "GAVIC411472483"
   }
  },
  {
   "type": "Feature",
   "geometry": {
    "type": "Point",
    "coordinates": [
     146.56703375,
     -38.1330483
    ]
   },
   "properties": {
    "name": "1 MOORHOUSE CLOSE GLENGARRY 3854",
    "locID": "LOC000187344011",
    "tech": "WIRELESS",
    "upgrade": "NULL_NA",
    "gnaf_pid": "GAVIC411473287"
   }
  },
  {
   "type": "Feature",
   "geometry": {
    "type": "Point",
    "coordinates": [
     146.54832453,
     -38.13905505
    ]
   },
   "properties": {
    "name": "200 BLACK TANK ROAD GLENGARRY 3854",
    "locID": "LOC000009393186",
    "tech": "WIRELESS",
    "upgrade": "NULL_NA",
    "gnaf_pid": "GAVIC411473290"
   }
  },
  {
   "type": "Feature",
   "geometry": {
    "type": "Point",
    "coordinates": [
     146.5583486,
     -38.12309574
    ]
   },
   "properties": {
    "name": "85 RIFLE RANGE ROAD GLENGARRY 3854",
    "locID": "LOC000047341559",
    "tech": "WIRELESS",
    "upgrade": "NULL_NA",
    "gnaf_pid": "GAVIC411476856"
   }
  },
  {
   "type": "Feature",
   "geometry": {
    "type": "Point",
    "coordinates": [
     146.57351607,
     -38.12461375
    ]
   },
   "properties": {
    "name": "UNIT 3, 37 MAIN STREET GLENGARRY 3854",
    "locID": "LOC000089101622",
    "tech": "WIRELESS",
    "upgrade": "NULL_NA",
    "gnaf_pid": "GAVIC411479028"
   }
  },
  {
   "type": "Feature",
   "geometry": {
    "type": "Point",
    "coordinates": [
     146.59361448,
     -38.11785351
    ]
   },
   "properties": {
    "name": "64 OMARAS ROAD GLENGARRY 3854",
    "locID": "LOC000040871914",
    "tech": "WIRELESS",
    "upgrade": "NULL_NA",
    "gnaf_pid": "GAVIC411479036"
   }
  },
  {
   "type": "Feature",
   "geometry": {
    "type": "Point",
    "coordinates": [
     146.57120741,
     -38.13189898
    ]
   },
   "properties": {
    "name": "LOT 8 KYNE STREET GLENGARRY 3854",
    "locID": "LOC000032609450",
    "tech": "WIRELESS",
    "upgrade": "NULL_NA",
    "gnaf_pid": "GAVIC411480517"
   }
  },
  {
   "type": "Feature",
   "geometry": {
    "type": "Point",
    "coordinates": [
     146.57324311,
     -38.1247316
    ]
   },
   "properties": {
    "name": "UNIT 2, 35 MAIN STREET GLENGARRY 3854",
    "locID": "LOC000097099545",
    "tech": "WIRELESS",
    "upgrade": "NULL_NA",
    "gnaf_pid": "GAVIC411480525"
   }
  },
  {
   "type": "Feature",
   "geometry": {
    "type": "Point",
    "coordinates": [
     146.57265778,
     -38.12733632
    ]
   },
   "properties": {
    "name": "53 CAIRNBROOK ROAD GLENGARRY 3854",
    "locID": "LOC000114588401",
    "tech": "WIRELESS",
    "upgrade": "NULL_NA",
    "gnaf_pid": "GAVIC411481699"
   }
  },
  {
   "type": "Feature",
   "geometry": {
    "type": "Point",
    "coordinates": [
     146.57455985,
     -38.12345883
    ]
   },
   "properties": {
    "name": "1 MAIN STREET GLENGARRY 3854",
    "locID": "LOC000167379824",
    "tech": "WIRELESS",
    "upgrade": "NULL_NA",
    "gnaf_pid": "GAVIC411482314"
   }
  },
  {
   "type": "Feature",
   "geometry": {
    "type": "Point",
    "coordinates": [
     146.57310934,
     -38.1265328
    ]
   },
   "properties": {
    "name": "UNIT 1, 13 MAIN STREET GLENGARRY 3854",
    "locID": "ChIJxYDriO8hKWsRghZQq7DoWdQ",
    "tech": "WIRELESS",
    "upgrade": "UNKNOWN",
    "gnaf_pid": "GAVIC411482316"
   }
  },
  {
   "type": "Feature",
   "geometry": {
    "type": "Point",
    "coordinates": [
     146.54485785,
     -38.13867215
    ]
   },
   "properties": {
    "name": "230 BLACK TANK ROAD GLENGARRY 3854",
    "locID": "LOC000075841351",
    "tech": "WIRELESS",
    "upgrade": "NULL_NA",
    "gnaf_pid": "GAVIC411482321"
   }
  },
  {
   "type": "Feature",
   "geometry": {
    "type": "Point",
    "coordinates": [
     146.57351607,
     -38.12461375
    ]
   },
   "properties": {
    "name": "37 MAIN STREET GLENGARRY 3854",
    "locID": "LOC000167379824",
    "tech": "WIRELESS",
    "upgrade": "NULL_NA",
    "gnaf_pid": "GAVIC411482668"
   }
  },
  {
   "type": "Feature",
   "geometry": {
    "type": "Point",
    "coordinates": [
     146.58006796,
     -38.11556307
    ]
   },
   "properties": {
    "name": "131B TRARALGON-MAFFRA ROAD GLENGARRY 3854",
    "locID": "ChIJybzdxsYhKWsRV75kTHb64KM",
    "tech": "WIRELESS",
    "upgrade": "UNKNOWN",
    "gnaf_pid": "GAVIC411485001"
   }
  },
  {
   "type": "Feature",
   "geometry": {
    "type": "Point",
    "coordinates": [
     146.57388045,
     -38.14197149
    ]
   },
   "properties": {
    "name": "20 WILLIAMS ROAD GLENGARRY 3854",
    "locID": "ChIJ6ThMVAUiKWsR5TZVx2Xi7DI",
    "tech": "WIRELESS",
    "upgrade": "UNKNOWN",
    "gnaf_pid": "GAVIC411485009"
   }
  },
  {
   "type": "Feature",
   "geometry": {
    "type": "Point",
    "coordinates": [
     146.57072105,
     -38.12945476
    ]
   },
   "properties": {
    "name": "12 KYNE STREET GLENGARRY 3854",
    "locID": "LOC000030949452",
    "tech": "WIRELESS",
    "upgrade": "NULL_NA",
    "gnaf_pid": "GAVIC411487072"
   }
  },
  {
   "type": "Feature",
   "geometry": {
    "type": "Point",
    "coordinates": [
     146.70567204,
     -38.12341353
    ]
   },
   "properties": {
    "name": "322 LOWER CAIRNBROOK ROAD GLENGARRY 3854",
    "locID": "LOC000066109767",
    "tech": "WIRELESS",
    "upgrade": "NULL_NA",
    "gnaf_pid": "GAVIC411490394"
   }
  },
  {
   "type": "Feature",
   "geometry": {
    "type": "Point",
    "coordinates": [
     146.57351607,
     -38.12461375
    ]
   },
   "properties": {
    "name": "UNIT 2, 37 MAIN STREET GLENGARRY 3854",
    "locID": "LOC000088920516",
    "tech": "WIRELESS",
    "upgrade": "NULL_NA",
    "gnaf_pid": "GAVIC411491041"
   }
  },
  {
   "type": "Feature",
   "geometry": {
    "type": "Point",
    "coordinates": [
     146.56547084,
     -38.1332627
    ]
   },
   "properties": {
    "name": "5 PRATT COURT GLENGARRY 3854",
    "locID": "LOC000047876479",
    "tech": "WIRELESS",
    "upgrade": "NULL_NA",
    "gnaf_pid": "GAVIC411498892"
   }
  },
  {
   "type": "Feature",
   "geometry": {
    "type": "Point",
    "coordinates": [
     146.5464633,
     -38.14661846
    ]
   },
   "properties": {
    "name": "75 SCARNE ROAD GLENGARRY 3854",
    "locID": "LOC000101377869",
    "tech": "WIRELESS",
    "upgrade": "NULL_NA",
    "gnaf_pid": "GAVIC411500799"
   }
  },
  {
   "type": "Feature",
   "geometry": {
    "type": "Point",
    "coordinates": [
     146.57455985,
     -38.12345883
    ]
   },
   "properties": {
    "name": "3 MAIN STREET GLENGARRY 3854",
    "locID": "LOC000097333976",
    "tech": "WIRELESS",
    "upgrade": "NULL_NA",
    "gnaf_pid": "GAVIC411500800"
   }
  },
  {
   "type": "Feature",
   "geometry": {
    "type": "Point",
    "coordinates": [
     146.5690175,
     -38.13405313
    ]
   },
   "properties": {
    "name": "LOT 45 KING ROAD GLENGARRY 3854",
    "locID": "Eik0NSBLaW5nIFJkLCBHbGVuZ2FycnkgVklDIDM4NTQsIEF1c3RyYWxpYSIwEi4KFAoSCYFdL-L4ISlrEWBAqg6keQUTEC0qFAoSCen-JeL4ISlrEc0D267LlbLM",
    "tech": "WIRELESS",
    "upgrade": "UNKNOWN",
    "gnaf_pid": "GAVIC412679044"
   }
  },
  {
   "type": "Feature",
   "geometry": {
    "type": "Point",
    "coordinates": [
     146.57195431,
     -38.123366
    ]
   },
   "properties": {
    "name": "LOT 9 MORRISON PARADE GLENGARRY 3854",
    "locID": "EjA5IE1vcnJpc29uIFBhcmFkZSwgR2xlbmdhcnJ5IFZJQyAzODU0LCBBdXN0cmFsaWEiMBIuChQKEgnvvIEI5iEpaxFRGZMOpHkFExAJKhQKEgnvvIEI5iEpaxEv9pQ7oTcD3Q",
    "tech": "WIRELESS",
    "upgrade": "UNKNOWN",
    "gnaf_pid": "GAVIC412679057"
   }
  },
  {
   "type": "Feature",
   "geometry": {
    "type": "Point",
    "coordinates": [
     146.5702018,
     -38.12973732
    ]
   },
   "properties": {
    "name": "LOT 28 RHODES COURT GLENGARRY 3854",
    "locID": "EisyOCBSaG9kZXMgQ3QsIEdsZW5nYXJyeSBWSUMgMzg1NCwgQXVzdHJhbGlhIjASLgoUChIJCxtyUvohKWsR4D-qDqR5BRMQHCoUChIJjb1vUvohKWsRIqEweRUgj0I",
    "tech": "WIRELESS",
    "upgrade": "UNKNOWN",
    "gnaf_pid": "GAVIC412679058"
   }
  },
  {
   "type": "Feature",
   "geometry": {
    "type": "Point",
    "coordinates": [
     146.58006796,
     -38.11556307
    ]
   },
   "properties": {
    "name": "LOT 1 TRARALGON-MAFFRA ROAD GLENGARRY 3854",
    "locID": "LOC000175919723",
    "tech": "WIRELESS",
    "upgrade": "NULL_NA",
    "gnaf_pid": "GAVIC412681047"
   }
  },
  {
   "type": "Feature",
   "geometry": {
    "type": "Point",
    "coordinates": [
     146.54564429,
     -38.14654081
    ]
   },
   "properties": {
    "name": "LOT 6 SCARNE ROAD GLENGARRY 3854",
    "locID": "Eio2IFNjYXJuZSBSZCwgR2xlbmdhcnJ5IFZJQyAzODU0LCBBdXN0cmFsaWEiMBIuChQKEgndG0iIlRgpaxGbYrBigzDaLRAGKhQKEgnNhADvvRgpaxFLEWb4eArkqA",
    "tech": "WIRELESS",
    "upgrade": "UNKNOWN",
    "gnaf_pid": "GAVIC412681101"
   }
  },
  {
   "type": "Feature",
   "geometry": {
    "type": "Point",
    "coordinates": [
     146.5690175,
     -38.13405313
    ]
   },
   "properties": {
    "name": "LOT 44 KING ROAD GLENGARRY 3854",
    "locID": "Eik0NCBLaW5nIFJkLCBHbGVuZ2FycnkgVklDIDM4NTQsIEF1c3RyYWxpYSIwEi4KFAoSCYFdL-L4ISlrEWFAqg6keQUTECwqFAoSCen-JeL4ISlrEc0D267LlbLM",
    "tech": "WIRELESS",
    "upgrade": "UNKNOWN",
    "gnaf_pid": "GAVIC412681103"
   }
  },
  {
   "type": "Feature",
   "geometry": {
    "type": "Point",
    "coordinates": [
     146.5702018,
     -38.12973732
    ]
   },
   "properties": {
    "name": "LOT 34 RHODES COURT GLENGARRY 3854",
    "locID": "EiszNCBSaG9kZXMgQ3QsIEdsZW5nYXJyeSBWSUMgMzg1NCwgQXVzdHJhbGlhIjASLgoUChIJCxtyUvohKWsR4D-qDqR5BRMQIioUChIJjb1vUvohKWsRIqEweRUgj0I",
    "tech": "WIRELESS",
    "upgrade": "UNKNOWN",
    "gnaf_pid": "GAVIC412681108"
   }
  },
  {
   "type": "Feature",
   "geometry": {
    "type": "Point",
    "coordinates": [
     146.5690175,
     -38.13405313
    ]
   },
   "properties": {
    "name": "LOT 49 KING ROAD GLENGARRY 3854",
    "locID": "Eik0OSBLaW5nIFJkLCBHbGVuZ2FycnkgVklDIDM4NTQsIEF1c3RyYWxpYSIwEi4KFAoSCYFdL-L4ISlrEWBAqg6keQUTEDEqFAoSCen-JeL4ISlrEc0D267LlbLM",
    "tech": "WIRELESS",
    "upgrade": "UNKNOWN",
    "gnaf_pid": "GAVIC412681121"
   }
  },
  {
   "type": "Feature",
   "geometry": {
    "type": "Point",
    "coordinates": [
     146.56819408,
     -38.13538941
    ]
   },
   "properties": {
    "name": "LOT 55 COBHAM COURT GLENGARRY 3854",
    "locID": "Eis1NSBDb2JoYW0gQ3QsIEdsZW5nYXJyeSBWSUMgMzg1NCwgQXVzdHJhbGlhIjASLgoUChIJ_aiHuPghKWsRMUCqDqR5BRMQNyoUChIJ3TwTu_ghKWsRcIlJKgm8caQ",
    "tech": "WIRELESS",
    "upgrade": "UNKNOWN",
    "gnaf_pid": "GAVIC412683219"
   }
  },
  {
   "type": "Feature",
   "geometry": {
    "type": "Point",
    "coordinates": [
     146.56819408,
     -38.13538941
    ]
   },
   "properties": {
    "name": "LOT 59 COBHAM COURT GLENGARRY 3854",
    "locID": "Eis1OSBDb2JoYW0gQ3QsIEdsZW5nYXJyeSBWSUMgMzg1NCwgQXVzdHJhbGlhIjASLgoUChIJ_aiHuPghKWsRMUCqDqR5BRMQOyoUChIJ3TwTu_ghKWsRcIlJKgm8caQ",
    "tech": "WIRELESS",
    "upgrade": "UNKNOWN",
    "gnaf_pid": "GAVIC412683224"
   }
  },
  {
   "type": "Feature",
   "geometry": {
    "type": "Point",
    "coordinates": [
     146.55508955,
     -38.1209384
    ]
   },
   "properties": {
    "name": "LOT 1 RIFLE RANGE ROAD GLENGARRY 3854",
    "locID": "LOC000167790698",
    "tech": "WIRELESS",
    "upgrade": "NULL_NA",
    "gnaf_pid": "GAVIC412683272"
   }
  },
  {
   "type": "Feature",
   "geometry": {
    "type": "Point",
    "coordinates": [
     146.56753852,
     -38.1316622
    ]
   },
   "properties": {
    "name": "LOT 15 HAMBROOK LANE GLENGARRY 3854",
    "locID": "ChIJ58_-3PshKWsR6zQC9bhH3_U",
    "tech": "WIRELESS",
    "upgrade": "UNKNOWN",
    "gnaf_pid": "GAVIC412685162"
   }
  },
  {
   "type": "Feature",
   "geometry": {
    "type": "Point",
    "coordinates": [
     146.56819408,
     -38.13538941
    ]
   },
   "properties": {
    "name": "LOT 52 COBHAM COURT GLENGARRY 3854",
    "locID": "Eis1MiBDb2JoYW0gQ3QsIEdsZW5nYXJyeSBWSUMgMzg1NCwgQXVzdHJhbGlhIjASLgoUChIJ_aiHuPghKWsRMUCqDqR5BRMQNCoUChIJ3TwTu_ghKWsRcIlJKgm8caQ",
    "tech": "WIRELESS",
    "upgrade": "UNKNOWN",
    "gnaf_pid": "GAVIC412685171"
   }
  },
  {
   "type": "Feature",
   "geometry": {
    "type": "Point",
    "coordinates": [
     146.6153645,
     -38.11128571
    ]
   },
   "properties": {
    "name": "LOT 1 RIVER ROAD GLENGARRY 3854",
    "locID": "LOC000189881728",
    "tech": "WIRELESS",
    "upgrade": "NULL_NA",
    "gnaf_pid": "GAVIC412685174"
   }
  },
  {
   "type": "Feature",
   "geometry": {
    "type": "Point",
    "coordinates": [
     146.56819408,
     -38.13538941
    ]
   },
   "properties": {
    "name": "LOT 53 COBHAM COURT GLENGARRY 3854",
    "locID": "Eis1MyBDb2JoYW0gQ3QsIEdsZW5nYXJyeSBWSUMgMzg1NCwgQXVzdHJhbGlhIjASLgoUChIJ_aiHuPghKWsRMUCqDqR5BRMQNSoUChIJ3TwTu_ghKWsRcIlJKgm8caQ",
    "tech": "WIRELESS",
    "upgrade": "UNKNOWN",
    "gnaf_pid": "GAVIC412685178"
   }
  },
  {
   "type": "Feature",
   "geometry": {
    "type": "Point",
    "coordinates": [
     146.57195431,
     -38.123366
    ]
   },
   "properties": {
    "name": "LOT 30 MORRISON PARADE GLENGARRY 3854",
    "locID": "EjEzMCBNb3JyaXNvbiBQYXJhZGUsIEdsZW5nYXJyeSBWSUMgMzg1NCwgQXVzdHJhbGlhIjASLgoUChIJ77yBCOYhKWsRUBmTDqR5BRMQHioUChIJ77yBCOYhKWsRL_aUO6E3A90",
    "tech": "WIRELESS",
    "upgrade": "UNKNOWN",
    "gnaf_pid": "GAVIC412685182"
   }
  },
  {
   "type": "Feature",
   "geometry": {
    "type": "Point",
    "coordinates": [
     146.55482776,
     -38.14011753
    ]
   },
   "properties": {
    "name": "LOT 3 BLACK TANK ROAD GLENGARRY 3854",
    "locID": "LOC000066032488",
    "tech": "WIRELESS",
    "upgrade": "NULL_NA",
    "gnaf_pid": "GAVIC412685236"
   }
  },
  {
   "type": "Feature",
   "geometry": {
    "type": "Point",
    "coordinates": [
     146.56819408,
     -38.13538941
    ]
   },
   "properties": {
    "name": "LOT 57 COBHAM COURT GLENGARRY 3854",
    "locID": "Eis1NyBDb2JoYW0gQ3QsIEdsZW5nYXJyeSBWSUMgMzg1NCwgQXVzdHJhbGlhIjASLgoUChIJ_aiHuPghKWsRMUCqDqR5BRMQOSoUChIJ3TwTu_ghKWsRcIlJKgm8caQ",
    "tech": "WIRELESS",
    "upgrade": "UNKNOWN",
    "gnaf_pid": "GAVIC412685239"
   }
  },
  {
   "type": "Feature",
   "geometry": {
    "type": "Point",
    "coordinates": [
     146.56819408,
     -38.13538941
    ]
   },
   "properties": {
    "name": "LOT 56 COBHAM COURT GLENGARRY 3854",
    "locID": "ChIJifILu_ghKWsRHdWQJ3lkQJM",
    "tech": "WIRELESS",
    "upgrade": "UNKNOWN",
    "gnaf_pid": "GAVIC412687237"
   }
  },
  {
   "type": "Feature",
   "geometry": {
    "type": "Point",
    "coordinates": [
     146.57195431,
     -38.123366
    ]
   },
   "properties": {
    "name": "LOT 31 MORRISON PARADE GLENGARRY 3854",
    "locID": "EjEzMSBNb3JyaXNvbiBQYXJhZGUsIEdsZW5nYXJyeSBWSUMgMzg1NCwgQXVzdHJhbGlhIjASLgoUChIJ77yBCOYhKWsRURmTDqR5BRMQHyoUChIJ77yBCOYhKWsRL_aUO6E3A90",
    "tech": "WIRELESS",
    "upgrade": "UNKNOWN",
    "gnaf_pid": "GAVIC412687315"
   }
  },
  {
   "type": "Feature",
   "geometry": {
    "type": "Point",
    "coordinates": [
     146.56753852,
     -38.1316622
    ]
   },
   "properties": {
    "name": "LOT 17 HAMBROOK LANE GLENGARRY 3854",
    "locID": "Ei0xNyBIYW1icm9vayBMbiwgR2xlbmdhcnJ5IFZJQyAzODU0LCBBdXN0cmFsaWEiMBIuChQKEgntlYhR-SEpaxFRPqoOpHkFExARKhQKEgmLZBdS-SEpaxEVI5p8StZ_AA",
    "tech": "WIRELESS",
    "upgrade": "UNKNOWN",
    "gnaf_pid": "GAVIC412687317"
   }
  },
  {
   "type": "Feature",
   "geometry": {
    "type": "Point",
    "coordinates": [
     146.57600092,
     -38.11759436
    ]
   },
   "properties": {
    "name": "1545 GLENGARRY NORTH ROAD GLENGARRY 3854",
    "locID": "ChIJj8x4VMIhKWsRdI0psQ7PB60",
    "tech": "WIRELESS",
    "upgrade": "UNKNOWN",
    "gnaf_pid": "GAVIC414647451"
   }
  },
  {
   "type": "Feature",
   "geometry": {
    "type": "Point",
    "coordinates": [
     146.53990532,
     -38.13012283
    ]
   },
   "properties": {
    "name": "33A FRANCIS ROAD GLENGARRY 3854",
    "locID": "ChIJxzYrjrUYKWsRPhuXEH_XBKs",
    "tech": "WIRELESS",
    "upgrade": "UNKNOWN",
    "gnaf_pid": "GAVIC414651011"
   }
  },
  {
   "type": "Feature",
   "geometry": {
    "type": "Point",
    "coordinates": [
     146.58006796,
     -38.11556307
    ]
   },
   "properties": {
    "name": "1000 TRARALGON-MAFFRA ROAD GLENGARRY 3854",
    "locID": "ChIJybzdxsYhKWsRccrgDtYg6vk",
    "tech": "WIRELESS",
    "upgrade": "UNKNOWN",
    "gnaf_pid": "GAVIC414669519"
   }
  },
  {
   "type": "Feature",
   "geometry": {
    "type": "Point",
    "coordinates": [
     146.58441948,
     -38.1127542
    ]
   },
   "properties": {
    "name": "1010 TRARALGON-MAFFRA ROAD GLENGARRY 3854",
    "locID": "LOC000092169360",
    "tech": "WIRELESS",
    "upgrade": "NULL_NA",
    "gnaf_pid": "GAVIC414669521"
   }
  },
  {
   "type": "Feature",
   "geometry": {
    "type": "Point",
    "coordinates": [
     146.57600092,
     -38.11759436
    ]
   },
   "properties": {
    "name": "1460 GLENGARRY NORTH ROAD GLENGARRY 3854",
    "locID": "ChIJj8x4VMIhKWsRrta1bA6LZVs",
    "tech": "WIRELESS",
    "upgrade": "UNKNOWN",
    "gnaf_pid": "GAVIC414683751"
   }
  },
  {
   "type": "Feature",
   "geometry": {
    "type": "Point",
    "coordinates": [
     146.57600092,
     -38.11759436
    ]
   },
   "properties": {
    "name": "1405 GLENGARRY NORTH ROAD GLENGARRY 3854",
    "locID": "ChIJj8x4VMIhKWsRUcNAxmrEp4g",
    "tech": "WIRELESS",
    "upgrade": "UNKNOWN",
    "gnaf_pid": "GAVIC414683752"
   }
  },
  {
   "type": "Feature",
   "geometry": {
    "type": "Point",
    "coordinates": [
     146.57600092,
     -38.11759436
    ]
   },
   "properties": {
    "name": "1475 GLENGARRY NORTH ROAD GLENGARRY 3854",
    "locID": "ChIJj8x4VMIhKWsRshdkjbSxht0",
    "tech": "WIRELESS",
    "upgrade": "UNKNOWN",
    "gnaf_pid": "GAVIC414683753"
   }
  },
  {
   "type": "Feature",
   "geometry": {
    "type": "Point",
    "coordinates": [
     146.57600092,
     -38.11759436
    ]
   },
   "properties": {
    "name": "1470 GLENGARRY NORTH ROAD GLENGARRY 3854",
    "locID": "ChIJj8x4VMIhKWsRm7b72_az_Gk",
    "tech": "WIRELESS",
    "upgrade": "UNKNOWN",
    "gnaf_pid": "GAVIC414683754"
   }
  },
  {
   "type": "Feature",
   "geometry": {
    "type": "Point",
    "coordinates": [
     146.57600092,
     -38.11759436
    ]
   },
   "properties": {
    "name": "1474 GLENGARRY NORTH ROAD GLENGARRY 3854",
    "locID": "ChIJj8x4VMIhKWsRXntyMYWEZEk",
    "tech": "WIRELESS",
    "upgrade": "UNKNOWN",
    "gnaf_pid": "GAVIC414683755"
   }
  },
  {
   "type": "Feature",
   "geometry": {
    "type": "Point",
    "coordinates": [
     146.57600092,
     -38.11759436
    ]
   },
   "properties": {
    "name": "1480 GLENGARRY NORTH ROAD GLENGARRY 3854",
    "locID": "ChIJj8x4VMIhKWsR2elVRNkRqHw",
    "tech": "WIRELESS",
    "upgrade": "UNKNOWN",
    "gnaf_pid": "GAVIC414683756"
   }
  },
  {
   "type": "Feature",
   "geometry": {
    "type": "Point",
    "coordinates": [
     146.57600092,
     -38.11759436
    ]
   },
   "properties": {
    "name": "1485 GLENGARRY NORTH ROAD GLENGARRY 3854",
    "locID": "ChIJj8x4VMIhKWsR4JVbslHwWb4",
    "tech": "WIRELESS",
    "upgrade": "UNKNOWN",
    "gnaf_pid": "GAVIC414683757"
   }
  },
  {
   "type": "Feature",
   "geometry": {
    "type": "Point",
    "coordinates": [
     146.64611197,
     -38.11681157
    ]
   },
   "properties": {
    "name": "22 CAIRNBROOK ROAD GLENGARRY 3854",
    "locID": "LOC000033430845",
    "tech": "WIRELESS",
    "upgrade": "NULL_NA",
    "gnaf_pid": "GAVIC414683816"
   }
  },
  {
   "type": "Feature",
   "geometry": {
    "type": "Point",
    "coordinates": [
     146.573453,
     -38.12491121
    ]
   },
   "properties": {
    "name": "35 MAIN STREET GLENGARRY 3854",
    "locID": "LOC000097333976",
    "tech": "WIRELESS",
    "upgrade": "NULL_NA",
    "gnaf_pid": "GAVIC414690405"
   }
  },
  {
   "type": "Feature",
   "geometry": {
    "type": "Point",
    "coordinates": [
     146.57195431,
     -38.123366
    ]
   },
   "properties": {
    "name": "24 MORRISON PARADE GLENGARRY 3854",
    "locID": "ChIJCdGu4-UhKWsRc7AUU2_s4Qo",
    "tech": "WIRELESS",
    "upgrade": "UNKNOWN",
    "gnaf_pid": "GAVIC414690439"
   }
  },
  {
   "type": "Feature",
   "geometry": {
    "type": "Point",
    "coordinates": [
     146.56545519,
     -38.13303091
    ]
   },
   "properties": {
    "name": "UNIT 5, 6 PRATT COURT GLENGARRY 3854",
    "locID": "LOC000035970663",
    "tech": "WIRELESS",
    "upgrade": "NULL_NA",
    "gnaf_pid": "GAVIC414690449"
   }
  },
  {
   "type": "Feature",
   "geometry": {
    "type": "Point",
    "coordinates": [
     146.5702018,
     -38.12973732
    ]
   },
   "properties": {
    "name": "49 RHODES COURT GLENGARRY 3854",
    "locID": "ChIJE9dwVfohKWsRl4j0uMWW0jA",
    "tech": "WIRELESS",
    "upgrade": "UNKNOWN",
    "gnaf_pid": "GAVIC414706527"
   }
  },
  {
   "type": "Feature",
   "geometry": {
    "type": "Point",
    "coordinates": [
     146.53583195,
     -38.14896299
    ]
   },
   "properties": {
    "name": "1085 CHRISTENSENS ROAD GLENGARRY 3854",
    "locID": "ChIJmWp2husYKWsRNk0nAlEUzDk",
    "tech": "WIRELESS",
    "upgrade": "UNKNOWN",
    "gnaf_pid": "GAVIC414750749"
   }
  },
  {
   "type": "Feature",
   "geometry": {
    "type": "Point",
    "coordinates": [
     146.53583195,
     -38.14896299
    ]
   },
   "properties": {
    "name": "1087 CHRISTENSENS ROAD GLENGARRY 3854",
    "locID": "ChIJmWp2husYKWsRKSCjqvtot3o",
    "tech": "WIRELESS",
    "upgrade": "UNKNOWN",
    "gnaf_pid": "GAVIC414750750"
   }
  },
  {
   "type": "Feature",
   "geometry": {
    "type": "Point",
    "coordinates": [
     146.53583195,
     -38.14896299
    ]
   },
   "properties": {
    "name": "1090 CHRISTENSENS ROAD GLENGARRY 3854",
    "locID": "ChIJmWp2husYKWsRYez9t-c5qkI",
    "tech": "WIRELESS",
    "upgrade": "UNKNOWN",
    "gnaf_pid": "GAVIC414750751"
   }
  },
  {
   "type": "Feature",
   "geometry": {
    "type": "Point",
    "coordinates": [
     146.53583195,
     -38.14896299
    ]
   },
   "properties": {
    "name": "1095 CHRISTENSENS ROAD GLENGARRY 3854",
    "locID": "ChIJmWp2husYKWsRAARv-5c5h2Y",
    "tech": "WIRELESS",
    "upgrade": "UNKNOWN",
    "gnaf_pid": "GAVIC414750752"
   }
  },
  {
   "type": "Feature",
   "geometry": {
    "type": "Point",
    "coordinates": [
     146.57364245,
     -38.12605216
    ]
   },
   "properties": {
    "name": "18 MAIN STREET GLENGARRY 3854",
    "locID": "LOC000086284941",
    "tech": "WIRELESS",
    "upgrade": "NULL_NA",
    "gnaf_pid": "GAVIC419670538"
   }
  },
  {
   "type": "Feature",
   "geometry": {
    "type": "Point",
    "coordinates": [
     146.5715467,
     -38.13125865
    ]
   },
   "properties": {
    "name": "33-37 KYNE STREET GLENGARRY 3854",
    "locID": "LOC000125292948",
    "tech": "WIRELESS",
    "upgrade": "NULL_NA",
    "gnaf_pid": "GAVIC419740096"
   }
  },
  {
   "type": "Feature",
   "geometry": {
    "type": "Point",
    "coordinates": [
     146.55788341,
     -38.1340173
    ]
   },
   "properties": {
    "name": "675 TRARALGON-MAFFRA ROAD GLENGARRY 3854",
    "locID": "LOC000031045514",
    "tech": "WIRELESS",
    "upgrade": "NULL_NA",
    "gnaf_pid": "GAVIC419751260"
   }
  },
  {
   "type": "Feature",
   "geometry": {
    "type": "Point",
    "coordinates": [
     146.56591632,
     -38.12997485
    ]
   },
   "properties": {
    "name": "8-12 CAREY DRIVE GLENGARRY 3854",
    "locID": "ChIJ6QPEF_whKWsRhJjld3pjB1Q",
    "tech": "WIRELESS",
    "upgrade": "UNKNOWN",
    "gnaf_pid": "GAVIC419765886"
   }
  },
  {
   "type": "Feature",
   "geometry": {
    "type": "Point",
    "coordinates": [
     146.56622725,
     -38.13300031
    ]
   },
   "properties": {
    "name": "1-2 PRATT COURT GLENGARRY 3854",
    "locID": "ChIJiRzO2P4hKWsRnzoMTMKY5tY",
    "tech": "WIRELESS",
    "upgrade": "UNKNOWN",
    "gnaf_pid": "GAVIC419765888"
   }
  },
  {
   "type": "Feature",
   "geometry": {
    "type": "Point",
    "coordinates": [
     146.5730734,
     -38.12489851
    ]
   },
   "properties": {
    "name": "UNIT 3, 35 MAIN STREET GLENGARRY 3854",
    "locID": "LOC000097333976",
    "tech": "WIRELESS",
    "upgrade": "NULL_NA",
    "gnaf_pid": "GAVIC419768411"
   }
  },
  {
   "type": "Feature",
   "geometry": {
    "type": "Point",
    "coordinates": [
     146.5701619,
     -38.13075655
    ]
   },
   "properties": {
    "name": "9 RHODES COURT GLENGARRY 3854",
    "locID": "LOC000062427961",
    "tech": "WIRELESS",
    "upgrade": "NULL_NA",
    "gnaf_pid": "GAVIC419772819"
   }
  },
  {
   "type": "Feature",
   "geometry": {
    "type": "Point",
    "coordinates": [
     146.57116177,
     -38.12935668
    ]
   },
   "properties": {
    "name": "13 KYNE STREET GLENGARRY 3854",
    "locID": "LOC000003891351",
    "tech": "WIRELESS",
    "upgrade": "NULL_NA",
    "gnaf_pid": "GAVIC419772820"
   }
  },
  {
   "type": "Feature",
   "geometry": {
    "type": "Point",
    "coordinates": [
     146.57014039,
     -38.13407024
    ]
   },
   "properties": {
    "name": "24-30 KING ROAD GLENGARRY 3854",
    "locID": "ChIJnVj1qfkhKWsR8H6hFOdug9k",
    "tech": "WIRELESS",
    "upgrade": "UNKNOWN",
    "gnaf_pid": "GAVIC419772821"
   }
  },
  {
   "type": "Feature",
   "geometry": {
    "type": "Point",
    "coordinates": [
     146.56932023,
     -38.13415975
    ]
   },
   "properties": {
    "name": "16-22 KING ROAD GLENGARRY 3854",
    "locID": "LOC000125283876",
    "tech": "WIRELESS",
    "upgrade": "NULL_NA",
    "gnaf_pid": "GAVIC419772822"
   }
  },
  {
   "type": "Feature",
   "geometry": {
    "type": "Point",
    "coordinates": [
     146.56777073,
     -38.13442029
    ]
   },
   "properties": {
    "name": "2-6 KING ROAD GLENGARRY 3854",
    "locID": "LOC000125283967",
    "tech": "WIRELESS",
    "upgrade": "NULL_NA",
    "gnaf_pid": "GAVIC419772823"
   }
  },
  {
   "type": "Feature",
   "geometry": {
    "type": "Point",
    "coordinates": [
     146.56915916,
     -38.12498474
    ]
   },
   "properties": {
    "name": "56 TRARALGON-MAFFRA ROAD GLENGARRY 3854",
    "locID": "LOC000080308029",
    "tech": "WIRELESS",
    "upgrade": "NULL_NA",
    "gnaf_pid": "GAVIC419772824"
   }
  },
  {
   "type": "Feature",
   "geometry": {
    "type": "Point",
    "coordinates": [
     146.56961107,
     -38.12461753
    ]
   },
   "properties": {
    "name": "62 TRARALGON-MAFFRA ROAD GLENGARRY 3854",
    "locID": "LOC000073764475",
    "tech": "WIRELESS",
    "upgrade": "NULL_NA",
    "gnaf_pid": "GAVIC419772825"
   }
  },
  {
   "type": "Feature",
   "geometry": {
    "type": "Point",
    "coordinates": [
     146.57379118,
     -38.12421169
    ]
   },
   "properties": {
    "name": "41 MAIN STREET GLENGARRY 3854",
    "locID": "LOC000089448865",
    "tech": "WIRELESS",
    "upgrade": "NULL_NA",
    "gnaf_pid": "GAVIC419772826"
   }
  },
  {
   "type": "Feature",
   "geometry": {
    "type": "Point",
    "coordinates": [
     146.57076479,
     -38.12368005
    ]
   },
   "properties": {
    "name": "76 TRARALGON-MAFFRA ROAD GLENGARRY 3854",
    "locID": "LOC000002732770",
    "tech": "WIRELESS",
    "upgrade": "NULL_NA",
    "gnaf_pid": "GAVIC419772827"
   }
  },
  {
   "type": "Feature",
   "geometry": {
    "type": "Point",
    "coordinates": [
     146.57322745,
     -38.12296072
    ]
   },
   "properties": {
    "name": "18 MORRISON PARADE GLENGARRY 3854",
    "locID": "LOC000063709224",
    "tech": "WIRELESS",
    "upgrade": "NULL_NA",
    "gnaf_pid": "GAVIC419772828"
   }
  },
  {
   "type": "Feature",
   "geometry": {
    "type": "Point",
    "coordinates": [
     146.57457337,
     -38.12056262
    ]
   },
   "properties": {
    "name": "116 TRARALGON-MAFFRA ROAD GLENGARRY 3854",
    "locID": "LOC000050773163",
    "tech": "WIRELESS",
    "upgrade": "NULL_NA",
    "gnaf_pid": "GAVIC419772832"
   }
  },
  {
   "type": "Feature",
   "geometry": {
    "type": "Point",
    "coordinates": [
     146.56687917,
     -38.1269875
    ]
   },
   "properties": {
    "name": "24 TRARALGON-MAFFRA ROAD GLENGARRY 3854",
    "locID": "LOC000031824279",
    "tech": "WIRELESS",
    "upgrade": "NULL_NA",
    "gnaf_pid": "GAVIC419772833"
   }
  },
  {
   "type": "Feature",
   "geometry": {
    "type": "Point",
    "coordinates": [
     146.56556015,
     -38.12808147
    ]
   },
   "properties": {
    "name": "6 TRARALGON-MAFFRA ROAD GLENGARRY 3854",
    "locID": "LOC000082915303",
    "tech": "WIRELESS",
    "upgrade": "NULL_NA",
    "gnaf_pid": "GAVIC419772834"
   }
  },
  {
   "type": "Feature",
   "geometry": {
    "type": "Point",
    "coordinates": [
     146.5656026,
     -38.128546
    ]
   },
   "properties": {
    "name": "5 CAIRNBROOK ROAD GLENGARRY 3854",
    "locID": "LOC000067149628",
    "tech": "WIRELESS",
    "upgrade": "NULL_NA",
    "gnaf_pid": "GAVIC419772835"
   }
  },
  {
   "type": "Feature",
   "geometry": {
    "type": "Point",
    "coordinates": [
     146.56631614,
     -38.12842367
    ]
   },
   "properties": {
    "name": "11 CAIRNBROOK ROAD GLENGARRY 3854",
    "locID": "LOC000030997804",
    "tech": "WIRELESS",
    "upgrade": "NULL_NA",
    "gnaf_pid": "GAVIC419772836"
   }
  },
  {
   "type": "Feature",
   "geometry": {
    "type": "Point",
    "coordinates": [
     146.57085804,
     -38.13254829
    ]
   },
   "properties": {
    "name": "38-40 KYNE STREET GLENGARRY 3854",
    "locID": "LOC000125292982",
    "tech": "WIRELESS",
    "upgrade": "NULL_NA",
    "gnaf_pid": "GAVIC419773723"
   }
  },
  {
   "type": "Feature",
   "geometry": {
    "type": "Point",
    "coordinates": [
     146.55708668,
     -38.13765528
    ]
   },
   "properties": {
    "name": "635 TRARALGON-MAFFRA ROAD GLENGARRY 3854",
    "locID": "LOC000035782724",
    "tech": "WIRELESS",
    "upgrade": "NULL_NA",
    "gnaf_pid": "GAVIC419774749"
   }
  },
  {
   "type": "Feature",
   "geometry": {
    "type": "Point",
    "coordinates": [
     146.55537111,
     -38.1399832
    ]
   },
   "properties": {
    "name": "140 BLACK TANK ROAD GLENGARRY 3854",
    "locID": "LOC000066032488",
    "tech": "WIRELESS",
    "upgrade": "NULL_NA",
    "gnaf_pid": "GAVIC419774750"
   }
  },
  {
   "type": "Feature",
   "geometry": {
    "type": "Point",
    "coordinates": [
     146.55259631,
     -38.15149078
    ]
   },
   "properties": {
    "name": "35 FARMERS ROAD GLENGARRY 3854",
    "locID": "LOC000033891150",
    "tech": "WIRELESS",
    "upgrade": "NULL_NA",
    "gnaf_pid": "GAVIC419774752"
   }
  },
  {
   "type": "Feature",
   "geometry": {
    "type": "Point",
    "coordinates": [
     146.56871875,
     -38.12534263
    ]
   },
   "properties": {
    "name": "50 TRARALGON-MAFFRA ROAD GLENGARRY 3854",
    "locID": "LOC000044860149",
    "tech": "WIRELESS",
    "upgrade": "NULL_NA",
    "gnaf_pid": "GAVIC419774753"
   }
  },
  {
   "type": "Feature",
   "geometry": {
    "type": "Point",
    "coordinates": [
     146.57307305,
     -38.12670394
    ]
   },
   "properties": {
    "name": "9 MAIN STREET GLENGARRY 3854",
    "locID": "LOC000079157374",
    "tech": "WIRELESS",
    "upgrade": "NULL_NA",
    "gnaf_pid": "GAVIC419774754"
   }
  },
  {
   "type": "Feature",
   "geometry": {
    "type": "Point",
    "coordinates": [
     146.5688767,
     -38.13152284
    ]
   },
   "properties": {
    "name": "16-18 HAMBROOK LANE GLENGARRY 3854",
    "locID": "LOC000041774475",
    "tech": "WIRELESS",
    "upgrade": "NULL_NA",
    "gnaf_pid": "GAVIC419774755"
   }
  },
  {
   "type": "Feature",
   "geometry": {
    "type": "Point",
    "coordinates": [
     146.56986026,
     -38.1328
    ]
   },
   "properties": {
    "name": "44 KYNE STREET GLENGARRY 3854",
    "locID": "LOC000068335639",
    "tech": "WIRELESS",
    "upgrade": "NULL_NA",
    "gnaf_pid": "GAVIC419783668"
   }
  },
  {
   "type": "Feature",
   "geometry": {
    "type": "Point",
    "coordinates": [
     146.56724024,
     -38.12826525
    ]
   },
   "properties": {
    "name": "19 CAIRNBROOK ROAD GLENGARRY 3854",
    "locID": "LOC000009302222",
    "tech": "WIRELESS",
    "upgrade": "NULL_NA",
    "gnaf_pid": "GAVIC419783698"
   }
  },
  {
   "type": "Feature",
   "geometry": {
    "type": "Point",
    "coordinates": [
     146.56848369,
     -38.13292563
    ]
   },
   "properties": {
    "name": "9-10 MOORHOUSE CLOSE GLENGARRY 3854",
    "locID": "ChIJs5B9PvkhKWsRjuQOhShEK7s",
    "tech": "WIRELESS",
    "upgrade": "UNKNOWN",
    "gnaf_pid": "GAVIC419784407"
   }
  },
  {
   "type": "Feature",
   "geometry": {
    "type": "Point",
    "coordinates": [
     146.57120741,
     -38.13189898
    ]
   },
   "properties": {
    "name": "LOT 2 KYNE STREET GLENGARRY 3854",
    "locID": "LOC000002733266",
    "tech": "WIRELESS",
    "upgrade": "NULL_NA",
    "gnaf_pid": "GAVIC419784408"
   }
  },
  {
   "type": "Feature",
   "geometry": {
    "type": "Point",
    "coordinates": [
     146.56939734,
     -38.12985731
    ]
   },
   "properties": {
    "name": "19 RHODES COURT GLENGARRY 3854",
    "locID": "LOC000102134217",
    "tech": "WIRELESS",
    "upgrade": "NULL_NA",
    "gnaf_pid": "GAVIC419784410"
   }
  },
  {
   "type": "Feature",
   "geometry": {
    "type": "Point",
    "coordinates": [
     146.57335564,
     -38.12537064
    ]
   },
   "properties": {
    "name": "25-27 MAIN STREET GLENGARRY 3854",
    "locID": "LOC000071803296",
    "tech": "WIRELESS",
    "upgrade": "NULL_NA",
    "gnaf_pid": "GAVIC419832848"
   }
  },
  {
   "type": "Feature",
   "geometry": {
    "type": "Point",
    "coordinates": [
     146.57429568,
     -38.12382725
    ]
   },
   "properties": {
    "name": "47 MAIN STREET GLENGARRY 3854",
    "locID": "LOC000092283615",
    "tech": "WIRELESS",
    "upgrade": "NULL_NA",
    "gnaf_pid": "GAVIC419832865"
   }
  },
  {
   "type": "Feature",
   "geometry": {
    "type": "Point",
    "coordinates": [
     146.57310934,
     -38.1265328
    ]
   },
   "properties": {
    "name": "11 MAIN STREET GLENGARRY 3854",
    "locID": "ChIJqwzCiO8hKWsRoCYuxuOdChs",
    "tech": "WIRELESS",
    "upgrade": "UNKNOWN",
    "gnaf_pid": "GAVIC419840823"
   }
  },
  {
   "type": "Feature",
   "geometry": {
    "type": "Point",
    "coordinates": [
     146.57304255,
     -38.12181224
    ]
   },
   "properties": {
    "name": "96 TRARALGON-MAFFRA ROAD GLENGARRY 3854",
    "locID": "LOC000125297738",
    "tech": "WIRELESS",
    "upgrade": "NULL_NA",
    "gnaf_pid": "GAVIC419847967"
   }
  },
  {
   "type": "Feature",
   "geometry": {
    "type": "Point",
    "coordinates": [
     146.57092238,
     -38.1303299
    ]
   },
   "properties": {
    "name": "14-18 KYNE STREET GLENGARRY 3854",
    "locID": "LOC000125283848",
    "tech": "WIRELESS",
    "upgrade": "NULL_NA",
    "gnaf_pid": "GAVIC420025870"
   }
  },
  {
   "type": "Feature",
   "geometry": {
    "type": "Point",
    "coordinates": [
     146.5712297,
     -38.1299397
    ]
   },
   "properties": {
    "name": "19 KYNE STREET GLENGARRY 3854",
    "locID": "LOC000018554588",
    "tech": "WIRELESS",
    "upgrade": "NULL_NA",
    "gnaf_pid": "GAVIC420025875"
   }
  },
  {
   "type": "Feature",
   "geometry": {
    "type": "Point",
    "coordinates": [
     146.57112878,
     -38.12955235
    ]
   },
   "properties": {
    "name": "15 KYNE STREET GLENGARRY 3854",
    "locID": "LOC000035042659",
    "tech": "WIRELESS",
    "upgrade": "NULL_NA",
    "gnaf_pid": "GAVIC420066387"
   }
  },
  {
   "type": "Feature",
   "geometry": {
    "type": "Point",
    "coordinates": [
     146.56785202,
     -38.13409399
    ]
   },
   "properties": {
    "name": "1-5 KING ROAD GLENGARRY 3854",
    "locID": "LOC000007098892",
    "tech": "WIRELESS",
    "upgrade": "NULL_NA",
    "gnaf_pid": "GAVIC420066388"
   }
  },
  {
   "type": "Feature",
   "geometry": {
    "type": "Point",
    "coordinates": [
     146.56855352,
     -38.13397803
    ]
   },
   "properties": {
    "name": "7-11 KING ROAD GLENGARRY 3854",
    "locID": "LOC000125297549",
    "tech": "WIRELESS",
    "upgrade": "NULL_NA",
    "gnaf_pid": "GAVIC420066389"
   }
  },
  {
   "type": "Feature",
   "geometry": {
    "type": "Point",
    "coordinates": [
     146.56819101,
     -38.13553779
    ]
   },
   "properties": {
    "name": "16-18 COBHAM COURT GLENGARRY 3854",
    "locID": "LOC000033584504",
    "tech": "WIRELESS",
    "upgrade": "NULL_NA",
    "gnaf_pid": "GAVIC420066390"
   }
  },
  {
   "type": "Feature",
   "geometry": {
    "type": "Point",
    "coordinates": [
     146.57254605,
     -38.12221745
    ]
   },
   "properties": {
    "name": "90 TRARALGON-MAFFRA ROAD GLENGARRY 3854",
    "locID": "LOC000039396439",
    "tech": "WIRELESS",
    "upgrade": "NULL_NA",
    "gnaf_pid": "GAVIC420066391"
   }
  },
  {
   "type": "Feature",
   "geometry": {
    "type": "Point",
    "coordinates": [
     146.57424587,
     -38.12082995
    ]
   },
   "properties": {
    "name": "112 TRARALGON-MAFFRA ROAD GLENGARRY 3854",
    "locID": "LOC000045399776",
    "tech": "WIRELESS",
    "upgrade": "NULL_NA",
    "gnaf_pid": "GAVIC420066393"
   }
  },
  {
   "type": "Feature",
   "geometry": {
    "type": "Point",
    "coordinates": [
     146.57528473,
     -38.1208005
    ]
   },
   "properties": {
    "name": "77 MAIN STREET GLENGARRY 3854",
    "locID": "LOC000036085404",
    "tech": "WIRELESS",
    "upgrade": "NULL_NA",
    "gnaf_pid": "GAVIC420066394"
   }
  },
  {
   "type": "Feature",
   "geometry": {
    "type": "Point",
    "coordinates": [
     146.56602426,
     -38.12769655
    ]
   },
   "properties": {
    "name": "12 TRARALGON-MAFFRA ROAD GLENGARRY 3854",
    "locID": "LOC000057394868",
    "tech": "WIRELESS",
    "upgrade": "NULL_NA",
    "gnaf_pid": "GAVIC420069232"
   }
  },
  {
   "type": "Feature",
   "geometry": {
    "type": "Point",
    "coordinates": [
     146.58006796,
     -38.11556307
    ]
   },
   "properties": {
    "name": "LOT 2 TRARALGON-MAFFRA ROAD GLENGARRY 3854",
    "locID": "LOC000048728311",
    "tech": "WIRELESS",
    "upgrade": "NULL_NA",
    "gnaf_pid": "GAVIC420069233"
   }
  },
  {
   "type": "Feature",
   "geometry": {
    "type": "Point",
    "coordinates": [
     146.5658653,
     -38.13324128
    ]
   },
   "properties": {
    "name": "3-4 PRATT COURT GLENGARRY 3854",
    "locID": "ChIJeajjIf8hKWsR3Dhvu-YnosA",
    "tech": "WIRELESS",
    "upgrade": "UNKNOWN",
    "gnaf_pid": "GAVIC420075229"
   }
  },
  {
   "type": "Feature",
   "geometry": {
    "type": "Point",
    "coordinates": [
     146.5539188,
     -38.1498555
    ]
   },
   "properties": {
    "name": "15 FARMERS ROAD GLENGARRY 3854",
    "locID": "LOC000055417963",
    "tech": "WIRELESS",
    "upgrade": "NULL_NA",
    "gnaf_pid": "GAVIC420084280"
   }
  },
  {
   "type": "Feature",
   "geometry": {
    "type": "Point",
    "coordinates": [
     146.56774784,
     -38.12626703
    ]
   },
   "properties": {
    "name": "36 TRARALGON-MAFFRA ROAD GLENGARRY 3854",
    "locID": "LOC000052321971",
    "tech": "WIRELESS",
    "upgrade": "NULL_NA",
    "gnaf_pid": "GAVIC420084281"
   }
  },
  {
   "type": "Feature",
   "geometry": {
    "type": "Point",
    "coordinates": [
     146.57254495,
     -38.12806951
    ]
   },
   "properties": {
    "name": "46 CAIRNBROOK ROAD GLENGARRY 3854",
    "locID": "ChIJ_Qu2pPohKWsRI-mrCuNRpzk",
    "tech": "WIRELESS",
    "upgrade": "UNKNOWN",
    "gnaf_pid": "GAVIC420084282"
   }
  },
  {
   "type": "Feature",
   "geometry": {
    "type": "Point",
    "coordinates": [
     146.57159818,
     -38.12822619
    ]
   },
   "properties": {
    "name": "40 CAIRNBROOK ROAD GLENGARRY 3854",
    "locID": "LOC000027043330",
    "tech": "WIRELESS",
    "upgrade": "NULL_NA",
    "gnaf_pid": "GAVIC420084284"
   }
  },
  {
   "type": "Feature",
   "geometry": {
    "type": "Point",
    "coordinates": [
     146.57120741,
     -38.13189898
    ]
   },
   "properties": {
    "name": "LOT 5 KYNE STREET GLENGARRY 3854",
    "locID": "LOC000125293201",
    "tech": "WIRELESS",
    "upgrade": "NULL_NA",
    "gnaf_pid": "GAVIC420084285"
   }
  },
  {
   "type": "Feature",
   "geometry": {
    "type": "Point",
    "coordinates": [
     146.56915693,
     -38.12899704
    ]
   },
   "properties": {
    "name": "7 MACDONALD COURT GLENGARRY 3854",
    "locID": "LOC000011087401",
    "tech": "WIRELESS",
    "upgrade": "NULL_NA",
    "gnaf_pid": "GAVIC420084286"
   }
  },
  {
   "type": "Feature",
   "geometry": {
    "type": "Point",
    "coordinates": [
     146.56963171,
     -38.1290861
    ]
   },
   "properties": {
    "name": "4 MACDONALD COURT GLENGARRY 3854",
    "locID": "LOC000056356739",
    "tech": "WIRELESS",
    "upgrade": "NULL_NA",
    "gnaf_pid": "GAVIC420084288"
   }
  },
  {
   "type": "Feature",
   "geometry": {
    "type": "Point",
    "coordinates": [
     146.57027975,
     -38.12897575
    ]
   },
   "properties": {
    "name": "1 MACDONALD COURT GLENGARRY 3854",
    "locID": "LOC000104740197",
    "tech": "WIRELESS",
    "upgrade": "NULL_NA",
    "gnaf_pid": "GAVIC420084289"
   }
  },
  {
   "type": "Feature",
   "geometry": {
    "type": "Point",
    "coordinates": [
     146.57010119,
     -38.12990899
    ]
   },
   "properties": {
    "name": "4 RHODES COURT GLENGARRY 3854",
    "locID": "LOC000065537792",
    "tech": "WIRELESS",
    "upgrade": "NULL_NA",
    "gnaf_pid": "GAVIC420084290"
   }
  },
  {
   "type": "Feature",
   "geometry": {
    "type": "Point",
    "coordinates": [
     146.57051586,
     -38.12984088
    ]
   },
   "properties": {
    "name": "2 RHODES COURT GLENGARRY 3854",
    "locID": "LOC000087076498",
    "tech": "WIRELESS",
    "upgrade": "NULL_NA",
    "gnaf_pid": "GAVIC420084291"
   }
  },
  {
   "type": "Feature",
   "geometry": {
    "type": "Point",
    "coordinates": [
     146.57011293,
     -38.13288934
    ]
   },
   "properties": {
    "name": "46 KYNE STREET GLENGARRY 3854",
    "locID": "LOC000028758542",
    "tech": "WIRELESS",
    "upgrade": "NULL_NA",
    "gnaf_pid": "GAVIC420087173"
   }
  },
  {
   "type": "Feature",
   "geometry": {
    "type": "Point",
    "coordinates": [
     146.5668915,
     -38.1321143
    ]
   },
   "properties": {
    "name": "25-27 HAMBROOK LANE GLENGARRY 3854",
    "locID": "ChIJ4UoGtv4hKWsRfnWxkNiFHhM",
    "tech": "WIRELESS",
    "upgrade": "UNKNOWN",
    "gnaf_pid": "GAVIC420116621"
   }
  },
  {
   "type": "Feature",
   "geometry": {
    "type": "Point",
    "coordinates": [
     146.573033,
     -38.126892
    ]
   },
   "properties": {
    "name": "7 MAIN STREET GLENGARRY 3854",
    "locID": "LOC000076106051",
    "tech": "WIRELESS",
    "upgrade": "NULL_NA",
    "gnaf_pid": "GAVIC420125211"
   }
  },
  {
   "type": "Feature",
   "geometry": {
    "type": "Point",
    "coordinates": [
     146.57110284,
     -38.13138963
    ]
   },
   "properties": {
    "name": "26-30 KYNE STREET GLENGARRY 3854",
    "locID": "LOC000058203266",
    "tech": "WIRELESS",
    "upgrade": "NULL_NA",
    "gnaf_pid": "GAVIC420332776"
   }
  },
  {
   "type": "Feature",
   "geometry": {
    "type": "Point",
    "coordinates": [
     146.57327976,
     -38.12572859
    ]
   },
   "properties": {
    "name": "UNIT 1, 21-23 MAIN STREET GLENGARRY 3854",
    "locID": "LOC000016091302",
    "tech": "WIRELESS",
    "upgrade": "NULL_NA",
    "gnaf_pid": "GAVIC420352411"
   }
  },
  {
   "type": "Feature",
   "geometry": {
    "type": "Point",
    "coordinates": [
     146.57318295,
     -38.12618548
    ]
   },
   "properties": {
    "name": "17 MAIN STREET GLENGARRY 3854",
    "locID": "LOC000022586999",
    "tech": "WIRELESS",
    "upgrade": "NULL_NA",
    "gnaf_pid": "GAVIC420352412"
   }
  },
  {
   "type": "Feature",
   "geometry": {
    "type": "Point",
    "coordinates": [
     146.57164185,
     -38.12295951
    ]
   },
   "properties": {
    "name": "82 TRARALGON-MAFFRA ROAD GLENGARRY 3854",
    "locID": "LOC000094845939",
    "tech": "WIRELESS",
    "upgrade": "NULL_NA",
    "gnaf_pid": "GAVIC420360780"
   }
  },
  {
   "type": "Feature",
   "geometry": {
    "type": "Point",
    "coordinates": [
     146.57441563,
     -38.12069139
    ]
   },
   "properties": {
    "name": "114 TRARALGON-MAFFRA ROAD GLENGARRY 3854",
    "locID": "LOC000094707281",
    "tech": "WIRELESS",
    "upgrade": "NULL_NA",
    "gnaf_pid": "GAVIC420360781"
   }
  },
  {
   "type": "Feature",
   "geometry": {
    "type": "Point",
    "coordinates": [
     146.57367836,
     -38.1212932
    ]
   },
   "properties": {
    "name": "104 TRARALGON-MAFFRA ROAD GLENGARRY 3854",
    "locID": "LOC000048677592",
    "tech": "WIRELESS",
    "upgrade": "NULL_NA",
    "gnaf_pid": "GAVIC420360782"
   }
  },
  {
   "type": "Feature",
   "geometry": {
    "type": "Point",
    "coordinates": [
     146.57501171,
     -38.12137903
    ]
   },
   "properties": {
    "name": "71 MAIN STREET GLENGARRY 3854",
    "locID": "LOC000040872548",
    "tech": "WIRELESS",
    "upgrade": "NULL_NA",
    "gnaf_pid": "GAVIC420360783"
   }
  },
  {
   "type": "Feature",
   "geometry": {
    "type": "Point",
    "coordinates": [
     146.57518428,
     -38.12100374
    ]
   },
   "properties": {
    "name": "75 MAIN STREET GLENGARRY 3854",
    "locID": "LOC000071830166",
    "tech": "WIRELESS",
    "upgrade": "NULL_NA",
    "gnaf_pid": "GAVIC420360784"
   }
  },
  {
   "type": "Feature",
   "geometry": {
    "type": "Point",
    "coordinates": [
     146.56766077,
     -38.12819313
    ]
   },
   "properties": {
    "name": "23 CAIRNBROOK ROAD GLENGARRY 3854",
    "locID": "LOC000022706947",
    "tech": "WIRELESS",
    "upgrade": "NULL_NA",
    "gnaf_pid": "GAVIC420360786"
   }
  },
  {
   "type": "Feature",
   "geometry": {
    "type": "Point",
    "coordinates": [
     146.56771581,
     -38.12908361
    ]
   },
   "properties": {
    "name": "25-27 BERMINGHAM CLOSE GLENGARRY 3854",
    "locID": "LOC000011892503",
    "tech": "WIRELESS",
    "upgrade": "NULL_NA",
    "gnaf_pid": "GAVIC420360787"
   }
  },
  {
   "type": "Feature",
   "geometry": {
    "type": "Point",
    "coordinates": [
     146.56775025,
     -38.12952564
    ]
   },
   "properties": {
    "name": "22-24 BERMINGHAM CLOSE GLENGARRY 3854",
    "locID": "LOC000005247870",
    "tech": "WIRELESS",
    "upgrade": "NULL_NA",
    "gnaf_pid": "GAVIC420360788"
   }
  },
  {
   "type": "Feature",
   "geometry": {
    "type": "Point",
    "coordinates": [
     146.56754128,
     -38.13182896
    ]
   },
   "properties": {
    "name": "22-24 HAMBROOK LANE GLENGARRY 3854",
    "locID": "LOC000020948121",
    "tech": "WIRELESS",
    "upgrade": "NULL_NA",
    "gnaf_pid": "GAVIC420360789"
   }
  },
  {
   "type": "Feature",
   "geometry": {
    "type": "Point",
    "coordinates": [
     146.56717935,
     -38.13163499
    ]
   },
   "properties": {
    "name": "4-6 HAMBROOK LANE GLENGARRY 3854",
    "locID": "LOC000080631022",
    "tech": "WIRELESS",
    "upgrade": "NULL_NA",
    "gnaf_pid": "GAVIC420360790"
   }
  },
  {
   "type": "Feature",
   "geometry": {
    "type": "Point",
    "coordinates": [
     146.57073212,
     -38.12980536
    ]
   },
   "properties": {
    "name": "1 RHODES COURT GLENGARRY 3854",
    "locID": "LOC000103366142",
    "tech": "WIRELESS",
    "upgrade": "NULL_NA",
    "gnaf_pid": "GAVIC420365240"
   }
  },
  {
   "type": "Feature",
   "geometry": {
    "type": "Point",
    "coordinates": [
     146.56850318,
     -38.13429709
    ]
   },
   "properties": {
    "name": "8-14 KING ROAD GLENGARRY 3854",
    "locID": "LOC000125297679",
    "tech": "WIRELESS",
    "upgrade": "NULL_NA",
    "gnaf_pid": "GAVIC420366250"
   }
  },
  {
   "type": "Feature",
   "geometry": {
    "type": "Point",
    "coordinates": [
     146.57147459,
     -38.1221079
    ]
   },
   "properties": {
    "name": "855 TRARALGON-MAFFRA ROAD GLENGARRY 3854",
    "locID": "LOC000027679579",
    "tech": "WIRELESS",
    "upgrade": "NULL_NA",
    "gnaf_pid": "GAVIC420366251"
   }
  },
  {
   "type": "Feature",
   "geometry": {
    "type": "Point",
    "coordinates": [
     146.56886555,
     -38.12522333
    ]
   },
   "properties": {
    "name": "52 TRARALGON-MAFFRA ROAD GLENGARRY 3854",
    "locID": "LOC000107982182",
    "tech": "WIRELESS",
    "upgrade": "NULL_NA",
    "gnaf_pid": "GAVIC420366252"
   }
  },
  {
   "type": "Feature",
   "geometry": {
    "type": "Point",
    "coordinates": [
     146.57211889,
     -38.1235591
    ]
   },
   "properties": {
    "name": "6 MORRISON PARADE GLENGARRY 3854",
    "locID": "LOC000027968639",
    "tech": "WIRELESS",
    "upgrade": "NULL_NA",
    "gnaf_pid": "GAVIC420366254"
   }
  },
  {
   "type": "Feature",
   "geometry": {
    "type": "Point",
    "coordinates": [
     146.56595489,
     -38.13222899
    ]
   },
   "properties": {
    "name": "32-36 CAREY DRIVE GLENGARRY 3854",
    "locID": "ChIJ92hBwv4hKWsRUWS9Ld-H2JE",
    "tech": "WIRELESS",
    "upgrade": "UNKNOWN",
    "gnaf_pid": "GAVIC420367156"
   }
  },
  {
   "type": "Feature",
   "geometry": {
    "type": "Point",
    "coordinates": [
     146.5671991,
     -38.1337026
    ]
   },
   "properties": {
    "name": "50-54 CAREY DRIVE GLENGARRY 3854",
    "locID": "LOC000050622036",
    "tech": "WIRELESS",
    "upgrade": "NULL_NA",
    "gnaf_pid": "GAVIC420367157"
   }
  },
  {
   "type": "Feature",
   "geometry": {
    "type": "Point",
    "coordinates": [
     146.55770753,
     -38.13480074
    ]
   },
   "properties": {
    "name": "665 TRARALGON-MAFFRA ROAD GLENGARRY 3854",
    "locID": "LOC000034561655",
    "tech": "WIRELESS",
    "upgrade": "NULL_NA",
    "gnaf_pid": "GAVIC420367158"
   }
  },
  {
   "type": "Feature",
   "geometry": {
    "type": "Point",
    "coordinates": [
     146.56838828,
     -38.12561115
    ]
   },
   "properties": {
    "name": "44-46 TRARALGON-MAFFRA ROAD GLENGARRY 3854",
    "locID": "LOC000125293083",
    "tech": "WIRELESS",
    "upgrade": "NULL_NA",
    "gnaf_pid": "GAVIC420370690"
   }
  },
  {
   "type": "Feature",
   "geometry": {
    "type": "Point",
    "coordinates": [
     146.57067355,
     -38.13541825
    ]
   },
   "properties": {
    "name": "65-67 KYNE STREET GLENGARRY 3854",
    "locID": "LOC000125297508",
    "tech": "WIRELESS",
    "upgrade": "NULL_NA",
    "gnaf_pid": "GAVIC420373127"
   }
  },
  {
   "type": "Feature",
   "geometry": {
    "type": "Point",
    "coordinates": [
     146.57038223,
     -38.13482485
    ]
   },
   "properties": {
    "name": "58-62 KYNE STREET GLENGARRY 3854",
    "locID": "LOC000125297434",
    "tech": "WIRELESS",
    "upgrade": "NULL_NA",
    "gnaf_pid": "GAVIC420373128"
   }
  },
  {
   "type": "Feature",
   "geometry": {
    "type": "Point",
    "coordinates": [
     146.56579063,
     -38.12789034
    ]
   },
   "properties": {
    "name": "8-10 TRARALGON-MAFFRA ROAD GLENGARRY 3854",
    "locID": "ChIJj8A48_whKWsRtYROhjqd0zg",
    "tech": "WIRELESS",
    "upgrade": "UNKNOWN",
    "gnaf_pid": "GAVIC420373133"
   }
  },
  {
   "type": "Feature",
   "geometry": {
    "type": "Point",
    "coordinates": [
     146.57191983,
     -38.1396391
    ]
   },
   "properties": {
    "name": "145 RAILWAY AVENUE GLENGARRY 3854",
    "locID": "LOC000049861926",
    "tech": "WIRELESS",
    "upgrade": "NULL_NA",
    "gnaf_pid": "GAVIC420375910"
   }
  },
  {
   "type": "Feature",
   "geometry": {
    "type": "Point",
    "coordinates": [
     146.56788163,
     -38.12615605
    ]
   },
   "properties": {
    "name": "38 TRARALGON-MAFFRA ROAD GLENGARRY 3854",
    "locID": "LOC000033418452",
    "tech": "WIRELESS",
    "upgrade": "NULL_NA",
    "gnaf_pid": "GAVIC420375918"
   }
  },
  {
   "type": "Feature",
   "geometry": {
    "type": "Point",
    "coordinates": [
     146.56859323,
     -38.13035375
    ]
   },
   "properties": {
    "name": "10-11 BERMINGHAM CLOSE GLENGARRY 3854",
    "locID": "LOC000125279797",
    "tech": "WIRELESS",
    "upgrade": "NULL_NA",
    "gnaf_pid": "GAVIC420375919"
   }
  },
  {
   "type": "Feature",
   "geometry": {
    "type": "Point",
    "coordinates": [
     146.56816925,
     -38.12992017
    ]
   },
   "properties": {
    "name": "7-9 BERMINGHAM CLOSE GLENGARRY 3854",
    "locID": "LOC000079607277",
    "tech": "WIRELESS",
    "upgrade": "NULL_NA",
    "gnaf_pid": "GAVIC420375920"
   }
  },
  {
   "type": "Feature",
   "geometry": {
    "type": "Point",
    "coordinates": [
     146.56777924,
     -38.1332148
    ]
   },
   "properties": {
    "name": "11-14 MOORHOUSE CLOSE GLENGARRY 3854",
    "locID": "LOC000125283713",
    "tech": "WIRELESS",
    "upgrade": "NULL_NA",
    "gnaf_pid": "GAVIC420375922"
   }
  },
  {
   "type": "Feature",
   "geometry": {
    "type": "Point",
    "coordinates": [
     146.57120741,
     -38.13189898
    ]
   },
   "properties": {
    "name": "LOT 3 KYNE STREET GLENGARRY 3854",
    "locID": "LOC000181323222",
    "tech": "WIRELESS",
    "upgrade": "NULL_NA",
    "gnaf_pid": "GAVIC420375923"
   }
  },
  {
   "type": "Feature",
   "geometry": {
    "type": "Point",
    "coordinates": [
     146.5702135,
     -38.12867473
    ]
   },
   "properties": {
    "name": "13 MACDONALD COURT GLENGARRY 3854",
    "locID": "LOC000016106285",
    "tech": "WIRELESS",
    "upgrade": "NULL_NA",
    "gnaf_pid": "GAVIC420375924"
   }
  },
  {
   "type": "Feature",
   "geometry": {
    "type": "Point",
    "coordinates": [
     146.56985246,
     -38.12904843
    ]
   },
   "properties": {
    "name": "3 MACDONALD COURT GLENGARRY 3854",
    "locID": "LOC000001921296",
    "tech": "WIRELESS",
    "upgrade": "NULL_NA",
    "gnaf_pid": "GAVIC420375925"
   }
  },
  {
   "type": "Feature",
   "geometry": {
    "type": "Point",
    "coordinates": [
     146.56997177,
     -38.13031223
    ]
   },
   "properties": {
    "name": "6 RHODES COURT GLENGARRY 3854",
    "locID": "LOC000047700291",
    "tech": "WIRELESS",
    "upgrade": "NULL_NA",
    "gnaf_pid": "GAVIC420375926"
   }
  },
  {
   "type": "Feature",
   "geometry": {
    "type": "Point",
    "coordinates": [
     146.57120741,
     -38.13189898
    ]
   },
   "properties": {
    "name": "LOT 7 KYNE STREET GLENGARRY 3854",
    "locID": "LOC000072968735",
    "tech": "WIRELESS",
    "upgrade": "NULL_NA",
    "gnaf_pid": "GAVIC420418782"
   }
  },
  {
   "type": "Feature",
   "geometry": {
    "type": "Point",
    "coordinates": [
     146.5735725,
     -38.1243548
    ]
   },
   "properties": {
    "name": "39 MAIN STREET GLENGARRY 3854",
    "locID": "LOC000106398947",
    "tech": "WIRELESS",
    "upgrade": "NULL_NA",
    "gnaf_pid": "GAVIC420553359"
   }
  },
  {
   "type": "Feature",
   "geometry": {
    "type": "Point",
    "coordinates": [
     146.5720522,
     -38.12815105
    ]
   },
   "properties": {
    "name": "42-44 CAIRNBROOK ROAD GLENGARRY 3854",
    "locID": "LOC000125293054",
    "tech": "WIRELESS",
    "upgrade": "NULL_NA",
    "gnaf_pid": "GAVIC420573761"
   }
  },
  {
   "type": "Feature",
   "geometry": {
    "type": "Point",
    "coordinates": [
     146.57139071,
     -38.13048185
    ]
   },
   "properties": {
    "name": "25 KYNE STREET GLENGARRY 3854",
    "locID": "LOC000028481254",
    "tech": "WIRELESS",
    "upgrade": "NULL_NA",
    "gnaf_pid": "GAVIC420630835"
   }
  },
  {
   "type": "Feature",
   "geometry": {
    "type": "Point",
    "coordinates": [
     146.55551299,
     -38.1448145
    ]
   },
   "properties": {
    "name": "555 TRARALGON-MAFFRA ROAD GLENGARRY 3854",
    "locID": "LOC000010248639",
    "tech": "WIRELESS",
    "upgrade": "NULL_NA",
    "gnaf_pid": "GAVIC420674443"
   }
  },
  {
   "type": "Feature",
   "geometry": {
    "type": "Point",
    "coordinates": [
     146.56858345,
     -38.12545254
    ]
   },
   "properties": {
    "name": "48 TRARALGON-MAFFRA ROAD GLENGARRY 3854",
    "locID": "LOC000083604962",
    "tech": "WIRELESS",
    "upgrade": "NULL_NA",
    "gnaf_pid": "GAVIC420674446"
   }
  },
  {
   "type": "Feature",
   "geometry": {
    "type": "Point",
    "coordinates": [
     146.56791946,
     -38.1281488
    ]
   },
   "properties": {
    "name": "25 CAIRNBROOK ROAD GLENGARRY 3854",
    "locID": "LOC000040042470",
    "tech": "WIRELESS",
    "upgrade": "NULL_NA",
    "gnaf_pid": "GAVIC420674447"
   }
  },
  {
   "type": "Feature",
   "geometry": {
    "type": "Point",
    "coordinates": [
     146.56807119,
     -38.13276813
    ]
   },
   "properties": {
    "name": "5-6 MOORHOUSE CLOSE GLENGARRY 3854",
    "locID": "ChIJyReROfkhKWsRvs-qDxTnoIc",
    "tech": "WIRELESS",
    "upgrade": "UNKNOWN",
    "gnaf_pid": "GAVIC420674448"
   }
  },
  {
   "type": "Feature",
   "geometry": {
    "type": "Point",
    "coordinates": [
     146.57120741,
     -38.13189898
    ]
   },
   "properties": {
    "name": "LOT 1 KYNE STREET GLENGARRY 3854",
    "locID": "LOC000065443054",
    "tech": "WIRELESS",
    "upgrade": "NULL_NA",
    "gnaf_pid": "GAVIC420674449"
   }
  },
  {
   "type": "Feature",
   "geometry": {
    "type": "Point",
    "coordinates": [
     146.57120741,
     -38.13189898
    ]
   },
   "properties": {
    "name": "LOT 4 KYNE STREET GLENGARRY 3854",
    "locID": "LOC000026255512",
    "tech": "WIRELESS",
    "upgrade": "NULL_NA",
    "gnaf_pid": "GAVIC420682127"
   }
  },
  {
   "type": "Feature",
   "geometry": {
    "type": "Point",
    "coordinates": [
     146.5693934,
     -38.12875161
    ]
   },
   "properties": {
    "name": "9 MACDONALD COURT GLENGARRY 3854",
    "locID": "LOC000038791265",
    "tech": "WIRELESS",
    "upgrade": "NULL_NA",
    "gnaf_pid": "GAVIC420682128"
   }
  },
  {
   "type": "Feature",
   "geometry": {
    "type": "Point",
    "coordinates": [
     146.56947291,
     -38.1300081
    ]
   },
   "properties": {
    "name": "18 RHODES COURT GLENGARRY 3854",
    "locID": "LOC000100084837",
    "tech": "WIRELESS",
    "upgrade": "NULL_NA",
    "gnaf_pid": "GAVIC420682129"
   }
  },
  {
   "type": "Feature",
   "geometry": {
    "type": "Point",
    "coordinates": [
     146.56962248,
     -38.13047225
    ]
   },
   "properties": {
    "name": "15 RHODES COURT GLENGARRY 3854",
    "locID": "LOC000017820260",
    "tech": "WIRELESS",
    "upgrade": "NULL_NA",
    "gnaf_pid": "GAVIC420682130"
   }
  },
  {
   "type": "Feature",
   "geometry": {
    "type": "Point",
    "coordinates": [
     146.56901525,
     -38.12510169
    ]
   },
   "properties": {
    "name": "54 TRARALGON-MAFFRA ROAD GLENGARRY 3854",
    "locID": "LOC000104811746",
    "tech": "WIRELESS",
    "upgrade": "NULL_NA",
    "gnaf_pid": "GAVIC420682132"
   }
  },
  {
   "type": "Feature",
   "geometry": {
    "type": "Point",
    "coordinates": [
     146.56931746,
     -38.12485612
    ]
   },
   "properties": {
    "name": "58 TRARALGON-MAFFRA ROAD GLENGARRY 3854",
    "locID": "LOC000017696871",
    "tech": "WIRELESS",
    "upgrade": "NULL_NA",
    "gnaf_pid": "GAVIC420682133"
   }
  },
  {
   "type": "Feature",
   "geometry": {
    "type": "Point",
    "coordinates": [
     146.57284766,
     -38.12349563
    ]
   },
   "properties": {
    "name": "12 MORRISON PARADE GLENGARRY 3854",
    "locID": "LOC000067882403",
    "tech": "WIRELESS",
    "upgrade": "NULL_NA",
    "gnaf_pid": "GAVIC420682135"
   }
  },
  {
   "type": "Feature",
   "geometry": {
    "type": "Point",
    "coordinates": [
     146.57445851,
     -38.12296603
    ]
   },
   "properties": {
    "name": "53-55 MAIN STREET GLENGARRY 3854",
    "locID": "LOC000125293217",
    "tech": "WIRELESS",
    "upgrade": "NULL_NA",
    "gnaf_pid": "GAVIC420682136"
   }
  },
  {
   "type": "Feature",
   "geometry": {
    "type": "Point",
    "coordinates": [
     146.57374699,
     -38.12277136
    ]
   },
   "properties": {
    "name": "7 GLEN ELWYN AVENUE GLENGARRY 3854",
    "locID": "LOC000071399156",
    "tech": "WIRELESS",
    "upgrade": "NULL_NA",
    "gnaf_pid": "GAVIC420682137"
   }
  },
  {
   "type": "Feature",
   "geometry": {
    "type": "Point",
    "coordinates": [
     146.57353324,
     -38.12267362
    ]
   },
   "properties": {
    "name": "5 GLEN ELWYN AVENUE GLENGARRY 3854",
    "locID": "LOC000106418834",
    "tech": "WIRELESS",
    "upgrade": "NULL_NA",
    "gnaf_pid": "GAVIC420682138"
   }
  },
  {
   "type": "Feature",
   "geometry": {
    "type": "Point",
    "coordinates": [
     146.57220798,
     -38.12249818
    ]
   },
   "properties": {
    "name": "88 TRARALGON-MAFFRA ROAD GLENGARRY 3854",
    "locID": "LOC000098060321",
    "tech": "WIRELESS",
    "upgrade": "NULL_NA",
    "gnaf_pid": "GAVIC420682139"
   }
  },
  {
   "type": "Feature",
   "geometry": {
    "type": "Point",
    "coordinates": [
     146.57183226,
     -38.12280434
    ]
   },
   "properties": {
    "name": "84 TRARALGON-MAFFRA ROAD GLENGARRY 3854",
    "locID": "LOC000032918006",
    "tech": "WIRELESS",
    "upgrade": "NULL_NA",
    "gnaf_pid": "GAVIC420682140"
   }
  },
  {
   "type": "Feature",
   "geometry": {
    "type": "Point",
    "coordinates": [
     146.57409671,
     -38.12095171
    ]
   },
   "properties": {
    "name": "110 TRARALGON-MAFFRA ROAD GLENGARRY 3854",
    "locID": "LOC000011998309",
    "tech": "WIRELESS",
    "upgrade": "NULL_NA",
    "gnaf_pid": "GAVIC420682141"
   }
  },
  {
   "type": "Feature",
   "geometry": {
    "type": "Point",
    "coordinates": [
     146.57512243,
     -38.12011447
    ]
   },
   "properties": {
    "name": "122 TRARALGON-MAFFRA ROAD GLENGARRY 3854",
    "locID": "LOC000086530829",
    "tech": "WIRELESS",
    "upgrade": "NULL_NA",
    "gnaf_pid": "GAVIC420688586"
   }
  },
  {
   "type": "Feature",
   "geometry": {
    "type": "Point",
    "coordinates": [
     146.57488435,
     -38.12030876
    ]
   },
   "properties": {
    "name": "120 TRARALGON-MAFFRA ROAD GLENGARRY 3854",
    "locID": "LOC000042331372",
    "tech": "WIRELESS",
    "upgrade": "NULL_NA",
    "gnaf_pid": "GAVIC420689132"
   }
  },
  {
   "type": "Feature",
   "geometry": {
    "type": "Point",
    "coordinates": [
     146.57472322,
     -38.1204403
    ]
   },
   "properties": {
    "name": "118 TRARALGON-MAFFRA ROAD GLENGARRY 3854",
    "locID": "LOC000103915519",
    "tech": "WIRELESS",
    "upgrade": "NULL_NA",
    "gnaf_pid": "GAVIC420689133"
   }
  },
  {
   "type": "Feature",
   "geometry": {
    "type": "Point",
    "coordinates": [
     146.56586264,
     -38.13056193
    ]
   },
   "properties": {
    "name": "14-18 CAREY DRIVE GLENGARRY 3854",
    "locID": "LOC000125283830",
    "tech": "WIRELESS",
    "upgrade": "NULL_NA",
    "gnaf_pid": "GAVIC420690067"
   }
  },
  {
   "type": "Feature",
   "geometry": {
    "type": "Point",
    "coordinates": [
     146.57195431,
     -38.123366
    ]
   },
   "properties": {
    "name": "LOT 5 MORRISON PARADE GLENGARRY 3854",
    "locID": "LOC000010297599",
    "tech": "WIRELESS",
    "upgrade": "NULL_NA",
    "gnaf_pid": "GAVIC420692903"
   }
  },
  {
   "type": "Feature",
   "geometry": {
    "type": "Point",
    "coordinates": [
     146.56745051,
     -38.1305462
    ]
   },
   "properties": {
    "name": "16-18 BERMINGHAM CLOSE GLENGARRY 3854",
    "locID": "ChIJ7x989_shKWsRlC0OCiv89Rg",
    "tech": "WIRELESS",
    "upgrade": "UNKNOWN",
    "gnaf_pid": "GAVIC420692905"
   }
  },
  {
   "type": "Feature",
   "geometry": {
    "type": "Point",
    "coordinates": [
     146.56644808,
     -38.13217976
    ]
   },
   "properties": {
    "name": "28 HAMBROOK LANE GLENGARRY 3854",
    "locID": "LOC000020036149",
    "tech": "WIRELESS",
    "upgrade": "NULL_NA",
    "gnaf_pid": "GAVIC420692906"
   }
  },
  {
   "type": "Feature",
   "geometry": {
    "type": "Point",
    "coordinates": [
     146.5726939,
     -38.12490136
    ]
   },
   "properties": {
    "name": "UNIT 5, 35 MAIN STREET GLENGARRY 3854",
    "locID": "LOC000097333976",
    "tech": "WIRELESS",
    "upgrade": "NULL_NA",
    "gnaf_pid": "GAVIC420696904"
   }
  },
  {
   "type": "Feature",
   "geometry": {
    "type": "Point",
    "coordinates": [
     146.57310934,
     -38.1265328
    ]
   },
   "properties": {
    "name": "13 MAIN STREET GLENGARRY 3854",
    "locID": "ChIJxYDriO8hKWsRghZQq7DoWdQ",
    "tech": "WIRELESS",
    "upgrade": "UNKNOWN",
    "gnaf_pid": "GAVIC420730280"
   }
  },
  {
   "type": "Feature",
   "geometry": {
    "type": "Point",
    "coordinates": [
     146.55822181,
     -38.14034545
    ]
   },
   "properties": {
    "name": "110 BLACK TANK ROAD GLENGARRY 3854",
    "locID": "LOC000051657263",
    "tech": "WIRELESS",
    "upgrade": "NULL_NA",
    "gnaf_pid": "GAVIC420875702"
   }
  },
  {
   "type": "Feature",
   "geometry": {
    "type": "Point",
    "coordinates": [
     146.5728701,
     -38.12195295
    ]
   },
   "properties": {
    "name": "94 TRARALGON-MAFFRA ROAD GLENGARRY 3854",
    "locID": "LOC000036785755",
    "tech": "WIRELESS",
    "upgrade": "NULL_NA",
    "gnaf_pid": "GAVIC420875703"
   }
  },
  {
   "type": "Feature",
   "geometry": {
    "type": "Point",
    "coordinates": [
     146.5665791,
     -38.1283786
    ]
   },
   "properties": {
    "name": "13 CAIRNBROOK ROAD GLENGARRY 3854",
    "locID": "LOC000101192988",
    "tech": "WIRELESS",
    "upgrade": "NULL_NA",
    "gnaf_pid": "GAVIC420875704"
   }
  },
  {
   "type": "Feature",
   "geometry": {
    "type": "Point",
    "coordinates": [
     146.5713161,
     -38.13023545
    ]
   },
   "properties": {
    "name": "21-23 KYNE STREET GLENGARRY 3854",
    "locID": "LOC000005958034",
    "tech": "WIRELESS",
    "upgrade": "NULL_NA",
    "gnaf_pid": "GAVIC420914010"
   }
  },
  {
   "type": "Feature",
   "geometry": {
    "type": "Point",
    "coordinates": [
     146.57147411,
     -38.13075725
    ]
   },
   "properties": {
    "name": "29-31 KYNE STREET GLENGARRY 3854",
    "locID": "LOC000125288385",
    "tech": "WIRELESS",
    "upgrade": "NULL_NA",
    "gnaf_pid": "GAVIC420914011"
   }
  },
  {
   "type": "Feature",
   "geometry": {
    "type": "Point",
    "coordinates": [
     146.57327976,
     -38.12572859
    ]
   },
   "properties": {
    "name": "UNIT 3, 21-23 MAIN STREET GLENGARRY 3854",
    "locID": "LOC000016091302",
    "tech": "WIRELESS",
    "upgrade": "NULL_NA",
    "gnaf_pid": "GAVIC420954770"
   }
  },
  {
   "type": "Feature",
   "geometry": {
    "type": "Point",
    "coordinates": [
     146.57327976,
     -38.12572859
    ]
   },
   "properties": {
    "name": "UNIT 4, 21-23 MAIN STREET GLENGARRY 3854",
    "locID": "LOC000125279721",
    "tech": "WIRELESS",
    "upgrade": "NULL_NA",
    "gnaf_pid": "GAVIC420954771"
   }
  },
  {
   "type": "Feature",
   "geometry": {
    "type": "Point",
    "coordinates": [
     146.56633535,
     -38.1299156
    ]
   },
   "properties": {
    "name": "7-11 CAREY DRIVE GLENGARRY 3854",
    "locID": "LOC000125297531",
    "tech": "WIRELESS",
    "upgrade": "NULL_NA",
    "gnaf_pid": "GAVIC420961427"
   }
  },
  {
   "type": "Feature",
   "geometry": {
    "type": "Point",
    "coordinates": [
     146.5675944,
     -38.13533883
    ]
   },
   "properties": {
    "name": "1-3 COBHAM COURT GLENGARRY 3854",
    "locID": "LOC000125279778",
    "tech": "WIRELESS",
    "upgrade": "NULL_NA",
    "gnaf_pid": "GAVIC420961428"
   }
  },
  {
   "type": "Feature",
   "geometry": {
    "type": "Point",
    "coordinates": [
     146.57200955,
     -38.12265994
    ]
   },
   "properties": {
    "name": "86 TRARALGON-MAFFRA ROAD GLENGARRY 3854",
    "locID": "LOC000013016817",
    "tech": "WIRELESS",
    "upgrade": "NULL_NA",
    "gnaf_pid": "GAVIC420972928"
   }
  },
  {
   "type": "Feature",
   "geometry": {
    "type": "Point",
    "coordinates": [
     146.57509077,
     -38.12120258
    ]
   },
   "properties": {
    "name": "73 MAIN STREET GLENGARRY 3854",
    "locID": "LOC000005155168",
    "tech": "WIRELESS",
    "upgrade": "NULL_NA",
    "gnaf_pid": "GAVIC420972929"
   }
  },
  {
   "type": "Feature",
   "geometry": {
    "type": "Point",
    "coordinates": [
     146.5723974,
     -38.12327163
    ]
   },
   "properties": {
    "name": "3 MORRISON PARADE GLENGARRY 3854",
    "locID": "LOC000063890914",
    "tech": "WIRELESS",
    "upgrade": "NULL_NA",
    "gnaf_pid": "GAVIC420978169"
   }
  },
  {
   "type": "Feature",
   "geometry": {
    "type": "Point",
    "coordinates": [
     146.56673965,
     -38.12710321
    ]
   },
   "properties": {
    "name": "22 TRARALGON-MAFFRA ROAD GLENGARRY 3854",
    "locID": "LOC000011120876",
    "tech": "WIRELESS",
    "upgrade": "NULL_NA",
    "gnaf_pid": "GAVIC420978170"
   }
  },
  {
   "type": "Feature",
   "geometry": {
    "type": "Point",
    "coordinates": [
     146.56532669,
     -38.1282751
    ]
   },
   "properties": {
    "name": "4 TRARALGON-MAFFRA ROAD GLENGARRY 3854",
    "locID": "LOC000036790534",
    "tech": "WIRELESS",
    "upgrade": "NULL_NA",
    "gnaf_pid": "GAVIC420978171"
   }
  },
  {
   "type": "Feature",
   "geometry": {
    "type": "Point",
    "coordinates": [
     146.56685087,
     -38.12833201
    ]
   },
   "properties": {
    "name": "15 CAIRNBROOK ROAD GLENGARRY 3854",
    "locID": "LOC000046513701",
    "tech": "WIRELESS",
    "upgrade": "NULL_NA",
    "gnaf_pid": "GAVIC420978172"
   }
  },
  {
   "type": "Feature",
   "geometry": {
    "type": "Point",
    "coordinates": [
     146.56584235,
     -38.13172308
    ]
   },
   "properties": {
    "name": "26-30 CAREY DRIVE GLENGARRY 3854",
    "locID": "ChIJlaNhlf4hKWsRc0tyuZgLjVw",
    "tech": "WIRELESS",
    "upgrade": "UNKNOWN",
    "gnaf_pid": "GAVIC420978173"
   }
  },
  {
   "type": "Feature",
   "geometry": {
    "type": "Point",
    "coordinates": [
     146.57119596,
     -38.12917744
    ]
   },
   "properties": {
    "name": "11 KYNE STREET GLENGARRY 3854",
    "locID": "LOC000087645190",
    "tech": "WIRELESS",
    "upgrade": "NULL_NA",
    "gnaf_pid": "GAVIC420991219"
   }
  },
  {
   "type": "Feature",
   "geometry": {
    "type": "Point",
    "coordinates": [
     146.57007215,
     -38.12959979
    ]
   },
   "properties": {
    "name": "23 RHODES COURT GLENGARRY 3854",
    "locID": "LOC000066352235",
    "tech": "WIRELESS",
    "upgrade": "NULL_NA",
    "gnaf_pid": "GAVIC420991220"
   }
  },
  {
   "type": "Feature",
   "geometry": {
    "type": "Point",
    "coordinates": [
     146.5695259,
     -38.1301147
    ]
   },
   "properties": {
    "name": "17 RHODES COURT GLENGARRY 3854",
    "locID": "LOC000066921519",
    "tech": "WIRELESS",
    "upgrade": "NULL_NA",
    "gnaf_pid": "GAVIC420991221"
   }
  },
  {
   "type": "Feature",
   "geometry": {
    "type": "Point",
    "coordinates": [
     146.56964074,
     -38.1306496
    ]
   },
   "properties": {
    "name": "14 RHODES COURT GLENGARRY 3854",
    "locID": "LOC000061363066",
    "tech": "WIRELESS",
    "upgrade": "NULL_NA",
    "gnaf_pid": "GAVIC420991222"
   }
  },
  {
   "type": "Feature",
   "geometry": {
    "type": "Point",
    "coordinates": [
     146.56962645,
     -38.13093453
    ]
   },
   "properties": {
    "name": "13 RHODES COURT GLENGARRY 3854",
    "locID": "LOC000007929916",
    "tech": "WIRELESS",
    "upgrade": "NULL_NA",
    "gnaf_pid": "GAVIC420991223"
   }
  },
  {
   "type": "Feature",
   "geometry": {
    "type": "Point",
    "coordinates": [
     146.57008836,
     -38.13061321
    ]
   },
   "properties": {
    "name": "8 RHODES COURT GLENGARRY 3854",
    "locID": "LOC000125297646",
    "tech": "WIRELESS",
    "upgrade": "NULL_NA",
    "gnaf_pid": "GAVIC420991224"
   }
  },
  {
   "type": "Feature",
   "geometry": {
    "type": "Point",
    "coordinates": [
     146.57001423,
     -38.13047067
    ]
   },
   "properties": {
    "name": "7 RHODES COURT GLENGARRY 3854",
    "locID": "LOC000058237760",
    "tech": "WIRELESS",
    "upgrade": "NULL_NA",
    "gnaf_pid": "GAVIC420991225"
   }
  },
  {
   "type": "Feature",
   "geometry": {
    "type": "Point",
    "coordinates": [
     146.56929106,
     -38.13546615
    ]
   },
   "properties": {
    "name": "12-13 COBHAM COURT GLENGARRY 3854",
    "locID": "ChIJF8pukvghKWsRCrBjg27Nv68",
    "tech": "WIRELESS",
    "upgrade": "UNKNOWN",
    "gnaf_pid": "GAVIC420991228"
   }
  },
  {
   "type": "Feature",
   "geometry": {
    "type": "Point",
    "coordinates": [
     146.5709749,
     -38.12350929
    ]
   },
   "properties": {
    "name": "78 TRARALGON-MAFFRA ROAD GLENGARRY 3854",
    "locID": "LOC000042685923",
    "tech": "WIRELESS",
    "upgrade": "NULL_NA",
    "gnaf_pid": "GAVIC420991229"
   }
  },
  {
   "type": "Feature",
   "geometry": {
    "type": "Point",
    "coordinates": [
     146.57234573,
     -38.1235875
    ]
   },
   "properties": {
    "name": "8 MORRISON PARADE GLENGARRY 3854",
    "locID": "LOC000010219410",
    "tech": "WIRELESS",
    "upgrade": "NULL_NA",
    "gnaf_pid": "GAVIC420991230"
   }
  },
  {
   "type": "Feature",
   "geometry": {
    "type": "Point",
    "coordinates": [
     146.57297841,
     -38.12331149
    ]
   },
   "properties": {
    "name": "14 MORRISON PARADE GLENGARRY 3854",
    "locID": "LOC000050982907",
    "tech": "WIRELESS",
    "upgrade": "NULL_NA",
    "gnaf_pid": "GAVIC420991231"
   }
  },
  {
   "type": "Feature",
   "geometry": {
    "type": "Point",
    "coordinates": [
     146.57310011,
     -38.12314006
    ]
   },
   "properties": {
    "name": "16 MORRISON PARADE GLENGARRY 3854",
    "locID": "LOC000102608657",
    "tech": "WIRELESS",
    "upgrade": "NULL_NA",
    "gnaf_pid": "GAVIC420991232"
   }
  },
  {
   "type": "Feature",
   "geometry": {
    "type": "Point",
    "coordinates": [
     146.57433563,
     -38.12346474
    ]
   },
   "properties": {
    "name": "51 MAIN STREET GLENGARRY 3854",
    "locID": "LOC000071004800",
    "tech": "WIRELESS",
    "upgrade": "NULL_NA",
    "gnaf_pid": "GAVIC420991233"
   }
  },
  {
   "type": "Feature",
   "geometry": {
    "type": "Point",
    "coordinates": [
     146.56819361,
     -38.1281018
    ]
   },
   "properties": {
    "name": "27 CAIRNBROOK ROAD GLENGARRY 3854",
    "locID": "LOC000103431252",
    "tech": "WIRELESS",
    "upgrade": "NULL_NA",
    "gnaf_pid": "GAVIC420993079"
   }
  },
  {
   "type": "Feature",
   "geometry": {
    "type": "Point",
    "coordinates": [
     146.56843523,
     -38.12806036
    ]
   },
   "properties": {
    "name": "29 CAIRNBROOK ROAD GLENGARRY 3854",
    "locID": "LOC000048911263",
    "tech": "WIRELESS",
    "upgrade": "NULL_NA",
    "gnaf_pid": "GAVIC420993080"
   }
  },
  {
   "type": "Feature",
   "geometry": {
    "type": "Point",
    "coordinates": [
     146.56809521,
     -38.12902658
    ]
   },
   "properties": {
    "name": "1-3 BERMINGHAM CLOSE GLENGARRY 3854",
    "locID": "LOC000012840199",
    "tech": "WIRELESS",
    "upgrade": "NULL_NA",
    "gnaf_pid": "GAVIC420993081"
   }
  },
  {
   "type": "Feature",
   "geometry": {
    "type": "Point",
    "coordinates": [
     146.57539145,
     -38.12059545
    ]
   },
   "properties": {
    "name": "79 MAIN STREET GLENGARRY 3854",
    "locID": "LOC000097208635",
    "tech": "WIRELESS",
    "upgrade": "NULL_NA",
    "gnaf_pid": "GAVIC420994058"
   }
  },
  {
   "type": "Feature",
   "geometry": {
    "type": "Point",
    "coordinates": [
     146.573149,
     -38.126341
    ]
   },
   "properties": {
    "name": "15 MAIN STREET GLENGARRY 3854",
    "locID": "LOC000091025517",
    "tech": "WIRELESS",
    "upgrade": "NULL_NA",
    "gnaf_pid": "GAVIC421036976"
   }
  },
  {
   "type": "Feature",
   "geometry": {
    "type": "Point",
    "coordinates": [
     146.57321831,
     -38.12601856
    ]
   },
   "properties": {
    "name": "19 MAIN STREET GLENGARRY 3854",
    "locID": "LOC000125283895",
    "tech": "WIRELESS",
    "upgrade": "NULL_NA",
    "gnaf_pid": "GAVIC421253405"
   }
  },
  {
   "type": "Feature",
   "geometry": {
    "type": "Point",
    "coordinates": [
     146.57225725,
     -38.12740504
    ]
   },
   "properties": {
    "name": "49-51 CAIRNBROOK ROAD GLENGARRY 3854",
    "locID": "LOC000125293134",
    "tech": "WIRELESS",
    "upgrade": "NULL_NA",
    "gnaf_pid": "GAVIC421253407"
   }
  },
  {
   "type": "Feature",
   "geometry": {
    "type": "Point",
    "coordinates": [
     146.56803913,
     -38.13039918
    ]
   },
   "properties": {
    "name": "12-15 BERMINGHAM CLOSE GLENGARRY 3854",
    "locID": "LOC000125283745",
    "tech": "WIRELESS",
    "upgrade": "NULL_NA",
    "gnaf_pid": "GAVIC421265546"
   }
  },
  {
   "type": "Feature",
   "geometry": {
    "type": "Point",
    "coordinates": [
     146.56837265,
     -38.13255495
    ]
   },
   "properties": {
    "name": "7-8 MOORHOUSE CLOSE GLENGARRY 3854",
    "locID": "ChIJby-_QPkhKWsR9DbTGJNiV58",
    "tech": "WIRELESS",
    "upgrade": "UNKNOWN",
    "gnaf_pid": "GAVIC421265548"
   }
  },
  {
   "type": "Feature",
   "geometry": {
    "type": "Point",
    "coordinates": [
     146.56956735,
     -38.12878471
    ]
   },
   "properties": {
    "name": "10 MACDONALD COURT GLENGARRY 3854",
    "locID": "LOC000002970908",
    "tech": "WIRELESS",
    "upgrade": "NULL_NA",
    "gnaf_pid": "GAVIC421265549"
   }
  },
  {
   "type": "Feature",
   "geometry": {
    "type": "Point",
    "coordinates": [
     146.56919705,
     -38.12915646
    ]
   },
   "properties": {
    "name": "6 MACDONALD COURT GLENGARRY 3854",
    "locID": "LOC000104516443",
    "tech": "WIRELESS",
    "upgrade": "NULL_NA",
    "gnaf_pid": "GAVIC421265550"
   }
  },
  {
   "type": "Feature",
   "geometry": {
    "type": "Point",
    "coordinates": [
     146.56944801,
     -38.1291664
    ]
   },
   "properties": {
    "name": "5 MACDONALD COURT GLENGARRY 3854",
    "locID": "LOC000004343573",
    "tech": "WIRELESS",
    "upgrade": "NULL_NA",
    "gnaf_pid": "GAVIC421265551"
   }
  },
  {
   "type": "Feature",
   "geometry": {
    "type": "Point",
    "coordinates": [
     146.57005364,
     -38.1290143
    ]
   },
   "properties": {
    "name": "2 MACDONALD COURT GLENGARRY 3854",
    "locID": "LOC000034707213",
    "tech": "WIRELESS",
    "upgrade": "NULL_NA",
    "gnaf_pid": "GAVIC421265552"
   }
  },
  {
   "type": "Feature",
   "geometry": {
    "type": "Point",
    "coordinates": [
     146.57029853,
     -38.12956214
    ]
   },
   "properties": {
    "name": "24 RHODES COURT GLENGARRY 3854",
    "locID": "LOC000125288242",
    "tech": "WIRELESS",
    "upgrade": "NULL_NA",
    "gnaf_pid": "GAVIC421265553"
   }
  },
  {
   "type": "Feature",
   "geometry": {
    "type": "Point",
    "coordinates": [
     146.56991255,
     -38.13095904
    ]
   },
   "properties": {
    "name": "11 RHODES COURT GLENGARRY 3854",
    "locID": "LOC000086689523",
    "tech": "WIRELESS",
    "upgrade": "NULL_NA",
    "gnaf_pid": "GAVIC421265556"
   }
  },
  {
   "type": "Feature",
   "geometry": {
    "type": "Point",
    "coordinates": [
     146.57032763,
     -38.1298718
    ]
   },
   "properties": {
    "name": "3 RHODES COURT GLENGARRY 3854",
    "locID": "LOC000025920229",
    "tech": "WIRELESS",
    "upgrade": "NULL_NA",
    "gnaf_pid": "GAVIC421265557"
   }
  },
  {
   "type": "Feature",
   "geometry": {
    "type": "Point",
    "coordinates": [
     146.56704336,
     -38.128299
    ]
   },
   "properties": {
    "name": "17 CAIRNBROOK ROAD GLENGARRY 3854",
    "locID": "LOC000049908377",
    "tech": "WIRELESS",
    "upgrade": "NULL_NA",
    "gnaf_pid": "GAVIC421267760"
   }
  },
  {
   "type": "Feature",
   "geometry": {
    "type": "Point",
    "coordinates": [
     146.56743165,
     -38.12823241
    ]
   },
   "properties": {
    "name": "21 CAIRNBROOK ROAD GLENGARRY 3854",
    "locID": "LOC000177503659",
    "tech": "WIRELESS",
    "upgrade": "NULL_NA",
    "gnaf_pid": "GAVIC421267761"
   }
  },
  {
   "type": "Feature",
   "geometry": {
    "type": "Point",
    "coordinates": [
     146.55824254,
     -38.13249079
    ]
   },
   "properties": {
    "name": "695 TRARALGON-MAFFRA ROAD GLENGARRY 3854",
    "locID": "LOC000102477570",
    "tech": "WIRELESS",
    "upgrade": "NULL_NA",
    "gnaf_pid": "GAVIC421267762"
   }
  },
  {
   "type": "Feature",
   "geometry": {
    "type": "Point",
    "coordinates": [
     146.5647467,
     -38.12937065
    ]
   },
   "properties": {
    "name": "10-14 CAIRNBROOK ROAD GLENGARRY 3854",
    "locID": "LOC000125279824",
    "tech": "WIRELESS",
    "upgrade": "NULL_NA",
    "gnaf_pid": "GAVIC421267763"
   }
  },
  {
   "type": "Feature",
   "geometry": {
    "type": "Point",
    "coordinates": [
     146.5692361,
     -38.13386514
    ]
   },
   "properties": {
    "name": "13-17 KING ROAD GLENGARRY 3854",
    "locID": "LOC000045749627",
    "tech": "WIRELESS",
    "upgrade": "NULL_NA",
    "gnaf_pid": "GAVIC421290308"
   }
  },
  {
   "type": "Feature",
   "geometry": {
    "type": "Point",
    "coordinates": [
     146.56831101,
     -38.13521915
    ]
   },
   "properties": {
    "name": "4-7 COBHAM COURT GLENGARRY 3854",
    "locID": "ChIJkxmtvvghKWsR9lF_ht428HU",
    "tech": "WIRELESS",
    "upgrade": "UNKNOWN",
    "gnaf_pid": "GAVIC421290309"
   }
  },
  {
   "type": "Feature",
   "geometry": {
    "type": "Point",
    "coordinates": [
     146.5716716,
     -38.1235031
    ]
   },
   "properties": {
    "name": "2 MORRISON PARADE GLENGARRY 3854",
    "locID": "LOC000004482488",
    "tech": "WIRELESS",
    "upgrade": "NULL_NA",
    "gnaf_pid": "GAVIC421290311"
   }
  },
  {
   "type": "Feature",
   "geometry": {
    "type": "Point",
    "coordinates": [
     146.57189306,
     -38.12353083
    ]
   },
   "properties": {
    "name": "4 MORRISON PARADE GLENGARRY 3854",
    "locID": "LOC000077387025",
    "tech": "WIRELESS",
    "upgrade": "NULL_NA",
    "gnaf_pid": "GAVIC421290312"
   }
  },
  {
   "type": "Feature",
   "geometry": {
    "type": "Point",
    "coordinates": [
     146.57329786,
     -38.12256599
    ]
   },
   "properties": {
    "name": "3 GLEN ELWYN AVENUE GLENGARRY 3854",
    "locID": "LOC000106702652",
    "tech": "WIRELESS",
    "upgrade": "NULL_NA",
    "gnaf_pid": "GAVIC421290313"
   }
  },
  {
   "type": "Feature",
   "geometry": {
    "type": "Point",
    "coordinates": [
     146.57270893,
     -38.12208448
    ]
   },
   "properties": {
    "name": "92 TRARALGON-MAFFRA ROAD GLENGARRY 3854",
    "locID": "LOC000008893091",
    "tech": "WIRELESS",
    "upgrade": "NULL_NA",
    "gnaf_pid": "GAVIC421290314"
   }
  },
  {
   "type": "Feature",
   "geometry": {
    "type": "Point",
    "coordinates": [
     146.5714394,
     -38.12312449
    ]
   },
   "properties": {
    "name": "80 TRARALGON-MAFFRA ROAD GLENGARRY 3854",
    "locID": "LOC000087564640",
    "tech": "WIRELESS",
    "upgrade": "NULL_NA",
    "gnaf_pid": "GAVIC421290315"
   }
  },
  {
   "type": "Feature",
   "geometry": {
    "type": "Point",
    "coordinates": [
     146.57477104,
     -38.12199018
    ]
   },
   "properties": {
    "name": "63-65 MAIN STREET GLENGARRY 3854",
    "locID": "LOC000125297475",
    "tech": "WIRELESS",
    "upgrade": "NULL_NA",
    "gnaf_pid": "GAVIC421290317"
   }
  },
  {
   "type": "Feature",
   "geometry": {
    "type": "Point",
    "coordinates": [
     146.56759971,
     -38.12638988
    ]
   },
   "properties": {
    "name": "34 TRARALGON-MAFFRA ROAD GLENGARRY 3854",
    "locID": "LOC000009734327",
    "tech": "WIRELESS",
    "upgrade": "NULL_NA",
    "gnaf_pid": "GAVIC421290319"
   }
  },
  {
   "type": "Feature",
   "geometry": {
    "type": "Point",
    "coordinates": [
     146.56745446,
     -38.12651036
    ]
   },
   "properties": {
    "name": "32 TRARALGON-MAFFRA ROAD GLENGARRY 3854",
    "locID": "LOC000013406204",
    "tech": "WIRELESS",
    "upgrade": "NULL_NA",
    "gnaf_pid": "GAVIC421290320"
   }
  },
  {
   "type": "Feature",
   "geometry": {
    "type": "Point",
    "coordinates": [
     146.57005136,
     -38.12425978
    ]
   },
   "properties": {
    "name": "64-70 TRARALGON-MAFFRA ROAD GLENGARRY 3854",
    "locID": "LOC000027921326",
    "tech": "WIRELESS",
    "upgrade": "NULL_NA",
    "gnaf_pid": "GAVIC421333177"
   }
  },
  {
   "type": "Feature",
   "geometry": {
    "type": "Point",
    "coordinates": [
     146.57278179,
     -38.12293281
    ]
   },
   "properties": {
    "name": "UNIT 2, 7 MORRISON PARADE GLENGARRY 3854",
    "locID": "LOC000029359384",
    "tech": "WIRELESS",
    "upgrade": "NULL_NA",
    "gnaf_pid": "GAVIC421355803"
   }
  },
  {
   "type": "Feature",
   "geometry": {
    "type": "Point",
    "coordinates": [
     146.55669588,
     -38.1417006
    ]
   },
   "properties": {
    "name": "590 TRARALGON-MAFFRA ROAD GLENGARRY 3854",
    "locID": "LOC000048815087",
    "tech": "WIRELESS",
    "upgrade": "NULL_NA",
    "gnaf_pid": "GAVIC421502877"
   }
  },
  {
   "type": "Feature",
   "geometry": {
    "type": "Point",
    "coordinates": [
     146.5661581,
     -38.12758555
    ]
   },
   "properties": {
    "name": "14 TRARALGON-MAFFRA ROAD GLENGARRY 3854",
    "locID": "LOC000073486068",
    "tech": "WIRELESS",
    "upgrade": "NULL_NA",
    "gnaf_pid": "GAVIC421544130"
   }
  },
  {
   "type": "Feature",
   "geometry": {
    "type": "Point",
    "coordinates": [
     146.5677871,
     -38.12999848
    ]
   },
   "properties": {
    "name": "19-21 BERMINGHAM CLOSE GLENGARRY 3854",
    "locID": "LOC000047959901",
    "tech": "WIRELESS",
    "upgrade": "NULL_NA",
    "gnaf_pid": "GAVIC421544131"
   }
  },
  {
   "type": "Feature",
   "geometry": {
    "type": "Point",
    "coordinates": [
     146.56597121,
     -38.12937405
    ]
   },
   "properties": {
    "name": "2-6 CAREY DRIVE GLENGARRY 3854",
    "locID": "LOC000125283951",
    "tech": "WIRELESS",
    "upgrade": "NULL_NA",
    "gnaf_pid": "GAVIC421544132"
   }
  },
  {
   "type": "Feature",
   "geometry": {
    "type": "Point",
    "coordinates": [
     146.57011854,
     -38.12884039
    ]
   },
   "properties": {
    "name": "LOT 11 MACDONALD COURT GLENGARRY 3854",
    "locID": "LOC000063653439",
    "tech": "WIRELESS",
    "upgrade": "NULL_NA",
    "gnaf_pid": "GAVIC421552112"
   }
  },
  {
   "type": "Feature",
   "geometry": {
    "type": "Point",
    "coordinates": [
     146.57075373,
     -38.12930238
    ]
   },
   "properties": {
    "name": "10 KYNE STREET GLENGARRY 3854",
    "locID": "LOC000071922790",
    "tech": "WIRELESS",
    "upgrade": "NULL_NA",
    "gnaf_pid": "GAVIC421552113"
   }
  },
  {
   "type": "Feature",
   "geometry": {
    "type": "Point",
    "coordinates": [
     146.56984585,
     -38.12963743
    ]
   },
   "properties": {
    "name": "22 RHODES COURT GLENGARRY 3854",
    "locID": "LOC000021094556",
    "tech": "WIRELESS",
    "upgrade": "NULL_NA",
    "gnaf_pid": "GAVIC421552114"
   }
  },
  {
   "type": "Feature",
   "geometry": {
    "type": "Point",
    "coordinates": [
     146.56967661,
     -38.1296656
    ]
   },
   "properties": {
    "name": "21 RHODES COURT GLENGARRY 3854",
    "locID": "LOC000047859646",
    "tech": "WIRELESS",
    "upgrade": "NULL_NA",
    "gnaf_pid": "GAVIC421552115"
   }
  },
  {
   "type": "Feature",
   "geometry": {
    "type": "Point",
    "coordinates": [
     146.56952765,
     -38.12969038
    ]
   },
   "properties": {
    "name": "20 RHODES COURT GLENGARRY 3854",
    "locID": "LOC000070287040",
    "tech": "WIRELESS",
    "upgrade": "NULL_NA",
    "gnaf_pid": "GAVIC421552116"
   }
  },
  {
   "type": "Feature",
   "geometry": {
    "type": "Point",
    "coordinates": [
     146.56957255,
     -38.13028735
    ]
   },
   "properties": {
    "name": "16 RHODES COURT GLENGARRY 3854",
    "locID": "LOC000067257596",
    "tech": "WIRELESS",
    "upgrade": "NULL_NA",
    "gnaf_pid": "GAVIC421552117"
   }
  },
  {
   "type": "Feature",
   "geometry": {
    "type": "Point",
    "coordinates": [
     146.57117486,
     -38.12975599
    ]
   },
   "properties": {
    "name": "17 KYNE STREET GLENGARRY 3854",
    "locID": "LOC000092564653",
    "tech": "WIRELESS",
    "upgrade": "NULL_NA",
    "gnaf_pid": "GAVIC421552118"
   }
  },
  {
   "type": "Feature",
   "geometry": {
    "type": "Point",
    "coordinates": [
     146.56993425,
     -38.1337497
    ]
   },
   "properties": {
    "name": "19-23 KING ROAD GLENGARRY 3854",
    "locID": "LOC000125283933",
    "tech": "WIRELESS",
    "upgrade": "NULL_NA",
    "gnaf_pid": "GAVIC421552119"
   }
  },
  {
   "type": "Feature",
   "geometry": {
    "type": "Point",
    "coordinates": [
     146.56890795,
     -38.1351195
    ]
   },
   "properties": {
    "name": "8-9 COBHAM COURT GLENGARRY 3854",
    "locID": "LOC000125297680",
    "tech": "WIRELESS",
    "upgrade": "NULL_NA",
    "gnaf_pid": "GAVIC421552120"
   }
  },
  {
   "type": "Feature",
   "geometry": {
    "type": "Point",
    "coordinates": [
     146.5675502,
     -38.13564656
    ]
   },
   "properties": {
    "name": "19-21 COBHAM COURT GLENGARRY 3854",
    "locID": "ChIJMynvq_ghKWsR28LmeouDodo",
    "tech": "WIRELESS",
    "upgrade": "UNKNOWN",
    "gnaf_pid": "GAVIC421552121"
   }
  },
  {
   "type": "Feature",
   "geometry": {
    "type": "Point",
    "coordinates": [
     146.56945274,
     -38.12474619
    ]
   },
   "properties": {
    "name": "60 TRARALGON-MAFFRA ROAD GLENGARRY 3854",
    "locID": "LOC000082815857",
    "tech": "WIRELESS",
    "upgrade": "NULL_NA",
    "gnaf_pid": "GAVIC421552122"
   }
  },
  {
   "type": "Feature",
   "geometry": {
    "type": "Point",
    "coordinates": [
     146.57396335,
     -38.12324471
    ]
   },
   "properties": {
    "name": "8 GLEN ELWYN AVENUE GLENGARRY 3854",
    "locID": "LOC000013698031",
    "tech": "WIRELESS",
    "upgrade": "NULL_NA",
    "gnaf_pid": "GAVIC421552123"
   }
  },
  {
   "type": "Feature",
   "geometry": {
    "type": "Point",
    "coordinates": [
     146.57375136,
     -38.12314911
    ]
   },
   "properties": {
    "name": "6 GLEN ELWYN AVENUE GLENGARRY 3854",
    "locID": "LOC000028481663",
    "tech": "WIRELESS",
    "upgrade": "NULL_NA",
    "gnaf_pid": "GAVIC421552124"
   }
  },
  {
   "type": "Feature",
   "geometry": {
    "type": "Point",
    "coordinates": [
     146.57278985,
     -38.12270418
    ]
   },
   "properties": {
    "name": "2-4 GLEN ELWYN AVENUE GLENGARRY 3854",
    "locID": "LOC000002720388",
    "tech": "WIRELESS",
    "upgrade": "NULL_NA",
    "gnaf_pid": "GAVIC421552125"
   }
  },
  {
   "type": "Feature",
   "geometry": {
    "type": "Point",
    "coordinates": [
     146.57328226,
     -38.12161653
    ]
   },
   "properties": {
    "name": "98 TRARALGON-MAFFRA ROAD GLENGARRY 3854",
    "locID": "LOC000072072446",
    "tech": "WIRELESS",
    "upgrade": "NULL_NA",
    "gnaf_pid": "GAVIC421552126"
   }
  },
  {
   "type": "Feature",
   "geometry": {
    "type": "Point",
    "coordinates": [
     146.57551579,
     -38.12036808
    ]
   },
   "properties": {
    "name": "81 MAIN STREET GLENGARRY 3854",
    "locID": "LOC000082843847",
    "tech": "WIRELESS",
    "upgrade": "NULL_NA",
    "gnaf_pid": "GAVIC421552128"
   }
  },
  {
   "type": "Feature",
   "geometry": {
    "type": "Point",
    "coordinates": [
     146.56580778,
     -38.13116215
    ]
   },
   "properties": {
    "name": "20-24 CAREY DRIVE GLENGARRY 3854",
    "locID": "ChIJ4dcRmP4hKWsRCtkSL5NNewQ",
    "tech": "WIRELESS",
    "upgrade": "UNKNOWN",
    "gnaf_pid": "GAVIC421574585"
   }
  },
  {
   "type": "Feature",
   "geometry": {
    "type": "Point",
    "coordinates": [
     146.56627945,
     -38.13051899
    ]
   },
   "properties": {
    "name": "13-17 CAREY DRIVE GLENGARRY 3854",
    "locID": "LOC000007594284",
    "tech": "WIRELESS",
    "upgrade": "NULL_NA",
    "gnaf_pid": "GAVIC421574586"
   }
  },
  {
   "type": "Feature",
   "geometry": {
    "type": "Point",
    "coordinates": [
     146.57108066,
     -38.13085265
    ]
   },
   "properties": {
    "name": "20-24 KYNE STREET GLENGARRY 3854",
    "locID": "LOC000060337545",
    "tech": "WIRELESS",
    "upgrade": "NULL_NA",
    "gnaf_pid": "GAVIC421582969"
   }
  },
  {
   "type": "Feature",
   "geometry": {
    "type": "Point",
    "coordinates": [
     146.57118296,
     -38.13299835
    ]
   },
   "properties": {
    "name": "49-51 KYNE STREET GLENGARRY 3854",
    "locID": "LOC000010284773",
    "tech": "WIRELESS",
    "upgrade": "NULL_NA",
    "gnaf_pid": "GAVIC421588408"
   }
  },
  {
   "type": "Feature",
   "geometry": {
    "type": "Point",
    "coordinates": [
     146.57105478,
     -38.13360735
    ]
   },
   "properties": {
    "name": "53-55 KYNE STREET GLENGARRY 3854",
    "locID": "LOC000125293201",
    "tech": "WIRELESS",
    "upgrade": "NULL_NA",
    "gnaf_pid": "GAVIC421588409"
   }
  },
  {
   "type": "Feature",
   "geometry": {
    "type": "Point",
    "coordinates": [
     146.57093372,
     -38.1341824
    ]
   },
   "properties": {
    "name": "57-59 KYNE STREET GLENGARRY 3854",
    "locID": "LOC000018635652",
    "tech": "WIRELESS",
    "upgrade": "NULL_NA",
    "gnaf_pid": "GAVIC421588410"
   }
  },
  {
   "type": "Feature",
   "geometry": {
    "type": "Point",
    "coordinates": [
     146.55170119,
     -38.15228948
    ]
   },
   "properties": {
    "name": "50 FARMERS ROAD GLENGARRY 3854",
    "locID": "LOC000105853199",
    "tech": "WIRELESS",
    "upgrade": "NULL_NA",
    "gnaf_pid": "GAVIC421604589"
   }
  },
  {
   "type": "Feature",
   "geometry": {
    "type": "Point",
    "coordinates": [
     146.56631536,
     -38.1418086
    ]
   },
   "properties": {
    "name": "45 BLACK TANK ROAD GLENGARRY 3854",
    "locID": "LOC000087849410",
    "tech": "WIRELESS",
    "upgrade": "NULL_NA",
    "gnaf_pid": "GAVIC421819220"
   }
  },
  {
   "type": "Feature",
   "geometry": {
    "type": "Point",
    "coordinates": [
     146.5745264,
     -38.1227204
    ]
   },
   "properties": {
    "name": "57 MAIN STREET GLENGARRY 3854",
    "locID": "LOC000053690984",
    "tech": "WIRELESS",
    "upgrade": "NULL_NA",
    "gnaf_pid": "GAVIC421819221"
   }
  },
  {
   "type": "Feature",
   "geometry": {
    "type": "Point",
    "coordinates": [
     146.573005,
     -38.12243203
    ]
   },
   "properties": {
    "name": "1 GLEN ELWYN AVENUE GLENGARRY 3854",
    "locID": "LOC000012855563",
    "tech": "WIRELESS",
    "upgrade": "NULL_NA",
    "gnaf_pid": "GAVIC421837921"
   }
  },
  {
   "type": "Feature",
   "geometry": {
    "type": "Point",
    "coordinates": [
     146.57487714,
     -38.12169978
    ]
   },
   "properties": {
    "name": "67 MAIN STREET GLENGARRY 3854",
    "locID": "ChIJN2cZ9ughKWsRA8iLLVNvkfA",
    "tech": "WIRELESS",
    "upgrade": "UNKNOWN",
    "gnaf_pid": "GAVIC421837922"
   }
  },
  {
   "type": "Feature",
   "geometry": {
    "type": "Point",
    "coordinates": [
     146.56707953,
     -38.13438666
    ]
   },
   "properties": {
    "name": "56-62 CAREY DRIVE GLENGARRY 3854",
    "locID": "ChIJh4T4NP8hKWsR52vIv1uko8o",
    "tech": "WIRELESS",
    "upgrade": "UNKNOWN",
    "gnaf_pid": "GAVIC421838994"
   }
  },
  {
   "type": "Feature",
   "geometry": {
    "type": "Point",
    "coordinates": [
     146.56693546,
     -38.13505655
    ]
   },
   "properties": {
    "name": "64-70 CAREY DRIVE GLENGARRY 3854",
    "locID": "LOC000125297499",
    "tech": "WIRELESS",
    "upgrade": "NULL_NA",
    "gnaf_pid": "GAVIC421838995"
   }
  },
  {
   "type": "Feature",
   "geometry": {
    "type": "Point",
    "coordinates": [
     146.57327976,
     -38.12572859
    ]
   },
   "properties": {
    "name": "UNIT 5, 21-23 MAIN STREET GLENGARRY 3854",
    "locID": "LOC000016091302",
    "tech": "WIRELESS",
    "upgrade": "NULL_NA",
    "gnaf_pid": "GAVIC421864369"
   }
  },
  {
   "type": "Feature",
   "geometry": {
    "type": "Point",
    "coordinates": [
     146.55460966,
     -38.12069326
    ]
   },
   "properties": {
    "name": "125 RIFLE RANGE ROAD GLENGARRY 3854",
    "locID": "LOC000062476296",
    "tech": "WIRELESS",
    "upgrade": "NULL_NA",
    "gnaf_pid": "GAVIC421870979"
   }
  },
  {
   "type": "Feature",
   "geometry": {
    "type": "Point",
    "coordinates": [
     146.57140664,
     -38.13053443
    ]
   },
   "properties": {
    "name": "27 KYNE STREET GLENGARRY 3854",
    "locID": "LOC000061215646",
    "tech": "WIRELESS",
    "upgrade": "NULL_NA",
    "gnaf_pid": "GAVIC421880986"
   }
  },
  {
   "type": "Feature",
   "geometry": {
    "type": "Point",
    "coordinates": [
     146.56813337,
     -38.12948706
    ]
   },
   "properties": {
    "name": "4-6 BERMINGHAM CLOSE GLENGARRY 3854",
    "locID": "LOC000011928791",
    "tech": "WIRELESS",
    "upgrade": "NULL_NA",
    "gnaf_pid": "GAVIC421884786"
   }
  },
  {
   "type": "Feature",
   "geometry": {
    "type": "Point",
    "coordinates": [
     146.57114803,
     -38.12871488
    ]
   },
   "properties": {
    "name": "5-7 KYNE STREET GLENGARRY 3854",
    "locID": "ChIJ9-6NwfohKWsRaaqBPgasLsQ",
    "tech": "WIRELESS",
    "upgrade": "UNKNOWN",
    "gnaf_pid": "GAVIC421884787"
   }
  },
  {
   "type": "Feature",
   "geometry": {
    "type": "Point",
    "coordinates": [
     146.57120741,
     -38.13189898
    ]
   },
   "properties": {
    "name": "LOT 9 KYNE STREET GLENGARRY 3854",
    "locID": "LOC000020438214",
    "tech": "WIRELESS",
    "upgrade": "NULL_NA",
    "gnaf_pid": "GAVIC421884788"
   }
  },
  {
   "type": "Feature",
   "geometry": {
    "type": "Point",
    "coordinates": [
     146.56999755,
     -38.12871169
    ]
   },
   "properties": {
    "name": "12 MACDONALD COURT GLENGARRY 3854",
    "locID": "LOC000065341420",
    "tech": "WIRELESS",
    "upgrade": "NULL_NA",
    "gnaf_pid": "GAVIC421884790"
   }
  },
  {
   "type": "Feature",
   "geometry": {
    "type": "Point",
    "coordinates": [
     146.56913055,
     -38.12882275
    ]
   },
   "properties": {
    "name": "8 MACDONALD COURT GLENGARRY 3854",
    "locID": "LOC000042518324",
    "tech": "WIRELESS",
    "upgrade": "NULL_NA",
    "gnaf_pid": "GAVIC421884791"
   }
  },
  {
   "type": "Feature",
   "geometry": {
    "type": "Point",
    "coordinates": [
     146.57009946,
     -38.13092625
    ]
   },
   "properties": {
    "name": "10 RHODES COURT GLENGARRY 3854",
    "locID": "LOC000089681301",
    "tech": "WIRELESS",
    "upgrade": "NULL_NA",
    "gnaf_pid": "GAVIC421884792"
   }
  },