{
 "type": "FeatureCollection",
 "generated": "2024-08-12T18:38:37.817906",
 "suburb": "GOBARUP",
 "features": [
  {
   "type": "Feature",
   "geometry": {
    "type": "Point",
    "coordinates": [
     144.89022231,
     -36.69786088
    ]
   },
   "properties": {
    "name": "200 SKATE ROAD GOBARUP 3559",
    "locID": "LOC100078660420",
    "tech": "SATELLITE",
    "upgrade": "NULL_NA",
    "gnaf_pid": "GAVIC419776353",
    "tech_change_status": "Not Planned"
   }
  },
  {
   "type": "Feature",
   "geometry": {
    "type": "Point",
    "coordinates": [
     144.90591336,
     -36.69465755
    ]
   },
   "properties": {
    "name": "45 SKATE ROAD GOBARUP 3559",
    "locID": "LOC000020351434",
    "tech": "SATELLITE",
    "upgrade": "NULL_NA",
    "gnaf_pid": "GAVIC420379154",
    "tech_change_status": "Not Planned"
   }
  },
  {
   "type": "Feature",
   "geometry": {
    "type": "Point",
    "coordinates": [
     144.8349642,
     -36.64882739
    ]
   },
   "properties": {
    "name": "524 PARDY ROAD GOBARUP 3559",
    "locID": "LOC000009414432",
    "tech": "WIRELESS",
    "upgrade": "NULL_NA",
    "gnaf_pid": "GAVIC420589167",
    "tech_change_status": "Not Planned",
    "program_type": "Fixed Wireless and Satellite Upgrade Program",
    "target_eligibility_quarter": "Dec 2024"
   }
  },
  {
   "type": "Feature",
   "geometry": {
    "type": "Point",
    "coordinates": [
     144.91580436,
     -36.68606136
    ]
   },
   "properties": {
    "name": "391 ANDERSONS WOOLSHED ROAD GOBARUP 3559",
    "locID": "LOC000003612005",
    "tech": "SATELLITE",
    "upgrade": "NULL_NA",
    "gnaf_pid": "GAVIC420685962",
    "tech_change_status": "Not Planned"
   }
  },
  {
   "type": "Feature",
   "geometry": {
    "type": "Point",
    "coordinates": [
     144.91833988,
     -36.68665553
    ]
   },
   "properties": {
    "name": "431 ANDERSONS WOOLSHED ROAD GOBARUP 3559",
    "locID": "LOC000001912590",
    "tech": "SATELLITE",
    "upgrade": "NULL_NA",
    "gnaf_pid": "GAVIC420985742",
    "tech_change_status": "Not Planned"
   }
  },
  {
   "type": "Feature",
   "geometry": {
    "type": "Point",
    "coordinates": [
     144.82327131,
     -36.65453579
    ]
   },
   "properties": {
    "name": "729 EGANS BRIDGE ROAD GOBARUP 3559",
    "locID": "LOC000015234085",
    "tech": "WIRELESS",
    "upgrade": "NULL_NA",
    "gnaf_pid": "GAVIC421488782",
    "tech_change_status": "Not Planned",
    "program_type": "Fixed Wireless and Satellite Upgrade Program",
    "target_eligibility_quarter": "Dec 2024"
   }
  },
  {
   "type": "Feature",
   "geometry": {
    "type": "Point",
    "coordinates": [
     144.88691704,
     -36.66287491
    ]
   },
   "properties": {
    "name": "1004 HEATHCOTE-MOORA ROAD GOBARUP 3559",
    "locID": "LOC000096149194",
    "tech": "SATELLITE",
    "upgrade": "NULL_NA",
    "gnaf_pid": "GAVIC421555189",
    "tech_change_status": "Not Planned"
   }
  },
  {
   "type": "Feature",
   "geometry": {
    "type": "Point",
    "coordinates": [
     144.93128273,
     -36.67390215
    ]
   },
   "properties": {
    "name": "1644 TAIT HAMILTON ROAD GOBARUP 3559",
    "locID": "LOC000080945115",
    "tech": "SATELLITE",
    "upgrade": "NULL_NA",
    "gnaf_pid": "GAVIC422035668",
    "tech_change_status": "Not Planned"
   }
  },
  {
   "type": "Feature",
   "geometry": {
    "type": "Point",
    "coordinates": [
     144.91222628,
     -36.67808506
    ]
   },
   "properties": {
    "name": "1462 TAIT HAMILTON ROAD GOBARUP 3559",
    "locID": "LOC000108983556",
    "tech": "SATELLITE",
    "upgrade": "NULL_NA",
    "gnaf_pid": "GAVIC422036869",
    "tech_change_status": "Not Planned"
   }
  },
  {
   "type": "Feature",
   "geometry": {
    "type": "Point",
    "coordinates": [
     144.87267112,
     -36.63682876
    ]
   },
   "properties": {
    "name": "475 GROVES WEIR ROAD GOBARUP 3559",
    "locID": "LOC000019634555",
    "tech": "WIRELESS",
    "upgrade": "NULL_NA",
    "gnaf_pid": "GAVIC422152674",
    "tech_change_status": "Not Planned",
    "program_type": "Fixed Wireless and Satellite Upgrade Program",
    "target_eligibility_quarter": "Dec 2024"
   }
  },
  {
   "type": "Feature",
   "geometry": {
    "type": "Point",
    "coordinates": [
     144.91708959,
     -36.67699855
    ]
   },
   "properties": {
    "name": "1506 TAIT HAMILTON ROAD GOBARUP 3559",
    "locID": "LOC000083743128",
    "tech": "SATELLITE",
    "upgrade": "NULL_NA",
    "gnaf_pid": "GAVIC422194836",
    "tech_change_status": "Not Planned"
   }
  },
  {
   "type": "Feature",
   "geometry": {
    "type": "Point",
    "coordinates": [
     144.92172594,
     -36.67602505
    ]
   },
   "properties": {
    "name": "1552 TAIT HAMILTON ROAD GOBARUP 3559",
    "locID": "LOC000081358798",
    "tech": "SATELLITE",
    "upgrade": "NULL_NA",
    "gnaf_pid": "GAVIC422194837",
    "tech_change_status": "Not Planned"
   }
  },
  {
   "type": "Feature",
   "geometry": {
    "type": "Point",
    "coordinates": [
     144.83406976,
     -36.6954988
    ]
   },
   "properties": {
    "name": "734 TAIT HAMILTON ROAD GOBARUP 3559",
    "locID": "LOC000021876678",
    "tech": "WIRELESS",
    "upgrade": "NULL_NA",
    "gnaf_pid": "GAVIC422327299",
    "tech_change_status": "Not Planned",
    "program_type": "Fixed Wireless and Satellite Upgrade Program",
    "target_eligibility_quarter": "Dec 2024"
   }
  },
  {
   "type": "Feature",
   "geometry": {
    "type": "Point",
    "coordinates": [
     144.85969651,
     -36.70490341
    ]
   },
   "properties": {
    "name": "165 RAGLUS ROAD GOBARUP 3559",
    "locID": "LOC000031014649",
    "tech": "SATELLITE",
    "upgrade": "NULL_NA",
    "gnaf_pid": "GAVIC423711884",
    "tech_change_status": "Not Planned"
   }
  },
  {
   "type": "Feature",
   "geometry": {
    "type": "Point",
    "coordinates": [
     144.81037014,
     -36.63451555
    ]
   },
   "properties": {
    "name": "574 CORNELLA CHURCH ROAD GOBARUP 3559",
    "locID": "LOC000073922954",
    "tech": "WIRELESS",
    "upgrade": "NULL_NA",
    "gnaf_pid": "GAVIC423748223",
    "tech_change_status": "Not Planned",
    "program_type": "Fixed Wireless and Satellite Upgrade Program",
    "target_eligibility_quarter": "Dec 2024"
   }
  },
  {
   "type": "Feature",
   "geometry": {
    "type": "Point",
    "coordinates": [
     144.81610645,
     -36.66384124
    ]
   },
   "properties": {
    "name": "687 DAVEY ROAD GOBARUP 3559",
    "locID": "LOC000048561454",
    "tech": "SATELLITE",
    "upgrade": "NULL_NA",
    "gnaf_pid": "GAVIC423748846",
    "tech_change_status": "Not Planned"
   }
  },
  {
   "type": "Feature",
   "geometry": {
    "type": "Point",
    "coordinates": [
     144.8170123,
     -36.69908075
    ]
   },
   "properties": {
    "name": "566 TAIT HAMILTON ROAD GOBARUP 3559",
    "locID": "LOC000028824027",
    "tech": "SATELLITE",
    "upgrade": "NULL_NA",
    "gnaf_pid": "GAVIC423759390",
    "tech_change_status": "Not Planned"
   }
  },
  {
   "type": "Feature",
   "geometry": {
    "type": "Point",
    "coordinates": [
     144.91155001,
     -36.6960545
    ]
   },
   "properties": {
    "name": "128 SCRUBBY CREEK ROAD GOBARUP 3559",
    "locID": "LOC000096310718",
    "tech": "SATELLITE",
    "upgrade": "NULL_NA",
    "gnaf_pid": "GAVIC423976324",
    "tech_change_status": "Not Planned"
   }
  },
  {
   "type": "Feature",
   "geometry": {
    "type": "Point",
    "coordinates": [
     144.91265396,
     -36.67799343
    ]
   },
   "properties": {
    "name": "1464 TAIT HAMILTON ROAD GOBARUP 3559",
    "locID": "LOC100078865252",
    "tech": "SATELLITE",
    "upgrade": "NULL_NA",
    "gnaf_pid": "GAVIC424506172",
    "tech_change_status": "Not Planned"
   }
  },
  {
   "type": "Feature",
   "geometry": {
    "type": "Point",
    "coordinates": [
     144.85190205,
     -36.64893136
    ]
   },
   "properties": {
    "name": "LOT 9 PARDY ROAD GOBARUP 3559",
    "locID": "LOC000172079222",
    "tech": "WIRELESS",
    "upgrade": "NULL_NA",
    "gnaf_pid": "GAVIC720768350",
    "tech_change_status": "Not Planned",
    "program_type": "Fixed Wireless and Satellite Upgrade Program",
    "target_eligibility_quarter": "Dec 2024"
   }
  }
 ]
}