{
 "type": "FeatureCollection",
 "generated": "2023-10-24T06:33:18.663431",
 "suburb": "GOOROC",
 "features": [
  {
   "type": "Feature",
   "geometry": {
    "type": "Point",
    "coordinates": [
     143.22022281,
     -36.46865921
    ]
   },
   "properties": {
    "name": "91 ODONNELL ROAD GOOROC 3477",
    "locID": "LOC000124812798",
    "tech": "WIRELESS",
    "upgrade": "NULL_NA",
    "gnaf_pid": "GAVIC422026408"
   }
  },
  {
   "type": "Feature",
   "geometry": {
    "type": "Point",
    "coordinates": [
     143.25808251,
     -36.44750301
    ]
   },
   "properties": {
    "name": "1325 BURRUMBITE ROAD GOOROC 3477",
    "locID": "ChIJw3uBwll60GoRmA5Ttb1S9Pw",
    "tech": "SATELLITE",
    "upgrade": "UNKNOWN",
    "gnaf_pid": "GAVIC422029996"
   }
  },
  {
   "type": "Feature",
   "geometry": {
    "type": "Point",
    "coordinates": [
     143.22363754,
     -36.48941747
    ]
   },
   "properties": {
    "name": "168 BATTERS ROAD GOOROC 3477",
    "locID": "LOC000040443593",
    "tech": "WIRELESS",
    "upgrade": "NULL_NA",
    "gnaf_pid": "GAVIC422126595"
   }
  },
  {
   "type": "Feature",
   "geometry": {
    "type": "Point",
    "coordinates": [
     143.17805358,
     -36.43917453
    ]
   },
   "properties": {
    "name": "215 MCKEW ROAD GOOROC 3477",
    "locID": "LOC000032832701",
    "tech": "SATELLITE",
    "upgrade": "NULL_NA",
    "gnaf_pid": "GAVIC422169997"
   }
  },
  {
   "type": "Feature",
   "geometry": {
    "type": "Point",
    "coordinates": [
     143.20422753,
     -36.48853855
    ]
   },
   "properties": {
    "name": "1505 ST ARNAUD-WYCHEPROOF ROAD GOOROC 3477",
    "locID": "LOC000079844866",
    "tech": "WIRELESS",
    "upgrade": "NULL_NA",
    "gnaf_pid": "GAVIC422192200"
   }
  },
  {
   "type": "Feature",
   "geometry": {
    "type": "Point",
    "coordinates": [
     143.20161523,
     -36.45407624
    ]
   },
   "properties": {
    "name": "1893 ST ARNAUD-WYCHEPROOF ROAD GOOROC 3477",
    "locID": "LOC000083436771",
    "tech": "SATELLITE",
    "upgrade": "NULL_NA",
    "gnaf_pid": "GAVIC422192201"
   }
  },
  {
   "type": "Feature",
   "geometry": {
    "type": "Point",
    "coordinates": [
     143.24545808,
     -36.47661074
    ]
   },
   "properties": {
    "name": "645 COPE COPE ROAD GOOROC 3477",
    "locID": "LOC000046669870",
    "tech": "SATELLITE",
    "upgrade": "NULL_NA",
    "gnaf_pid": "GAVIC423211444"
   }
  },
  {
   "type": "Feature",
   "geometry": {
    "type": "Point",
    "coordinates": [
     143.19931927,
     -36.46680027
    ]
   },
   "properties": {
    "name": "22 CHURCH ROAD GOOROC 3477",
    "locID": "LOC000124771304",
    "tech": "WIRELESS",
    "upgrade": "NULL_NA",
    "gnaf_pid": "GAVIC423624474"
   }
  },
  {
   "type": "Feature",
   "geometry": {
    "type": "Point",
    "coordinates": [
     143.1955328,
     -36.48534247
    ]
   },
   "properties": {
    "name": "1975 SUTHERLAND ROAD GOOROC 3477",
    "locID": "LOC000025131089",
    "tech": "WIRELESS",
    "upgrade": "NULL_NA",
    "gnaf_pid": "GAVIC423759210"
   }
  },
  {
   "type": "Feature",
   "geometry": {
    "type": "Point",
    "coordinates": [
     143.19552308,
     -36.48570794
    ]
   },
   "properties": {
    "name": "1973 SUTHERLAND ROAD GOOROC 3477",
    "locID": "LOC000124771124",
    "tech": "WIRELESS",
    "upgrade": "NULL_NA",
    "gnaf_pid": "GAVIC423800084"
   }
  }
 ]
}