{
 "type": "FeatureCollection",
 "generated": "2024-07-06T00:25:18.343030",
 "suburb": "GOOROC",
 "features": [
  {
   "type": "Feature",
   "geometry": {
    "type": "Point",
    "coordinates": [
     143.22022281,
     -36.46865921
    ]
   },
   "properties": {
    "name": "91 ODONNELL ROAD GOOROC 3477",
    "locID": "LOC000124812798",
    "tech": "WIRELESS",
    "upgrade": "NULL_NA",
    "gnaf_pid": "GAVIC422026408",
    "tech_change_status": "Not Planned",
    "program_type": "Fixed Wireless and Satellite Upgrade Program",
    "target_eligibility_quarter": "Dec 2024"
   }
  },
  {
   "type": "Feature",
   "geometry": {
    "type": "Point",
    "coordinates": [
     143.22363754,
     -36.48941747
    ]
   },
   "properties": {
    "name": "168 BATTERS ROAD GOOROC 3477",
    "locID": "LOC000040443593",
    "tech": "WIRELESS",
    "upgrade": "NULL_NA",
    "gnaf_pid": "GAVIC422126595",
    "tech_change_status": "Not Planned",
    "program_type": "Fixed Wireless and Satellite Upgrade Program",
    "target_eligibility_quarter": "Dec 2024"
   }
  },
  {
   "type": "Feature",
   "geometry": {
    "type": "Point",
    "coordinates": [
     143.17805358,
     -36.43917453
    ]
   },
   "properties": {
    "name": "215 MCKEW ROAD GOOROC 3477",
    "locID": "LOC000032832701",
    "tech": "SATELLITE",
    "upgrade": "NULL_NA",
    "gnaf_pid": "GAVIC422169997",
    "tech_change_status": "Not Planned"
   }
  },
  {
   "type": "Feature",
   "geometry": {
    "type": "Point",
    "coordinates": [
     143.20422753,
     -36.48853855
    ]
   },
   "properties": {
    "name": "1505 ST ARNAUD-WYCHEPROOF ROAD GOOROC 3477",
    "locID": "LOC000079844866",
    "tech": "WIRELESS",
    "upgrade": "NULL_NA",
    "gnaf_pid": "GAVIC422192200",
    "tech_change_status": "Not Planned",
    "program_type": "Fixed Wireless and Satellite Upgrade Program",
    "target_eligibility_quarter": "Dec 2024"
   }
  },
  {
   "type": "Feature",
   "geometry": {
    "type": "Point",
    "coordinates": [
     143.20161523,
     -36.45407624
    ]
   },
   "properties": {
    "name": "1893 ST ARNAUD-WYCHEPROOF ROAD GOOROC 3477",
    "locID": "LOC000083436771",
    "tech": "SATELLITE",
    "upgrade": "NULL_NA",
    "gnaf_pid": "GAVIC422192201",
    "tech_change_status": "Not Planned"
   }
  },
  {
   "type": "Feature",
   "geometry": {
    "type": "Point",
    "coordinates": [
     143.24545808,
     -36.47661074
    ]
   },
   "properties": {
    "name": "645 COPE COPE ROAD GOOROC 3477",
    "locID": "LOC000046669870",
    "tech": "SATELLITE",
    "upgrade": "NULL_NA",
    "gnaf_pid": "GAVIC423211444",
    "tech_change_status": "Not Planned"
   }
  },
  {
   "type": "Feature",
   "geometry": {
    "type": "Point",
    "coordinates": [
     143.19931927,
     -36.46680027
    ]
   },
   "properties": {
    "name": "22 CHURCH ROAD GOOROC 3477",
    "locID": "LOC000124771304",
    "tech": "WIRELESS",
    "upgrade": "NULL_NA",
    "gnaf_pid": "GAVIC423624474",
    "tech_change_status": "Not Planned",
    "program_type": "Fixed Wireless and Satellite Upgrade Program",
    "target_eligibility_quarter": "Dec 2024"
   }
  },
  {
   "type": "Feature",
   "geometry": {
    "type": "Point",
    "coordinates": [
     143.1955328,
     -36.48534247
    ]
   },
   "properties": {
    "name": "1975 SUTHERLAND ROAD GOOROC 3477",
    "locID": "LOC000025131089",
    "tech": "WIRELESS",
    "upgrade": "NULL_NA",
    "gnaf_pid": "GAVIC423759210",
    "tech_change_status": "Not Planned",
    "program_type": "Fixed Wireless and Satellite Upgrade Program",
    "target_eligibility_quarter": "Dec 2024"
   }
  },
  {
   "type": "Feature",
   "geometry": {
    "type": "Point",
    "coordinates": [
     143.19552308,
     -36.48570794
    ]
   },
   "properties": {
    "name": "1973 SUTHERLAND ROAD GOOROC 3477",
    "locID": "LOC000124771124",
    "tech": "WIRELESS",
    "upgrade": "NULL_NA",
    "gnaf_pid": "GAVIC423800084",
    "tech_change_status": "Not Planned",
    "program_type": "Fixed Wireless and Satellite Upgrade Program",
    "target_eligibility_quarter": "Dec 2024"
   }
  }
 ]
}