{
 "type": "FeatureCollection",
 "generated": "2023-10-24T07:43:00.829718",
 "suburb": "HAMPTON",
 "features": [
  {
   "type": "Feature",
   "geometry": {
    "type": "Point",
    "coordinates": [
     145.00375675,
     -37.93440639
    ]
   },
   "properties": {
    "name": "1B LITTLEWOOD STREET HAMPTON 3188",
    "locID": "ChIJ-3PExyBv1moRpoP3XKRma9o",
    "tech": "HFC",
    "upgrade": "UNKNOWN",
    "gnaf_pid": "GAVIC411495667"
   }
  },
  {
   "type": "Feature",
   "geometry": {
    "type": "Point",
    "coordinates": [
     145.00634981,
     -37.93319388
    ]
   },
   "properties": {
    "name": "UNIT 2, 19 LUDSTONE STREET HAMPTON 3188",
    "locID": "LOC000092447047",
    "tech": "HFC",
    "upgrade": "NULL_NA",
    "gnaf_pid": "GAVIC411495678"
   }
  },
  {
   "type": "Feature",
   "geometry": {
    "type": "Point",
    "coordinates": [
     145.01914338,
     -37.93421013
    ]
   },
   "properties": {
    "name": "32 BARNETT STREET HAMPTON 3188",
    "locID": "LOC000104484974",
    "tech": "HFC",
    "upgrade": "NULL_NA",
    "gnaf_pid": "GAVIC411496364"
   }
  },
  {
   "type": "Feature",
   "geometry": {
    "type": "Point",
    "coordinates": [
     145.01586545,
     -37.93436783
    ]
   },
   "properties": {
    "name": "UNIT 2, 113 LUDSTONE STREET HAMPTON 3188",
    "locID": "LOC000036012855",
    "tech": "HFC",
    "upgrade": "NULL_NA",
    "gnaf_pid": "GAVIC411496369"
   }
  },
  {
   "type": "Feature",
   "geometry": {
    "type": "Point",
    "coordinates": [
     145.02200315,
     -37.93357778
    ]
   },
   "properties": {
    "name": "22 LAWSON STREET HAMPTON 3188",
    "locID": "LOC000092499096",
    "tech": "HFC",
    "upgrade": "NULL_NA",
    "gnaf_pid": "GAVIC411496371"
   }
  },
  {
   "type": "Feature",
   "geometry": {
    "type": "Point",
    "coordinates": [
     145.019979,
     -37.937318
    ]
   },
   "properties": {
    "name": "70 RAYNES PARK ROAD HAMPTON 3188",
    "locID": "LOC000107815722",
    "tech": "HFC",
    "upgrade": "NULL_NA",
    "gnaf_pid": "GAVIC411496373"
   }
  },
  {
   "type": "Feature",
   "geometry": {
    "type": "Point",
    "coordinates": [
     145.012778,
     -37.935868
    ]
   },
   "properties": {
    "name": "55A KINGSTON STREET HAMPTON 3188",
    "locID": "LOC000046456714",
    "tech": "HFC",
    "upgrade": "NULL_NA",
    "gnaf_pid": "GAVIC411497067"
   }
  },
  {
   "type": "Feature",
   "geometry": {
    "type": "Point",
    "coordinates": [
     145.00648609,
     -37.93741695
    ]
   },
   "properties": {
    "name": "5 FOAM STREET HAMPTON 3188",
    "locID": "LOC000017019101",
    "tech": "HFC",
    "upgrade": "NULL_NA",
    "gnaf_pid": "GAVIC411497141"
   }
  },
  {
   "type": "Feature",
   "geometry": {
    "type": "Point",
    "coordinates": [
     145.0089215,
     -37.93179556
    ]
   },
   "properties": {
    "name": "UNIT 2, 49 VILLEROY STREET HAMPTON 3188",
    "locID": "LOC000047771182",
    "tech": "HFC",
    "upgrade": "NULL_NA",
    "gnaf_pid": "GAVIC411497155"
   }
  },
  {
   "type": "Feature",
   "geometry": {
    "type": "Point",
    "coordinates": [
     144.99851443,
     -37.93753564
    ]
   },
   "properties": {
    "name": "41B BEACH ROAD HAMPTON 3188",
    "locID": "LOC000089709685",
    "tech": "HFC",
    "upgrade": "NULL_NA",
    "gnaf_pid": "GAVIC411497157"
   }
  },
  {
   "type": "Feature",
   "geometry": {
    "type": "Point",
    "coordinates": [
     145.00261057,
     -37.93572331
    ]
   },
   "properties": {
    "name": "413A HAMPTON STREET HAMPTON 3188",
    "locID": "ChIJYWVkVSBv1moRWo9nt0v2F98",
    "tech": "HFC",
    "upgrade": "UNKNOWN",
    "gnaf_pid": "GAVIC411497158"
   }
  },
  {
   "type": "Feature",
   "geometry": {
    "type": "Point",
    "coordinates": [
     145.00159564,
     -37.93563878
    ]
   },
   "properties": {
    "name": "UNIT 3, 38 GRENVILLE STREET HAMPTON 3188",
    "locID": "LOC000092815791",
    "tech": "HFC",
    "upgrade": "NULL_NA",
    "gnaf_pid": "GAVIC411497165"
   }
  },
  {
   "type": "Feature",
   "geometry": {
    "type": "Point",
    "coordinates": [
     145.002771,
     -37.937086
    ]
   },
   "properties": {
    "name": "UNIT 1, 446 HAMPTON STREET HAMPTON 3188",
    "locID": "LOC000054349830",
    "tech": "HFC",
    "upgrade": "NULL_NA",
    "gnaf_pid": "GAVIC411497167"
   }
  },
  {
   "type": "Feature",
   "geometry": {
    "type": "Point",
    "coordinates": [
     144.99959328,
     -37.9380698
    ]
   },
   "properties": {
    "name": "45 ORLANDO STREET HAMPTON 3188",
    "locID": "LOC000067070046",
    "tech": "HFC",
    "upgrade": "NULL_NA",
    "gnaf_pid": "GAVIC411497169"
   }
  },
  {
   "type": "Feature",
   "geometry": {
    "type": "Point",
    "coordinates": [
     145.01019035,
     -37.93776225
    ]
   },
   "properties": {
    "name": "2A GARDEN STREET HAMPTON 3188",
    "locID": "LOC000062532726",
    "tech": "HFC",
    "upgrade": "NULL_NA",
    "gnaf_pid": "GAVIC411497174"
   }
  },
  {
   "type": "Feature",
   "geometry": {
    "type": "Point",
    "coordinates": [
     145.004051,
     -37.938406
    ]
   },
   "properties": {
    "name": "11B THOMAS STREET HAMPTON 3188",
    "locID": "ChIJu-NSHiBv1moRRD8VC-uk1GQ",
    "tech": "HFC",
    "upgrade": "UNKNOWN",
    "gnaf_pid": "GAVIC411497178"
   }
  },
  {
   "type": "Feature",
   "geometry": {
    "type": "Point",
    "coordinates": [
     145.016573,
     -37.93372
    ]
   },
   "properties": {
    "name": "33A EARLSFIELD ROAD HAMPTON 3188",
    "locID": "ChIJBxoGVMVu1moRw5aKDLv_dkk",
    "tech": "HFC",
    "upgrade": "UNKNOWN",
    "gnaf_pid": "GAVIC411497219"
   }
  },
  {
   "type": "Feature",
   "geometry": {
    "type": "Point",
    "coordinates": [
     145.0014457,
     -37.935784
    ]
   },
   "properties": {
    "name": "UNIT 2, 38 GRENVILLE STREET HAMPTON 3188",
    "locID": "LOC000092864299",
    "tech": "HFC",
    "upgrade": "NULL_NA",
    "gnaf_pid": "GAVIC411497241"
   }
  },
  {
   "type": "Feature",
   "geometry": {
    "type": "Point",
    "coordinates": [
     145.02340675,
     -37.93313186
    ]
   },
   "properties": {
    "name": "UNIT 12, 13 KENDALL STREET HAMPTON 3188",
    "locID": "LOC000036669007",
    "tech": "HFC",
    "upgrade": "NULL_NA",
    "gnaf_pid": "GAVIC411497988"
   }
  },
  {
   "type": "Feature",
   "geometry": {
    "type": "Point",
    "coordinates": [
     145.01481508,
     -37.94558331
    ]
   },
   "properties": {
    "name": "34A HIGHETT ROAD HAMPTON 3188",
    "locID": "ChIJw4NpQOZu1moRtNy9hC-OvGg",
    "tech": "HFC",
    "upgrade": "UNKNOWN",
    "gnaf_pid": "GAVIC411498008"
   }
  },
  {
   "type": "Feature",
   "geometry": {
    "type": "Point",
    "coordinates": [
     145.02426,
     -37.936467
    ]
   },
   "properties": {
    "name": "UNIT 1, 518 BLUFF ROAD HAMPTON 3188",
    "locID": "LOC000091398493",
    "tech": "HFC",
    "upgrade": "NULL_NA",
    "gnaf_pid": "GAVIC411498727"
   }
  },
  {
   "type": "Feature",
   "geometry": {
    "type": "Point",
    "coordinates": [
     145.02426,
     -37.936467
    ]
   },
   "properties": {
    "name": "UNIT 6, 518 BLUFF ROAD HAMPTON 3188",
    "locID": "LOC000091392849",
    "tech": "HFC",
    "upgrade": "NULL_NA",
    "gnaf_pid": "GAVIC411498734"
   }
  },
  {
   "type": "Feature",
   "geometry": {
    "type": "Point",
    "coordinates": [
     145.01787366,
     -37.93295824
    ]
   },
   "properties": {
    "name": "17A IVY STREET HAMPTON 3188",
    "locID": "LOC000043506265",
    "tech": "HFC",
    "upgrade": "NULL_NA",
    "gnaf_pid": "GAVIC411500373"
   }
  },
  {
   "type": "Feature",
   "geometry": {
    "type": "Point",
    "coordinates": [
     145.01945575,
     -37.93264734
    ]
   },
   "properties": {
    "name": "12A BARNETT STREET HAMPTON 3188",
    "locID": "LOC000051200986",
    "tech": "HFC",
    "upgrade": "NULL_NA",
    "gnaf_pid": "GAVIC411500375"
   }
  },
  {
   "type": "Feature",
   "geometry": {
    "type": "Point",
    "coordinates": [
     145.01385193,
     -37.93150687
    ]
   },
   "properties": {
    "name": "6A KINGSTON STREET HAMPTON 3188",
    "locID": "LOC000049173219",
    "tech": "HFC",
    "upgrade": "NULL_NA",
    "gnaf_pid": "GAVIC411500380"
   }
  },
  {
   "type": "Feature",
   "geometry": {
    "type": "Point",
    "coordinates": [
     145.018074,
     -37.93377
    ]
   },
   "properties": {
    "name": "28 IVY STREET HAMPTON 3188",
    "locID": "LOC000089764452",
    "tech": "HFC",
    "upgrade": "NULL_NA",
    "gnaf_pid": "GAVIC411500382"
   }
  },
  {
   "type": "Feature",
   "geometry": {
    "type": "Point",
    "coordinates": [
     145.01689548,
     -37.93765717
    ]
   },
   "properties": {
    "name": "3A OZONE STREET HAMPTON 3188",
    "locID": "LOC000082550175",
    "tech": "HFC",
    "upgrade": "NULL_NA",
    "gnaf_pid": "GAVIC411500386"
   }
  },
  {
   "type": "Feature",
   "geometry": {
    "type": "Point",
    "coordinates": [
     145.02114885,
     -37.93578926
    ]
   },
   "properties": {
    "name": "UNIT 2, 57 TEDDINGTON ROAD HAMPTON 3188",
    "locID": "LOC000061792610",
    "tech": "HFC",
    "upgrade": "NULL_NA",
    "gnaf_pid": "GAVIC411500387"
   }
  },
  {
   "type": "Feature",
   "geometry": {
    "type": "Point",
    "coordinates": [
     145.01687308,
     -37.93400945
    ]
   },
   "properties": {
    "name": "38 EARLSFIELD ROAD HAMPTON 3188",
    "locID": "LOC000123925172",
    "tech": "HFC",
    "upgrade": "NULL_NA",
    "gnaf_pid": "GAVIC411500389"
   }
  },
  {
   "type": "Feature",
   "geometry": {
    "type": "Point",
    "coordinates": [
     145.024079,
     -37.935232
    ]
   },
   "properties": {
    "name": "481 BLUFF ROAD HAMPTON 3188",
    "locID": "LOC000017614955",
    "tech": "HFC",
    "upgrade": "NULL_NA",
    "gnaf_pid": "GAVIC411500397"
   }
  },
  {
   "type": "Feature",
   "geometry": {
    "type": "Point",
    "coordinates": [
     145.015,
     -37.931641
    ]
   },
   "properties": {
    "name": "8 PRINCE STREET HAMPTON 3188",
    "locID": "LOC000048797662",
    "tech": "HFC",
    "upgrade": "NULL_NA",
    "gnaf_pid": "GAVIC411500400"
   }
  },
  {
   "type": "Feature",
   "geometry": {
    "type": "Point",
    "coordinates": [
     145.01942113,
     -37.9343948
    ]
   },
   "properties": {
    "name": "UNIT 2, 34 BARNETT STREET HAMPTON 3188",
    "locID": "LOC000040989732",
    "tech": "HFC",
    "upgrade": "NULL_NA",
    "gnaf_pid": "GAVIC411500401"
   }
  },
  {
   "type": "Feature",
   "geometry": {
    "type": "Point",
    "coordinates": [
     145.01947589,
     -37.93756714
    ]
   },
   "properties": {
    "name": "2 WALKER AVENUE HAMPTON 3188",
    "locID": "LOC000071059316",
    "tech": "HFC",
    "upgrade": "NULL_NA",
    "gnaf_pid": "GAVIC411500404"
   }
  },
  {
   "type": "Feature",
   "geometry": {
    "type": "Point",
    "coordinates": [
     145.002605,
     -37.938012
    ]
   },
   "properties": {
    "name": "414A HAMPTON STREET HAMPTON 3188",
    "locID": "LOC000092924535",
    "tech": "HFC",
    "upgrade": "NULL_NA",
    "gnaf_pid": "GAVIC411500845"
   }
  },
  {
   "type": "Feature",
   "geometry": {
    "type": "Point",
    "coordinates": [
     145.00629304,
     -37.93352179
    ]
   },
   "properties": {
    "name": "20 LUDSTONE STREET HAMPTON 3188",
    "locID": "LOC000042068660",
    "tech": "HFC",
    "upgrade": "NULL_NA",
    "gnaf_pid": "GAVIC411500901"
   }
  },
  {
   "type": "Feature",
   "geometry": {
    "type": "Point",
    "coordinates": [
     145.00615395,
     -37.93778455
    ]
   },
   "properties": {
    "name": "UNIT 2, 11 FOAM STREET HAMPTON 3188",
    "locID": "LOC000080557041",
    "tech": "HFC",
    "upgrade": "NULL_NA",
    "gnaf_pid": "GAVIC411500909"
   }
  },
  {
   "type": "Feature",
   "geometry": {
    "type": "Point",
    "coordinates": [
     145.00634981,
     -37.93319388
    ]
   },
   "properties": {
    "name": "UNIT 7, 19 LUDSTONE STREET HAMPTON 3188",
    "locID": "LOC000092665295",
    "tech": "HFC",
    "upgrade": "NULL_NA",
    "gnaf_pid": "GAVIC411501717"
   }
  },
  {
   "type": "Feature",
   "geometry": {
    "type": "Point",
    "coordinates": [
     145.00634981,
     -37.93319388
    ]
   },
   "properties": {
    "name": "UNIT 2, 31 LUDSTONE STREET HAMPTON 3188",
    "locID": "LOC000033465246",
    "tech": "HFC",
    "upgrade": "NULL_NA",
    "gnaf_pid": "GAVIC411501729"
   }
  },
  {
   "type": "Feature",
   "geometry": {
    "type": "Point",
    "coordinates": [
     145.02210429,
     -37.94398064
    ]
   },
   "properties": {
    "name": "UNIT 2, 377 BLUFF ROAD HAMPTON 3188",
    "locID": "LOC000083194753",
    "tech": "HFC",
    "upgrade": "NULL_NA",
    "gnaf_pid": "GAVIC411501732"
   }
  },
  {
   "type": "Feature",
   "geometry": {
    "type": "Point",
    "coordinates": [
     145.01386221,
     -37.93408441
    ]
   },
   "properties": {
    "name": "UNIT 4, 91 LUDSTONE STREET HAMPTON 3188",
    "locID": "LOC000036883677",
    "tech": "HFC",
    "upgrade": "NULL_NA",
    "gnaf_pid": "GAVIC411501746"
   }
  },
  {
   "type": "Feature",
   "geometry": {
    "type": "Point",
    "coordinates": [
     145.02175756,
     -37.94650235
    ]
   },
   "properties": {
    "name": "UNIT 4, 100 HIGHETT ROAD HAMPTON 3188",
    "locID": "LOC000061031771",
    "tech": "HFC",
    "upgrade": "NULL_NA",
    "gnaf_pid": "GAVIC411501785"
   }
  },
  {
   "type": "Feature",
   "geometry": {
    "type": "Point",
    "coordinates": [
     145.01193013,
     -37.9414633
    ]
   },
   "properties": {
    "name": "2 MYRTLE ROAD HAMPTON 3188",
    "locID": "LOC000123974809",
    "tech": "HFC",
    "upgrade": "NULL_NA",
    "gnaf_pid": "GAVIC411501786"
   }
  },
  {
   "type": "Feature",
   "geometry": {
    "type": "Point",
    "coordinates": [
     145.01622295,
     -37.9424665
    ]
   },
   "properties": {
    "name": "2A NICOL STREET HAMPTON 3188",
    "locID": "LOC000095553138",
    "tech": "HFC",
    "upgrade": "NULL_NA",
    "gnaf_pid": "GAVIC411501787"
   }
  },
  {
   "type": "Feature",
   "geometry": {
    "type": "Point",
    "coordinates": [
     145.00727209,
     -37.94527095
    ]
   },
   "properties": {
    "name": "30A BRIDGE STREET HAMPTON 3188",
    "locID": "LOC000083479815",
    "tech": "HFC",
    "upgrade": "NULL_NA",
    "gnaf_pid": "GAVIC411501788"
   }
  },
  {
   "type": "Feature",
   "geometry": {
    "type": "Point",
    "coordinates": [
     145.02129816,
     -37.9464313
    ]
   },
   "properties": {
    "name": "UNIT 7, 98 HIGHETT ROAD HAMPTON 3188",
    "locID": "LOC000060505550",
    "tech": "HFC",
    "upgrade": "NULL_NA",
    "gnaf_pid": "GAVIC411501789"
   }
  },
  {
   "type": "Feature",
   "geometry": {
    "type": "Point",
    "coordinates": [
     145.02129816,
     -37.9464313
    ]
   },
   "properties": {
    "name": "UNIT 10, 98 HIGHETT ROAD HAMPTON 3188",
    "locID": "LOC000060349109",
    "tech": "HFC",
    "upgrade": "NULL_NA",
    "gnaf_pid": "GAVIC411501791"
   }
  },
  {
   "type": "Feature",
   "geometry": {
    "type": "Point",
    "coordinates": [
     145.02065638,
     -37.94640272
    ]
   },
   "properties": {
    "name": "UNIT 8, 96 HIGHETT ROAD HAMPTON 3188",
    "locID": "LOC000048894748",
    "tech": "HFC",
    "upgrade": "NULL_NA",
    "gnaf_pid": "GAVIC411501792"
   }
  },
  {
   "type": "Feature",
   "geometry": {
    "type": "Point",
    "coordinates": [
     145.0217699,
     -37.94646651
    ]
   },
   "properties": {
    "name": "UNIT 1, 100 HIGHETT ROAD HAMPTON 3188",
    "locID": "LOC000060403375",
    "tech": "HFC",
    "upgrade": "NULL_NA",
    "gnaf_pid": "GAVIC411501793"
   }
  },
  {
   "type": "Feature",
   "geometry": {
    "type": "Point",
    "coordinates": [
     145.02295035,
     -37.94116239
    ]
   },
   "properties": {
    "name": "413A BLUFF ROAD HAMPTON 3188",
    "locID": "LOC000008890249",
    "tech": "HFC",
    "upgrade": "NULL_NA",
    "gnaf_pid": "GAVIC411501799"
   }
  },
  {
   "type": "Feature",
   "geometry": {
    "type": "Point",
    "coordinates": [
     145.0118274,
     -37.93963335
    ]
   },
   "properties": {
    "name": "UNIT 2, 96 THOMAS STREET HAMPTON 3188",
    "locID": "LOC000072830744",
    "tech": "HFC",
    "upgrade": "NULL_NA",
    "gnaf_pid": "GAVIC411501806"
   }
  },
  {
   "type": "Feature",
   "geometry": {
    "type": "Point",
    "coordinates": [
     145.014981,
     -37.93139
    ]
   },
   "properties": {
    "name": "4 PRINCE STREET HAMPTON 3188",
    "locID": "LOC000033044251",
    "tech": "HFC",
    "upgrade": "NULL_NA",
    "gnaf_pid": "GAVIC411502373"
   }
  },
  {
   "type": "Feature",
   "geometry": {
    "type": "Point",
    "coordinates": [
     145.013759,
     -37.932118
    ]
   },
   "properties": {
    "name": "16 KINGSTON STREET HAMPTON 3188",
    "locID": "LOC000102123120",
    "tech": "HFC",
    "upgrade": "NULL_NA",
    "gnaf_pid": "GAVIC411502376"
   }
  },
  {
   "type": "Feature",
   "geometry": {
    "type": "Point",
    "coordinates": [
     145.018417,
     -37.93205
    ]
   },
   "properties": {
    "name": "6A IVY STREET HAMPTON 3188",
    "locID": "LOC000022915768",
    "tech": "HFC",
    "upgrade": "NULL_NA",
    "gnaf_pid": "GAVIC411502379"
   }
  },
  {
   "type": "Feature",
   "geometry": {
    "type": "Point",
    "coordinates": [
     145.02419609,
     -37.93680826
    ]
   },
   "properties": {
    "name": "514 BLUFF ROAD HAMPTON 3188",
    "locID": "LOC000106587635",
    "tech": "FTTP",
    "upgrade": "NULL_NA",
    "gnaf_pid": "GAVIC411502481"
   }
  },
  {
   "type": "Feature",
   "geometry": {
    "type": "Point",
    "coordinates": [
     145.02426,
     -37.936467
    ]
   },
   "properties": {
    "name": "UNIT 2, 518 BLUFF ROAD HAMPTON 3188",
    "locID": "LOC000091493454",
    "tech": "HFC",
    "upgrade": "NULL_NA",
    "gnaf_pid": "GAVIC411502482"
   }
  },
  {
   "type": "Feature",
   "geometry": {
    "type": "Point",
    "coordinates": [
     145.02426,
     -37.936467
    ]
   },
   "properties": {
    "name": "UNIT 3, 518 BLUFF ROAD HAMPTON 3188",
    "locID": "LOC000091583797",
    "tech": "HFC",
    "upgrade": "NULL_NA",
    "gnaf_pid": "GAVIC411502486"
   }
  },
  {
   "type": "Feature",
   "geometry": {
    "type": "Point",
    "coordinates": [
     145.01784315,
     -37.9442748
    ]
   },
   "properties": {
    "name": "2A FIELD STREET HAMPTON 3188",
    "locID": "LOC000094058255",
    "tech": "HFC",
    "upgrade": "NULL_NA",
    "gnaf_pid": "GAVIC411502578"
   }
  },
  {
   "type": "Feature",
   "geometry": {
    "type": "Point",
    "coordinates": [
     145.00006612,
     -37.93952547
    ]
   },
   "properties": {
    "name": "UNIT 18, 56 BEACH ROAD HAMPTON 3188",
    "locID": "LOC000087615516",
    "tech": "HFC",
    "upgrade": "NULL_NA",
    "gnaf_pid": "GAVIC411502580"
   }
  },
  {
   "type": "Feature",
   "geometry": {
    "type": "Point",
    "coordinates": [
     145.0123967,
     -37.94317773
    ]
   },
   "properties": {
    "name": "8B BANKS AVENUE HAMPTON 3188",
    "locID": "ChIJy63qGedu1moRuXWZla2kPVA",
    "tech": "HFC",
    "upgrade": "UNKNOWN",
    "gnaf_pid": "GAVIC411502581"
   }
  },
  {
   "type": "Feature",
   "geometry": {
    "type": "Point",
    "coordinates": [
     145.00972374,
     -37.94402409
    ]
   },
   "properties": {
    "name": "7A KANOWNA STREET HAMPTON 3188",
    "locID": "ChIJK7fKQOFu1moRpPo3G9SC_wc",
    "tech": "HFC",
    "upgrade": "UNKNOWN",
    "gnaf_pid": "GAVIC411502582"
   }
  },
  {
   "type": "Feature",
   "geometry": {
    "type": "Point",
    "coordinates": [
     145.00006612,
     -37.93952547
    ]
   },
   "properties": {
    "name": "UNIT 16, 56 BEACH ROAD HAMPTON 3188",
    "locID": "LOC000088804511",
    "tech": "HFC",
    "upgrade": "NULL_NA",
    "gnaf_pid": "GAVIC411502583"
   }
  },
  {
   "type": "Feature",
   "geometry": {
    "type": "Point",
    "coordinates": [
     145.013779,
     -37.932013
    ]
   },
   "properties": {
    "name": "14 KINGSTON STREET HAMPTON 3188",
    "locID": "LOC000048094570",
    "tech": "HFC",
    "upgrade": "NULL_NA",
    "gnaf_pid": "GAVIC411503280"
   }
  },
  {
   "type": "Feature",
   "geometry": {
    "type": "Point",
    "coordinates": [
     144.99904899,
     -37.93353121
    ]
   },
   "properties": {
    "name": "UNIT 12A, 38 HOLYROOD STREET HAMPTON 3188",
    "locID": "LOC000080187038",
    "tech": "HFC",
    "upgrade": "NULL_NA",
    "gnaf_pid": "GAVIC411505356"
   }
  },
  {
   "type": "Feature",
   "geometry": {
    "type": "Point",
    "coordinates": [
     145.00006612,
     -37.93952547
    ]
   },
   "properties": {
    "name": "UNIT 17, 56 BEACH ROAD HAMPTON 3188",
    "locID": "LOC000087642464",
    "tech": "HFC",
    "upgrade": "NULL_NA",
    "gnaf_pid": "GAVIC411505360"
   }
  },
  {
   "type": "Feature",
   "geometry": {
    "type": "Point",
    "coordinates": [
     145.0063476,
     -37.94223753
    ]
   },
   "properties": {
    "name": "UNIT 1, 41 LINACRE ROAD HAMPTON 3188",
    "locID": "LOC000016077334",
    "tech": "HFC",
    "upgrade": "NULL_NA",
    "gnaf_pid": "GAVIC411505367"
   }
  },
  {
   "type": "Feature",
   "geometry": {
    "type": "Point",
    "coordinates": [
     145.023741,
     -37.939063
    ]
   },
   "properties": {
    "name": "UNIT 1, 488 BLUFF ROAD HAMPTON 3188",
    "locID": "LOC000051041991",
    "tech": "HFC",
    "upgrade": "NULL_NA",
    "gnaf_pid": "GAVIC411506296"
   }
  },
  {
   "type": "Feature",
   "geometry": {
    "type": "Point",
    "coordinates": [
     145.0245133,
     -37.93513466
    ]
   },
   "properties": {
    "name": "538 BLUFF ROAD HAMPTON 3188",
    "locID": "LOC000035189444",
    "tech": "HFC",
    "upgrade": "NULL_NA",
    "gnaf_pid": "GAVIC411506304"
   }
  },
  {
   "type": "Feature",
   "geometry": {
    "type": "Point",
    "coordinates": [
     145.003422,
     -37.931375
    ]
   },
   "properties": {
    "name": "531 HAMPTON STREET HAMPTON 3188",
    "locID": "LOC000079862292",
    "tech": "HFC",
    "upgrade": "NULL_NA",
    "gnaf_pid": "GAVIC411506309"
   }
  },
  {
   "type": "Feature",
   "geometry": {
    "type": "Point",
    "coordinates": [
     145.0005176,
     -37.93612031
    ]
   },
   "properties": {
    "name": "17 WILLIS STREET HAMPTON 3188",
    "locID": "LOC000062150548",
    "tech": "HFC",
    "upgrade": "NULL_NA",
    "gnaf_pid": "GAVIC411506310"
   }
  },
  {
   "type": "Feature",
   "geometry": {
    "type": "Point",
    "coordinates": [
     145.02432,
     -37.936125
    ]
   },
   "properties": {
    "name": "524A BLUFF ROAD HAMPTON 3188",
    "locID": "LOC000006244678",
    "tech": "HFC",
    "upgrade": "NULL_NA",
    "gnaf_pid": "GAVIC411506333"
   }
  },
  {
   "type": "Feature",
   "geometry": {
    "type": "Point",
    "coordinates": [
     145.02426,
     -37.936467
    ]
   },
   "properties": {
    "name": "UNIT 8, 518 BLUFF ROAD HAMPTON 3188",
    "locID": "LOC000091463834",
    "tech": "HFC",
    "upgrade": "NULL_NA",
    "gnaf_pid": "GAVIC411506335"
   }
  },
  {
   "type": "Feature",
   "geometry": {
    "type": "Point",
    "coordinates": [
     145.023741,
     -37.939063
    ]
   },
   "properties": {
    "name": "UNIT 2, 488 BLUFF ROAD HAMPTON 3188",
    "locID": "LOC000050864767",
    "tech": "HFC",
    "upgrade": "NULL_NA",
    "gnaf_pid": "GAVIC411506339"
   }
  },
  {
   "type": "Feature",
   "geometry": {
    "type": "Point",
    "coordinates": [
     145.02480994,
     -37.93386769
    ]
   },
   "properties": {
    "name": "552 BLUFF ROAD HAMPTON 3188",
    "locID": "LOC000065537989",
    "tech": "HFC",
    "upgrade": "NULL_NA",
    "gnaf_pid": "GAVIC411506341"
   }
  },
  {
   "type": "Feature",
   "geometry": {
    "type": "Point",
    "coordinates": [
     145.01862321,
     -37.93887499
    ]
   },
   "properties": {
    "name": "UNIT 3, 46 FEWSTER ROAD HAMPTON 3188",
    "locID": "LOC000046914343",
    "tech": "HFC",
    "upgrade": "NULL_NA",
    "gnaf_pid": "GAVIC411506357"
   }
  },
  {
   "type": "Feature",
   "geometry": {
    "type": "Point",
    "coordinates": [
     145.01980251,
     -37.93897766
    ]
   },
   "properties": {
    "name": "58 FEWSTER ROAD HAMPTON 3188",
    "locID": "LOC000123940975",
    "tech": "HFC",
    "upgrade": "NULL_NA",
    "gnaf_pid": "GAVIC411506360"
   }
  },
  {
   "type": "Feature",
   "geometry": {
    "type": "Point",
    "coordinates": [
     145.019398,
     -37.932997
    ]
   },
   "properties": {
    "name": "16A BARNETT STREET HAMPTON 3188",
    "locID": "LOC000089985563",
    "tech": "HFC",
    "upgrade": "NULL_NA",
    "gnaf_pid": "GAVIC411506831"
   }
  },
  {
   "type": "Feature",
   "geometry": {
    "type": "Point",
    "coordinates": [
     145.01386221,
     -37.93408441
    ]
   },
   "properties": {
    "name": "UNIT 1, 89 LUDSTONE STREET HAMPTON 3188",
    "locID": "LOC000029265459",
    "tech": "HFC",
    "upgrade": "NULL_NA",
    "gnaf_pid": "GAVIC411506836"
   }
  },
  {
   "type": "Feature",
   "geometry": {
    "type": "Point",
    "coordinates": [
     145.017869,
     -37.931734
    ]
   },
   "properties": {
    "name": "3A IVY STREET HAMPTON 3188",
    "locID": "LOC000066108328",
    "tech": "HFC",
    "upgrade": "NULL_NA",
    "gnaf_pid": "GAVIC411506837"
   }
  },
  {
   "type": "Feature",
   "geometry": {
    "type": "Point",
    "coordinates": [
     145.013759,
     -37.932118
    ]
   },
   "properties": {
    "name": "16A KINGSTON STREET HAMPTON 3188",
    "locID": "LOC000103868886",
    "tech": "HFC",
    "upgrade": "NULL_NA",
    "gnaf_pid": "GAVIC411506838"
   }
  },
  {
   "type": "Feature",
   "geometry": {
    "type": "Point",
    "coordinates": [
     145.01608805,
     -37.9320972
    ]
   },
   "properties": {
    "name": "12 BATEMAN STREET HAMPTON 3188",
    "locID": "LOC000021977564",
    "tech": "HFC",
    "upgrade": "NULL_NA",
    "gnaf_pid": "GAVIC411506927"
   }
  },
  {
   "type": "Feature",
   "geometry": {
    "type": "Point",
    "coordinates": [
     145.01386221,
     -37.93408441
    ]
   },
   "properties": {
    "name": "UNIT 1, 91 LUDSTONE STREET HAMPTON 3188",
    "locID": "LOC000037114783",
    "tech": "HFC",
    "upgrade": "NULL_NA",
    "gnaf_pid": "GAVIC411506929"
   }
  },
  {
   "type": "Feature",
   "geometry": {
    "type": "Point",
    "coordinates": [
     145.01854935,
     -37.93929384
    ]
   },
   "properties": {
    "name": "UNIT 6, 46 FEWSTER ROAD HAMPTON 3188",
    "locID": "LOC000046629842",
    "tech": "HFC",
    "upgrade": "NULL_NA",
    "gnaf_pid": "GAVIC411507048"
   }
  },
  {
   "type": "Feature",
   "geometry": {
    "type": "Point",
    "coordinates": [
     145.01961686,
     -37.94151039
    ]
   },
   "properties": {
    "name": "6 THORBURN STREET HAMPTON 3188",
    "locID": "LOC000075763462",
    "tech": "HFC",
    "upgrade": "NULL_NA",
    "gnaf_pid": "GAVIC411507055"
   }
  },
  {
   "type": "Feature",
   "geometry": {
    "type": "Point",
    "coordinates": [
     145.02426,
     -37.936467
    ]
   },
   "properties": {
    "name": "UNIT 7, 518 BLUFF ROAD HAMPTON 3188",
    "locID": "LOC000091583797",
    "tech": "HFC",
    "upgrade": "NULL_NA",
    "gnaf_pid": "GAVIC411507543"
   }
  },
  {
   "type": "Feature",
   "geometry": {
    "type": "Point",
    "coordinates": [
     145.01821806,
     -37.93712273
    ]
   },
   "properties": {
    "name": "1A WEEROONA STREET HAMPTON 3188",
    "locID": "LOC000002752168",
    "tech": "HFC",
    "upgrade": "NULL_NA",
    "gnaf_pid": "GAVIC411507619"
   }
  },
  {
   "type": "Feature",
   "geometry": {
    "type": "Point",
    "coordinates": [
     145.01858394,
     -37.93775541
    ]
   },
   "properties": {
    "name": "UNIT 4, 5 WALKER AVENUE HAMPTON 3188",
    "locID": "LOC000040645813",
    "tech": "HFC",
    "upgrade": "NULL_NA",
    "gnaf_pid": "GAVIC411507620"
   }
  },
  {
   "type": "Feature",
   "geometry": {
    "type": "Point",
    "coordinates": [
     145.02256216,
     -37.93517554
    ]
   },
   "properties": {
    "name": "185A LUDSTONE STREET HAMPTON 3188",
    "locID": "LOC000060294831",
    "tech": "HFC",
    "upgrade": "NULL_NA",
    "gnaf_pid": "GAVIC411507621"
   }
  },
  {
   "type": "Feature",
   "geometry": {
    "type": "Point",
    "coordinates": [
     145.01642375,
     -37.93445205
    ]
   },
   "properties": {
    "name": "43A EARLSFIELD ROAD HAMPTON 3188",
    "locID": "ChIJowZttdpu1moRk_3ScqBIN9w",
    "tech": "HFC",
    "upgrade": "UNKNOWN",
    "gnaf_pid": "GAVIC411507726"
   }
  },
  {
   "type": "Feature",
   "geometry": {
    "type": "Point",
    "coordinates": [
     145.022812,
     -37.937095
    ]
   },
   "properties": {
    "name": "79B RAYNES PARK ROAD HAMPTON 3188",
    "locID": "ChIJmwC2bsZu1moRC4mqqBnbDsA",
    "tech": "HFC",
    "upgrade": "UNKNOWN",
    "gnaf_pid": "GAVIC411507818"
   }
  },
  {
   "type": "Feature",
   "geometry": {
    "type": "Point",
    "coordinates": [
     145.02355295,
     -37.93436939
    ]
   },
   "properties": {
    "name": "28 KENDALL STREET HAMPTON 3188",
    "locID": "LOC000104546673",
    "tech": "HFC",
    "upgrade": "NULL_NA",
    "gnaf_pid": "GAVIC411507825"
   }
  },
  {
   "type": "Feature",
   "geometry": {
    "type": "Point",
    "coordinates": [
     145.015386,
     -37.933866
    ]
   },
   "properties": {
    "name": "37 BATEMAN STREET HAMPTON 3188",
    "locID": "LOC000013521428",
    "tech": "HFC",
    "upgrade": "NULL_NA",
    "gnaf_pid": "GAVIC411507828"
   }
  },
  {
   "type": "Feature",
   "geometry": {
    "type": "Point",
    "coordinates": [
     145.01588347,
     -37.93715456
    ]
   },
   "properties": {
    "name": "67A EARLSFIELD ROAD HAMPTON 3188",
    "locID": "LOC000102672557",
    "tech": "HFC",
    "upgrade": "NULL_NA",
    "gnaf_pid": "GAVIC411507877"
   }
  },
  {
   "type": "Feature",
   "geometry": {
    "type": "Point",
    "coordinates": [
     145.013863,
     -37.93111559
    ]
   },
   "properties": {
    "name": "2A KINGSTON STREET HAMPTON 3188",
    "locID": "LOC000093971170",
    "tech": "HFC",
    "upgrade": "NULL_NA",
    "gnaf_pid": "GAVIC411507880"
   }
  },
  {
   "type": "Feature",
   "geometry": {
    "type": "Point",
    "coordinates": [
     145.02218225,
     -37.9326823
    ]
   },
   "properties": {
    "name": "20 FAULKNER STREET HAMPTON 3188",
    "locID": "LOC000103949430",
    "tech": "HFC",
    "upgrade": "NULL_NA",
    "gnaf_pid": "GAVIC411507881"
   }
  },
  {
   "type": "Feature",
   "geometry": {
    "type": "Point",
    "coordinates": [
     145.014273,
     -37.933624
    ]
   },
   "properties": {
    "name": "35B PRINCE STREET HAMPTON 3188",
    "locID": "ChIJlb9rktpu1moR1gtAhjaU8I0",
    "tech": "HFC",
    "upgrade": "UNKNOWN",
    "gnaf_pid": "GAVIC411507884"
   }
  },
  {
   "type": "Feature",
   "geometry": {
    "type": "Point",
    "coordinates": [
     145.0223316,
     -37.9362669
    ]
   },
   "properties": {
    "name": "71B TEDDINGTON ROAD HAMPTON 3188",
    "locID": "LOC000091393180",
    "tech": "HFC",
    "upgrade": "NULL_NA",
    "gnaf_pid": "GAVIC411508702"
   }
  },
  {
   "type": "Feature",
   "geometry": {
    "type": "Point",
    "coordinates": [
     145.01383702,
     -37.94545994
    ]
   },
   "properties": {
    "name": "UNIT 1, 26 HIGHETT ROAD HAMPTON 3188",
    "locID": "LOC000063770601",
    "tech": "HFC",
    "upgrade": "NULL_NA",
    "gnaf_pid": "GAVIC411509609"
   }
  },
  {
   "type": "Feature",
   "geometry": {
    "type": "Point",
    "coordinates": [
     145.01431478,
     -37.94551945
    ]
   },
   "properties": {
    "name": "30 HIGHETT ROAD HAMPTON 3188",
    "locID": "LOC000056571771",
    "tech": "HFC",
    "upgrade": "NULL_NA",
    "gnaf_pid": "GAVIC411509612"
   }
  },
  {
   "type": "Feature",
   "geometry": {
    "type": "Point",
    "coordinates": [
     145.00006612,
     -37.93952547
    ]
   },
   "properties": {
    "name": "UNIT 22, 56 BEACH ROAD HAMPTON 3188",
    "locID": "LOC000087727496",
    "tech": "HFC",
    "upgrade": "NULL_NA",
    "gnaf_pid": "GAVIC411509629"
   }
  },
  {
   "type": "Feature",
   "geometry": {
    "type": "Point",
    "coordinates": [
     145.016186,
     -37.944061
    ]
   },
   "properties": {
    "name": "112A LINACRE ROAD HAMPTON 3188",
    "locID": "LOC000123957455",
    "tech": "HFC",
    "upgrade": "NULL_NA",
    "gnaf_pid": "GAVIC411509635"
   }
  },
  {
   "type": "Feature",
   "geometry": {
    "type": "Point",
    "coordinates": [
     145.02094185,
     -37.94589255
    ]
   },
   "properties": {
    "name": "UNIT 4, 20 SWYER STREET HAMPTON 3188",
    "locID": "LOC000092970066",
    "tech": "HFC",
    "upgrade": "NULL_NA",
    "gnaf_pid": "GAVIC411509636"
   }
  },
  {
   "type": "Feature",
   "geometry": {
    "type": "Point",
    "coordinates": [
     145.02094185,
     -37.94589255
    ]
   },
   "properties": {
    "name": "UNIT 1, 20 SWYER STREET HAMPTON 3188",
    "locID": "LOC000093125929",
    "tech": "HFC",
    "upgrade": "NULL_NA",
    "gnaf_pid": "GAVIC411509640"
   }
  },
  {
   "type": "Feature",
   "geometry": {
    "type": "Point",
    "coordinates": [
     145.01812,
     -37.931759
    ]
   },
   "properties": {
    "name": "3 IVY STREET HAMPTON 3188",
    "locID": "LOC000066050762",
    "tech": "HFC",
    "upgrade": "NULL_NA",
    "gnaf_pid": "GAVIC411509789"
   }
  },
  {
   "type": "Feature",
   "geometry": {
    "type": "Point",
    "coordinates": [
     145.023375,
     -37.935286
    ]
   },
   "properties": {
    "name": "UNIT 2, 193 LUDSTONE STREET HAMPTON 3188",
    "locID": "LOC000068312135",
    "tech": "HFC",
    "upgrade": "NULL_NA",
    "gnaf_pid": "GAVIC411509792"
   }
  },
  {
   "type": "Feature",
   "geometry": {
    "type": "Point",
    "coordinates": [
     145.00843931,
     -37.94227266
    ]
   },
   "properties": {
    "name": "UNIT 4, 63 LINACRE ROAD HAMPTON 3188",
    "locID": "LOC000060671649",
    "tech": "HFC",
    "upgrade": "NULL_NA",
    "gnaf_pid": "GAVIC411509907"
   }
  },
  {
   "type": "Feature",
   "geometry": {
    "type": "Point",
    "coordinates": [
     145.0061852,
     -37.94195299
    ]
   },
   "properties": {
    "name": "UNIT 3, 41 LINACRE ROAD HAMPTON 3188",
    "locID": "LOC000016067821",
    "tech": "HFC",
    "upgrade": "NULL_NA",
    "gnaf_pid": "GAVIC411510476"
   }
  },
  {
   "type": "Feature",
   "geometry": {
    "type": "Point",
    "coordinates": [
     145.02115362,
     -37.93891417
    ]
   },
   "properties": {
    "name": "78 FEWSTER ROAD HAMPTON 3188",
    "locID": "LOC000151537091",
    "tech": "FTTP",
    "upgrade": "NULL_NA",
    "gnaf_pid": "GAVIC411510487"
   }
  },
  {
   "type": "Feature",
   "geometry": {
    "type": "Point",
    "coordinates": [
     145.02226472,
     -37.93921655
    ]
   },
   "properties": {
    "name": "92B FEWSTER ROAD HAMPTON 3188",
    "locID": "ChIJqUx7pMZu1moRyOkdelDIFMY",
    "tech": "HFC",
    "upgrade": "UNKNOWN",
    "gnaf_pid": "GAVIC411510491"
   }
  },
  {
   "type": "Feature",
   "geometry": {
    "type": "Point",
    "coordinates": [
     145.020143,
     -37.939302
    ]
   },
   "properties": {
    "name": "68 FEWSTER ROAD HAMPTON 3188",
    "locID": "LOC000004320108",
    "tech": "HFC",
    "upgrade": "NULL_NA",
    "gnaf_pid": "GAVIC411510500"
   }
  },
  {
   "type": "Feature",
   "geometry": {
    "type": "Point",
    "coordinates": [
     144.99962732,
     -37.9360164
    ]
   },
   "properties": {
    "name": "UNIT 1, 1 WILLIS STREET HAMPTON 3188",
    "locID": "LOC000185624771",
    "tech": "HFC",
    "upgrade": "NULL_NA",
    "gnaf_pid": "GAVIC411510511"
   }
  },
  {
   "type": "Feature",
   "geometry": {
    "type": "Point",
    "coordinates": [
     145.00634981,
     -37.93319388
    ]
   },
   "properties": {
    "name": "UNIT 8, 19 LUDSTONE STREET HAMPTON 3188",
    "locID": "LOC000092383734",
    "tech": "HFC",
    "upgrade": "NULL_NA",
    "gnaf_pid": "GAVIC411510518"
   }
  },
  {
   "type": "Feature",
   "geometry": {
    "type": "Point",
    "coordinates": [
     145.004051,
     -37.938406
    ]
   },
   "properties": {
    "name": "UNIT 1, 11 THOMAS STREET HAMPTON 3188",
    "locID": "LOC000085439417",
    "tech": "HFC",
    "upgrade": "NULL_NA",
    "gnaf_pid": "GAVIC411510521"
   }
  },
  {
   "type": "Feature",
   "geometry": {
    "type": "Point",
    "coordinates": [
     145.00612967,
     -37.93470174
    ]
   },
   "properties": {
    "name": "29 LITTLEWOOD STREET HAMPTON 3188",
    "locID": "LOC000123912942",
    "tech": "HFC",
    "upgrade": "NULL_NA",
    "gnaf_pid": "GAVIC411510522"
   }
  },
  {
   "type": "Feature",
   "geometry": {
    "type": "Point",
    "coordinates": [
     144.99991933,
     -37.93574601
    ]
   },
   "properties": {
    "name": "UNIT 4, 18 GRENVILLE STREET HAMPTON 3188",
    "locID": "LOC000018527139",
    "tech": "HFC",
    "upgrade": "NULL_NA",
    "gnaf_pid": "GAVIC411510526"
   }
  },
  {
   "type": "Feature",
   "geometry": {
    "type": "Point",
    "coordinates": [
     145.005948,
     -37.934208
    ]
   },
   "properties": {
    "name": "27 LITTLEWOOD STREET HAMPTON 3188",
    "locID": "LOC000180025715",
    "tech": "HFC",
    "upgrade": "NULL_NA",
    "gnaf_pid": "GAVIC411510527"
   }
  },
  {
   "type": "Feature",
   "geometry": {
    "type": "Point",
    "coordinates": [
     145.00006612,
     -37.93952547
    ]
   },
   "properties": {
    "name": "UNIT 23, 56 BEACH ROAD HAMPTON 3188",
    "locID": "LOC000088501046",
    "tech": "HFC",
    "upgrade": "NULL_NA",
    "gnaf_pid": "GAVIC411510562"
   }
  },
  {
   "type": "Feature",
   "geometry": {
    "type": "Point",
    "coordinates": [
     145.00006612,
     -37.93952547
    ]
   },
   "properties": {
    "name": "UNIT 14, 56 BEACH ROAD HAMPTON 3188",
    "locID": "LOC000088610514",
    "tech": "HFC",
    "upgrade": "NULL_NA",
    "gnaf_pid": "GAVIC411510567"
   }
  },
  {
   "type": "Feature",
   "geometry": {
    "type": "Point",
    "coordinates": [
     145.00006612,
     -37.93952547
    ]
   },
   "properties": {
    "name": "UNIT 1, 56 BEACH ROAD HAMPTON 3188",
    "locID": "LOC000087801417",
    "tech": "HFC",
    "upgrade": "NULL_NA",
    "gnaf_pid": "GAVIC411510569"
   }
  },
  {
   "type": "Feature",
   "geometry": {
    "type": "Point",
    "coordinates": [
     145.00006612,
     -37.93952547
    ]
   },
   "properties": {
    "name": "UNIT 5, 56 BEACH ROAD HAMPTON 3188",
    "locID": "LOC000087658092",
    "tech": "HFC",
    "upgrade": "NULL_NA",
    "gnaf_pid": "GAVIC411510575"
   }
  },
  {
   "type": "Feature",
   "geometry": {
    "type": "Point",
    "coordinates": [
     145.00844071,
     -37.94246301
    ]
   },
   "properties": {
    "name": "UNIT 5, 63 LINACRE ROAD HAMPTON 3188",
    "locID": "LOC000060534626",
    "tech": "HFC",
    "upgrade": "NULL_NA",
    "gnaf_pid": "GAVIC411510586"
   }
  },
  {
   "type": "Feature",
   "geometry": {
    "type": "Point",
    "coordinates": [
     145.00814735,
     -37.9426256
    ]
   },
   "properties": {
    "name": "UNIT 1, 63 LINACRE ROAD HAMPTON 3188",
    "locID": "LOC000061399252",
    "tech": "HFC",
    "upgrade": "NULL_NA",
    "gnaf_pid": "GAVIC411510587"
   }
  },
  {
   "type": "Feature",
   "geometry": {
    "type": "Point",
    "coordinates": [
     145.01529359,
     -37.94426275
    ]
   },
   "properties": {
    "name": "6 AUSTIN ROAD HAMPTON 3188",
    "locID": "LOC000123941042",
    "tech": "HFC",
    "upgrade": "NULL_NA",
    "gnaf_pid": "GAVIC411510588"
   }
  },
  {
   "type": "Feature",
   "geometry": {
    "type": "Point",
    "coordinates": [
     145.01189832,
     -37.94282005
    ]
   },
   "properties": {
    "name": "91A LINACRE ROAD HAMPTON 3188",
    "locID": "LOC000123949352",
    "tech": "HFC",
    "upgrade": "NULL_NA",
    "gnaf_pid": "GAVIC411510589"
   }
  },
  {
   "type": "Feature",
   "geometry": {
    "type": "Point",
    "coordinates": [
     145.00882143,
     -37.93926623
    ]
   },
   "properties": {
    "name": "66 THOMAS STREET HAMPTON 3188",
    "locID": "LOC000083458046",
    "tech": "HFC",
    "upgrade": "NULL_NA",
    "gnaf_pid": "GAVIC411510591"
   }
  },
  {
   "type": "Feature",
   "geometry": {
    "type": "Point",
    "coordinates": [
     145.02005626,
     -37.94598655
    ]
   },
   "properties": {
    "name": "UNIT 1, 83 HIGHETT ROAD HAMPTON 3188",
    "locID": "LOC000049941950",
    "tech": "HFC",
    "upgrade": "NULL_NA",
    "gnaf_pid": "GAVIC411510595"
   }
  },
  {
   "type": "Feature",
   "geometry": {
    "type": "Point",
    "coordinates": [
     145.01717,
     -37.9431
    ]
   },
   "properties": {
    "name": "UNIT 2, 54 DAVID STREET HAMPTON 3188",
    "locID": "LOC000091690517",
    "tech": "HFC",
    "upgrade": "NULL_NA",
    "gnaf_pid": "GAVIC411510596"
   }
  },
  {
   "type": "Feature",
   "geometry": {
    "type": "Point",
    "coordinates": [
     145.01660624,
     -37.94425621
    ]
   },
   "properties": {
    "name": "1A BRAND STREET HAMPTON 3188",
    "locID": "LOC000081029632",
    "tech": "HFC",
    "upgrade": "NULL_NA",
    "gnaf_pid": "GAVIC411510597"
   }
  },
  {
   "type": "Feature",
   "geometry": {
    "type": "Point",
    "coordinates": [
     145.0114143,
     -37.94336737
    ]
   },
   "properties": {
    "name": "88A LINACRE ROAD HAMPTON 3188",
    "locID": "LOC000174988342",
    "tech": "FTTP",
    "upgrade": "NULL_NA",
    "gnaf_pid": "GAVIC411510599"
   }
  },
  {
   "type": "Feature",
   "geometry": {
    "type": "Point",
    "coordinates": [
     144.99993787,
     -37.93987736
    ]
   },
   "properties": {
    "name": "56F BEACH ROAD HAMPTON 3188",
    "locID": "LOC000087619773",
    "tech": "HFC",
    "upgrade": "NULL_NA",
    "gnaf_pid": "GAVIC411510600"
   }
  },
  {
   "type": "Feature",
   "geometry": {
    "type": "Point",
    "coordinates": [
     145.00130695,
     -37.93957418
    ]
   },
   "properties": {
    "name": "UNIT 1, 10 SMALL STREET HAMPTON 3188",
    "locID": "LOC000023000068",
    "tech": "HFC",
    "upgrade": "NULL_NA",
    "gnaf_pid": "GAVIC411510602"
   }
  },
  {
   "type": "Feature",
   "geometry": {
    "type": "Point",
    "coordinates": [
     145.019309,
     -37.942259
    ]
   },
   "properties": {
    "name": "UNIT 2, 9 JAMES CRESCENT HAMPTON 3188",
    "locID": "LOC000040294045",
    "tech": "HFC",
    "upgrade": "NULL_NA",
    "gnaf_pid": "GAVIC411510632"
   }
  },
  {
   "type": "Feature",
   "geometry": {
    "type": "Point",
    "coordinates": [
     145.00634981,
     -37.93319388
    ]
   },
   "properties": {
    "name": "UNIT 6, 19 LUDSTONE STREET HAMPTON 3188",
    "locID": "LOC000092639070",
    "tech": "HFC",
    "upgrade": "NULL_NA",
    "gnaf_pid": "GAVIC411514232"
   }
  },
  {
   "type": "Feature",
   "geometry": {
    "type": "Point",
    "coordinates": [
     145.004238,
     -37.941605
    ]
   },
   "properties": {
    "name": "1A DEAKIN STREET SOUTH HAMPTON 3188",
    "locID": "ChIJOydTOR5v1moRq6o5jDN8njU",
    "tech": "NULL",
    "upgrade": "UNKNOWN",
    "gnaf_pid": "GAVIC411514258"
   }
  },
  {
   "type": "Feature",
   "geometry": {
    "type": "Point",
    "coordinates": [
     145.00720901,
     -37.94222263
    ]
   },
   "properties": {
    "name": "1A GILLIES STREET HAMPTON 3188",
    "locID": "LOC000091657978",
    "tech": "HFC",
    "upgrade": "NULL_NA",
    "gnaf_pid": "GAVIC411514265"
   }
  },
  {
   "type": "Feature",
   "geometry": {
    "type": "Point",
    "coordinates": [
     145.0020545,
     -37.94108266
    ]
   },
   "properties": {
    "name": "346A HAMPTON STREET HAMPTON 3188",
    "locID": "LOC000079527903",
    "tech": "HFC",
    "upgrade": "NULL_NA",
    "gnaf_pid": "GAVIC411514272"
   }
  },
  {
   "type": "Feature",
   "geometry": {
    "type": "Point",
    "coordinates": [
     145.01345411,
     -37.94541373
    ]
   },
   "properties": {
    "name": "24B HIGHETT ROAD HAMPTON 3188",
    "locID": "LOC000045627296",
    "tech": "HFC",
    "upgrade": "NULL_NA",
    "gnaf_pid": "GAVIC411514306"
   }
  },
  {
   "type": "Feature",
   "geometry": {
    "type": "Point",
    "coordinates": [
     145.00334839,
     -37.93185876
    ]
   },
   "properties": {
    "name": "519A HAMPTON STREET HAMPTON 3188",
    "locID": "ChIJ_S0CECdv1moRq8oyvDbSVAc",
    "tech": "HFC",
    "upgrade": "UNKNOWN",
    "gnaf_pid": "GAVIC411515004"
   }
  },
  {
   "type": "Feature",
   "geometry": {
    "type": "Point",
    "coordinates": [
     145.0003736,
     -37.93610731
    ]
   },
   "properties": {
    "name": "15 WILLIS STREET HAMPTON 3188",
    "locID": "LOC000046284430",
    "tech": "HFC",
    "upgrade": "NULL_NA",
    "gnaf_pid": "GAVIC411515008"
   }
  },
  {
   "type": "Feature",
   "geometry": {
    "type": "Point",
    "coordinates": [
     145.01864125,
     -37.93877479
    ]
   },
   "properties": {
    "name": "UNIT 2, 46 FEWSTER ROAD HAMPTON 3188",
    "locID": "LOC000046838971",
    "tech": "HFC",
    "upgrade": "NULL_NA",
    "gnaf_pid": "GAVIC411515013"
   }
  },
  {
   "type": "Feature",
   "geometry": {
    "type": "Point",
    "coordinates": [
     145.00634981,
     -37.93319388
    ]
   },
   "properties": {
    "name": "19 LUDSTONE STREET HAMPTON 3188",
    "locID": "LOC000094445345",
    "tech": "HFC",
    "upgrade": "NULL_NA",
    "gnaf_pid": "GAVIC411515058"
   }
  },
  {
   "type": "Feature",
   "geometry": {
    "type": "Point",
    "coordinates": [
     144.9972969,
     -37.9338542
    ]
   },
   "properties": {
    "name": "UNIT 10, 24 HOLYROOD STREET HAMPTON 3188",
    "locID": "LOC000004425254",
    "tech": "HFC",
    "upgrade": "NULL_NA",
    "gnaf_pid": "GAVIC411515067"
   }
  },
  {
   "type": "Feature",
   "geometry": {
    "type": "Point",
    "coordinates": [
     145.022301,
     -37.939048
    ]
   },
   "properties": {
    "name": "92A FEWSTER ROAD HAMPTON 3188",
    "locID": "ChIJsywAo8Zu1moRXxnKAMN8-9A",
    "tech": "HFC",
    "upgrade": "UNKNOWN",
    "gnaf_pid": "GAVIC411515076"
   }
  },
  {
   "type": "Feature",
   "geometry": {
    "type": "Point",
    "coordinates": [
     145.00668211,
     -37.93267274
    ]
   },
   "properties": {
    "name": "UNIT 20, 8 PASSCHENDAELE STREET HAMPTON 3188",
    "locID": "LOC000051378674",
    "tech": "HFC",
    "upgrade": "NULL_NA",
    "gnaf_pid": "GAVIC411515113"
   }
  },
  {
   "type": "Feature",
   "geometry": {
    "type": "Point",
    "coordinates": [
     145.00634981,
     -37.93319388
    ]
   },
   "properties": {
    "name": "UNIT 4, 19 LUDSTONE STREET HAMPTON 3188",
    "locID": "LOC000092760908",
    "tech": "HFC",
    "upgrade": "NULL_NA",
    "gnaf_pid": "GAVIC411515116"
   }
  },
  {
   "type": "Feature",
   "geometry": {
    "type": "Point",
    "coordinates": [
     145.00634981,
     -37.93319388
    ]
   },
   "properties": {
    "name": "UNIT 3, 19 LUDSTONE STREET HAMPTON 3188",
    "locID": "LOC000094445345",
    "tech": "HFC",
    "upgrade": "NULL_NA",
    "gnaf_pid": "GAVIC411515120"
   }
  },
  {
   "type": "Feature",
   "geometry": {
    "type": "Point",
    "coordinates": [
     145.02426,
     -37.936467
    ]
   },
   "properties": {
    "name": "UNIT 4, 518 BLUFF ROAD HAMPTON 3188",
    "locID": "LOC000091668398",
    "tech": "HFC",
    "upgrade": "NULL_NA",
    "gnaf_pid": "GAVIC411515675"
   }
  },
  {
   "type": "Feature",
   "geometry": {
    "type": "Point",
    "coordinates": [
     145.02426,
     -37.936467
    ]
   },
   "properties": {
    "name": "UNIT 5, 518 BLUFF ROAD HAMPTON 3188",
    "locID": "LOC000091583797",
    "tech": "HFC",
    "upgrade": "NULL_NA",
    "gnaf_pid": "GAVIC411515777"
   }
  },
  {
   "type": "Feature",
   "geometry": {
    "type": "Point",
    "coordinates": [
     145.02097469,
     -37.93253973
    ]
   },
   "properties": {
    "name": "UNIT 2, 6 FAULKNER STREET HAMPTON 3188",
    "locID": "LOC000070724454",
    "tech": "HFC",
    "upgrade": "NULL_NA",
    "gnaf_pid": "GAVIC411515853"
   }
  },
  {
   "type": "Feature",
   "geometry": {
    "type": "Point",
    "coordinates": [
     144.9969174,
     -37.93289528
    ]
   },
   "properties": {
    "name": "29 HOLYROOD STREET HAMPTON 3188",
    "locID": "LOC000123912926",
    "tech": "HFC",
    "upgrade": "NULL_NA",
    "gnaf_pid": "GAVIC411516946"
   }
  },
  {
   "type": "Feature",
   "geometry": {
    "type": "Point",
    "coordinates": [
     145.00428427,
     -37.93294387
    ]
   },
   "properties": {
    "name": "5 LUDSTONE STREET HAMPTON 3188",
    "locID": "LOC000062460972",
    "tech": "HFC",
    "upgrade": "NULL_NA",
    "gnaf_pid": "GAVIC411516990"
   }
  },
  {
   "type": "Feature",
   "geometry": {
    "type": "Point",
    "coordinates": [
     145.01945575,
     -37.93264734
    ]
   },
   "properties": {
    "name": "12 BARNETT STREET HAMPTON 3188",
    "locID": "LOC000050979744",
    "tech": "HFC",
    "upgrade": "NULL_NA",
    "gnaf_pid": "GAVIC411517702"
   }
  },
  {
   "type": "Feature",
   "geometry": {
    "type": "Point",
    "coordinates": [
     145.013779,
     -37.932013
    ]
   },
   "properties": {
    "name": "14A KINGSTON STREET HAMPTON 3188",
    "locID": "LOC000046434899",
    "tech": "HFC",
    "upgrade": "NULL_NA",
    "gnaf_pid": "GAVIC411517711"
   }
  },
  {
   "type": "Feature",
   "geometry": {
    "type": "Point",
    "coordinates": [
     145.02410674,
     -37.93508842
    ]
   },
   "properties": {
    "name": "483 BLUFF ROAD HAMPTON 3188",
    "locID": "LOC000092994434",
    "tech": "HFC",
    "upgrade": "NULL_NA",
    "gnaf_pid": "GAVIC411517720"
   }
  },
  {
   "type": "Feature",
   "geometry": {
    "type": "Point",
    "coordinates": [
     145.01789984,
     -37.94404889
    ]
   },
   "properties": {
    "name": "128 LINACRE ROAD HAMPTON 3188",
    "locID": "LOC000101552562",
    "tech": "HFC",
    "upgrade": "NULL_NA",
    "gnaf_pid": "GAVIC411517780"
   }
  },
  {
   "type": "Feature",
   "geometry": {
    "type": "Point",
    "coordinates": [
     145.01677659,
     -37.94557108
    ]
   },
   "properties": {
    "name": "UNIT 2, 51 HIGHETT ROAD HAMPTON 3188",
    "locID": "LOC000096837930",
    "tech": "HFC",
    "upgrade": "NULL_NA",
    "gnaf_pid": "GAVIC411518695"
   }
  },
  {
   "type": "Feature",
   "geometry": {
    "type": "Point",
    "coordinates": [
     145.01378399,
     -37.93428409
    ]
   },
   "properties": {
    "name": "29 LUDSTONE STREET HAMPTON 3188",
    "locID": "ChIJxb3m-dpu1moRKlTPfOQ6Nmw",
    "tech": "HFC",
    "upgrade": "UNKNOWN",
    "gnaf_pid": "GAVIC411518768"
   }
  },
  {
   "type": "Feature",
   "geometry": {
    "type": "Point",
    "coordinates": [
     145.004214,
     -37.937226
    ]
   },
   "properties": {
    "name": "8 OCEAN STREET HAMPTON 3188",
    "locID": "LOC000041248297",
    "tech": "HFC",
    "upgrade": "NULL_NA",
    "gnaf_pid": "GAVIC411518769"
   }
  },
  {
   "type": "Feature",
   "geometry": {
    "type": "Point",
    "coordinates": [
     144.99695098,
     -37.93363553
    ]
   },
   "properties": {
    "name": "UNIT 3, 22 HOLYROOD STREET HAMPTON 3188",
    "locID": "LOC000062370505",
    "tech": "HFC",
    "upgrade": "NULL_NA",
    "gnaf_pid": "GAVIC411518771"
   }
  },
  {
   "type": "Feature",
   "geometry": {
    "type": "Point",
    "coordinates": [
     144.997993,
     -37.933875
    ]
   },
   "properties": {
    "name": "1A HASTINGS STREET HAMPTON 3188",
    "locID": "ChIJKRb6syNv1moRa9Grz_uBqjI",
    "tech": "HFC",
    "upgrade": "UNKNOWN",
    "gnaf_pid": "GAVIC411518777"
   }
  },
  {
   "type": "Feature",
   "geometry": {
    "type": "Point",
    "coordinates": [
     145.00821535,
     -37.93523708
    ]
   },
   "properties": {
    "name": "49A LITTLEWOOD STREET HAMPTON 3188",
    "locID": "LOC000100848426",
    "tech": "HFC",
    "upgrade": "NULL_NA",
    "gnaf_pid": "GAVIC411518778"
   }
  },
  {
   "type": "Feature",
   "geometry": {
    "type": "Point",
    "coordinates": [
     145.00006612,
     -37.93952547
    ]
   },
   "properties": {
    "name": "UNIT 3, 56 BEACH ROAD HAMPTON 3188",
    "locID": "LOC000088461327",
    "tech": "HFC",
    "upgrade": "NULL_NA",
    "gnaf_pid": "GAVIC411518839"
   }
  },
  {
   "type": "Feature",
   "geometry": {
    "type": "Point",
    "coordinates": [
     145.00006612,
     -37.93952547
    ]
   },
   "properties": {
    "name": "UNIT 24, 56 BEACH ROAD HAMPTON 3188",
    "locID": "LOC000087640496",
    "tech": "HFC",
    "upgrade": "NULL_NA",
    "gnaf_pid": "GAVIC411518840"
   }
  },
  {
   "type": "Feature",
   "geometry": {
    "type": "Point",
    "coordinates": [
     145.016434,
     -37.936164
    ]
   },
   "properties": {
    "name": "56 EARLSFIELD ROAD HAMPTON 3188",
    "locID": "LOC000082182415",
    "tech": "HFC",
    "upgrade": "NULL_NA",
    "gnaf_pid": "GAVIC411518846"
   }
  },
  {
   "type": "Feature",
   "geometry": {
    "type": "Point",
    "coordinates": [
     145.00668211,
     -37.93267274
    ]
   },
   "properties": {
    "name": "UNIT 16, 8 PASSCHENDAELE STREET HAMPTON 3188",
    "locID": "LOC000051462485",
    "tech": "HFC",
    "upgrade": "NULL_NA",
    "gnaf_pid": "GAVIC411519582"
   }
  },
  {
   "type": "Feature",
   "geometry": {
    "type": "Point",
    "coordinates": [
     145.02202418,
     -37.94621426
    ]
   },
   "properties": {
    "name": "349 BLUFF ROAD HAMPTON 3188",
    "locID": "LOC000123925500",
    "tech": "HFC",
    "upgrade": "NULL_NA",
    "gnaf_pid": "GAVIC411519696"
   }
  },
  {
   "type": "Feature",
   "geometry": {
    "type": "Point",
    "coordinates": [
     145.02094185,
     -37.94589255
    ]
   },
   "properties": {
    "name": "UNIT 5, 20 SWYER STREET HAMPTON 3188",
    "locID": "LOC000092895790",
    "tech": "HFC",
    "upgrade": "NULL_NA",
    "gnaf_pid": "GAVIC411519710"
   }
  },
  {
   "type": "Feature",
   "geometry": {
    "type": "Point",
    "coordinates": [
     145.00632663,
     -37.94198854
    ]
   },
   "properties": {
    "name": "UNIT 2, 41 LINACRE ROAD HAMPTON 3188",
    "locID": "LOC000016493296",
    "tech": "HFC",
    "upgrade": "NULL_NA",
    "gnaf_pid": "GAVIC411520451"
   }
  },
  {
   "type": "Feature",
   "geometry": {
    "type": "Point",
    "coordinates": [
     145.01072412,
     -37.94328647
    ]
   },
   "properties": {
    "name": "88 LINACRE ROAD HAMPTON 3188",
    "locID": "LOC000123945167",
    "tech": "HFC",
    "upgrade": "NULL_NA",
    "gnaf_pid": "GAVIC411520457"
   }
  },
  {
   "type": "Feature",
   "geometry": {
    "type": "Point",
    "coordinates": [
     145.0087095,
     -37.94301518
    ]
   },
   "properties": {
    "name": "66A LINACRE ROAD HAMPTON 3188",
    "locID": "LOC000014233906",
    "tech": "HFC",
    "upgrade": "NULL_NA",
    "gnaf_pid": "GAVIC411520458"
   }
  },
  {
   "type": "Feature",
   "geometry": {
    "type": "Point",
    "coordinates": [
     145.024122,
     -37.93500698
    ]
   },
   "properties": {
    "name": "UNIT 2, 483 BLUFF ROAD HAMPTON 3188",
    "locID": "LOC000092994434",
    "tech": "HFC",
    "upgrade": "NULL_NA",
    "gnaf_pid": "GAVIC411521331"
   }
  },
  {
   "type": "Feature",
   "geometry": {
    "type": "Point",
    "coordinates": [
     145.01886474,
     -37.93764405
    ]
   },
   "properties": {
    "name": "UNIT 2, 3 WALKER AVENUE HAMPTON 3188",
    "locID": "LOC000082895405",
    "tech": "HFC",
    "upgrade": "NULL_NA",
    "gnaf_pid": "GAVIC411521332"
   }
  },
  {
   "type": "Feature",
   "geometry": {
    "type": "Point",
    "coordinates": [
     145.019812,
     -37.937798
    ]
   },
   "properties": {
    "name": "4B WALKER AVENUE HAMPTON 3188",
    "locID": "ChIJqQ9pQ8Ru1moRA23QAKIdqEE",
    "tech": "HFC",
    "upgrade": "UNKNOWN",
    "gnaf_pid": "GAVIC411521434"
   }
  },
  {
   "type": "Feature",
   "geometry": {
    "type": "Point",
    "coordinates": [
     145.01658404,
     -37.93812385
    ]
   },
   "properties": {
    "name": "49 FEWSTER ROAD HAMPTON 3188",
    "locID": "LOC000123933440",
    "tech": "HFC",
    "upgrade": "NULL_NA",
    "gnaf_pid": "GAVIC411521440"
   }
  },
  {
   "type": "Feature",
   "geometry": {
    "type": "Point",
    "coordinates": [
     144.99366645,
     -37.9318053
    ]
   },
   "properties": {
    "name": "2 NEW STREET HAMPTON 3188",
    "locID": "LOC000015990334",
    "tech": "HFC",
    "upgrade": "NULL_NA",
    "gnaf_pid": "GAVIC411521452"
   }
  },
  {
   "type": "Feature",
   "geometry": {
    "type": "Point",
    "coordinates": [
     145.02049748,
     -37.93528666
    ]
   },
   "properties": {
    "name": "164 LUDSTONE STREET HAMPTON 3188",
    "locID": "LOC000051646854",
    "tech": "HFC",
    "upgrade": "NULL_NA",
    "gnaf_pid": "GAVIC411521504"
   }
  },
  {
   "type": "Feature",
   "geometry": {
    "type": "Point",
    "coordinates": [
     145.01740223,
     -37.94467461
    ]
   },
   "properties": {
    "name": "5A FIELD STREET HAMPTON 3188",
    "locID": "ChIJZZPhaOhu1moRsBIcbW1X9MU",
    "tech": "HFC",
    "upgrade": "UNKNOWN",
    "gnaf_pid": "GAVIC411522044"
   }
  },
  {
   "type": "Feature",
   "geometry": {
    "type": "Point",
    "coordinates": [
     145.00866245,
     -37.94167453
    ]
   },
   "properties": {
    "name": "62A CRISP STREET HAMPTON 3188",
    "locID": "LOC000042563541",
    "tech": "HFC",
    "upgrade": "NULL_NA",
    "gnaf_pid": "GAVIC411522047"
   }
  },
  {
   "type": "Feature",
   "geometry": {
    "type": "Point",
    "coordinates": [
     145.01195095,
     -37.93911773
    ]
   },
   "properties": {
    "name": "UNIT 2, 95 THOMAS STREET HAMPTON 3188",
    "locID": "LOC000038645528",
    "tech": "HFC",
    "upgrade": "NULL_NA",
    "gnaf_pid": "GAVIC411522060"
   }
  },
  {
   "type": "Feature",
   "geometry": {
    "type": "Point",
    "coordinates": [
     145.01626138,
     -37.93833151
    ]
   },
   "properties": {
    "name": "UNIT 4, 32 FEWSTER ROAD HAMPTON 3188",
    "locID": "LOC000006326638",
    "tech": "HFC",
    "upgrade": "NULL_NA",
    "gnaf_pid": "GAVIC411522063"
   }
  },
  {
   "type": "Feature",
   "geometry": {
    "type": "Point",
    "coordinates": [
     145.02129816,
     -37.9464313
    ]
   },
   "properties": {
    "name": "UNIT 4, 98 HIGHETT ROAD HAMPTON 3188",
    "locID": "LOC000060261852",
    "tech": "HFC",
    "upgrade": "NULL_NA",
    "gnaf_pid": "GAVIC411522079"
   }
  },
  {
   "type": "Feature",
   "geometry": {
    "type": "Point",
    "coordinates": [
     145.0206801,
     -37.94636707
    ]
   },
   "properties": {
    "name": "UNIT 4, 96 HIGHETT ROAD HAMPTON 3188",
    "locID": "LOC000048530025",
    "tech": "HFC",
    "upgrade": "NULL_NA",
    "gnaf_pid": "GAVIC411522080"
   }
  },
  {
   "type": "Feature",
   "geometry": {
    "type": "Point",
    "coordinates": [
     145.02067986,
     -37.94637608
    ]
   },
   "properties": {
    "name": "UNIT 5, 96 HIGHETT ROAD HAMPTON 3188",
    "locID": "LOC000048744892",
    "tech": "HFC",
    "upgrade": "NULL_NA",
    "gnaf_pid": "GAVIC411522081"
   }
  },
  {
   "type": "Feature",
   "geometry": {
    "type": "Point",
    "coordinates": [
     145.02129816,
     -37.9464313
    ]
   },
   "properties": {
    "name": "UNIT 12, 98 HIGHETT ROAD HAMPTON 3188",
    "locID": "LOC000060218752",
    "tech": "HFC",
    "upgrade": "NULL_NA",
    "gnaf_pid": "GAVIC411522082"
   }
  },
  {
   "type": "Feature",
   "geometry": {
    "type": "Point",
    "coordinates": [
     145.02129816,
     -37.9464313
    ]
   },
   "properties": {
    "name": "UNIT 2, 98 HIGHETT ROAD HAMPTON 3188",
    "locID": "LOC000060475701",
    "tech": "HFC",
    "upgrade": "NULL_NA",
    "gnaf_pid": "GAVIC411522083"
   }
  },
  {
   "type": "Feature",
   "geometry": {
    "type": "Point",
    "coordinates": [
     145.02067962,
     -37.94638509
    ]
   },
   "properties": {
    "name": "UNIT 6, 96 HIGHETT ROAD HAMPTON 3188",
    "locID": "LOC000048687627",
    "tech": "HFC",
    "upgrade": "NULL_NA",
    "gnaf_pid": "GAVIC411522087"
   }
  },
  {
   "type": "Feature",
   "geometry": {
    "type": "Point",
    "coordinates": [
     145.014383,
     -37.943234
    ]
   },
   "properties": {
    "name": "105A LINACRE ROAD HAMPTON 3188",
    "locID": "LOC000079031743",
    "tech": "HFC",
    "upgrade": "NULL_NA",
    "gnaf_pid": "GAVIC411522094"
   }
  },
  {
   "type": "Feature",
   "geometry": {
    "type": "Point",
    "coordinates": [
     145.01047231,
     -37.94460694
    ]
   },
   "properties": {
    "name": "45 SARGOOD STREET HAMPTON 3188",
    "locID": "LOC000123929067",
    "tech": "HFC",
    "upgrade": "NULL_NA",
    "gnaf_pid": "GAVIC411522102"
   }
  },
  {
   "type": "Feature",
   "geometry": {
    "type": "Point",
    "coordinates": [
     145.00006612,
     -37.93952547
    ]
   },
   "properties": {
    "name": "UNIT 6, 56 BEACH ROAD HAMPTON 3188",
    "locID": "LOC000088470409",
    "tech": "HFC",
    "upgrade": "NULL_NA",
    "gnaf_pid": "GAVIC411522104"
   }
  },
  {
   "type": "Feature",
   "geometry": {
    "type": "Point",
    "coordinates": [
     145.01583465,
     -37.9393295
    ]
   },
   "properties": {
    "name": "UNIT 8, 1 EDINBURGH STREET HAMPTON 3188",
    "locID": "LOC000068192066",
    "tech": "HFC",
    "upgrade": "NULL_NA",
    "gnaf_pid": "GAVIC411522484"
   }
  },
  {
   "type": "Feature",
   "geometry": {
    "type": "Point",
    "coordinates": [
     145.02094185,
     -37.94589255
    ]
   },
   "properties": {
    "name": "20 SWYER STREET HAMPTON 3188",
    "locID": "LOC000093014850",
    "tech": "HFC",
    "upgrade": "NULL_NA",
    "gnaf_pid": "GAVIC411522514"
   }
  },
  {
   "type": "Feature",
   "geometry": {
    "type": "Point",
    "coordinates": [
     145.01499431,
     -37.94389051
    ]
   },
   "properties": {
    "name": "2B AUSTIN ROAD HAMPTON 3188",
    "locID": "LOC000041639542",
    "tech": "HFC",
    "upgrade": "NULL_NA",
    "gnaf_pid": "GAVIC411522540"
   }
  },
  {
   "type": "Feature",
   "geometry": {
    "type": "Point",
    "coordinates": [
     145.013426,
     -37.942647
    ]
   },
   "properties": {
    "name": "UNIT 2, 16 DAVID STREET HAMPTON 3188",
    "locID": "LOC000012833919",
    "tech": "HFC",
    "upgrade": "NULL_NA",
    "gnaf_pid": "GAVIC411522541"
   }
  },
  {
   "type": "Feature",
   "geometry": {
    "type": "Point",
    "coordinates": [
     145.01098754,
     -37.9438881
    ]
   },
   "properties": {
    "name": "UNIT 2, 64 SARGOOD STREET HAMPTON 3188",
    "locID": "LOC000032086751",
    "tech": "HFC",
    "upgrade": "NULL_NA",
    "gnaf_pid": "GAVIC411522543"
   }
  },
  {
   "type": "Feature",
   "geometry": {
    "type": "Point",
    "coordinates": [
     145.00634981,
     -37.93319388
    ]
   },
   "properties": {
    "name": "UNIT 3, 31 LUDSTONE STREET HAMPTON 3188",
    "locID": "LOC000033373551",
    "tech": "HFC",
    "upgrade": "NULL_NA",
    "gnaf_pid": "GAVIC411522561"
   }
  },
  {
   "type": "Feature",
   "geometry": {
    "type": "Point",
    "coordinates": [
     145.00668211,
     -37.93267274
    ]
   },
   "properties": {
    "name": "UNIT 8, 8 PASSCHENDAELE STREET HAMPTON 3188",
    "locID": "LOC000052067978",
    "tech": "HFC",
    "upgrade": "NULL_NA",
    "gnaf_pid": "GAVIC411522562"
   }
  },
  {
   "type": "Feature",
   "geometry": {
    "type": "Point",
    "coordinates": [
     145.00668211,
     -37.93267274
    ]
   },
   "properties": {
    "name": "UNIT 15, 8 PASSCHENDAELE STREET HAMPTON 3188",
    "locID": "LOC000051744095",
    "tech": "HFC",
    "upgrade": "NULL_NA",
    "gnaf_pid": "GAVIC411522563"
   }
  },
  {
   "type": "Feature",
   "geometry": {
    "type": "Point",
    "coordinates": [
     145.01047231,
     -37.94460694
    ]
   },
   "properties": {
    "name": "45A SARGOOD STREET HAMPTON 3188",
    "locID": "LOC000123929051",
    "tech": "HFC",
    "upgrade": "NULL_NA",
    "gnaf_pid": "GAVIC411522581"
   }
  },
  {
   "type": "Feature",
   "geometry": {
    "type": "Point",
    "coordinates": [
     145.01635215,
     -37.9445523
    ]
   },
   "properties": {
    "name": "1B BRAND STREET HAMPTON 3188",
    "locID": "LOC000081744471",
    "tech": "HFC",
    "upgrade": "NULL_NA",
    "gnaf_pid": "GAVIC411522604"
   }
  },
  {
   "type": "Feature",
   "geometry": {
    "type": "Point",
    "coordinates": [
     145.02047202,
     -37.94350308
    ]
   },
   "properties": {
    "name": "86B DAVID STREET HAMPTON 3188",
    "locID": "LOC000107484436",
    "tech": "HFC",
    "upgrade": "NULL_NA",
    "gnaf_pid": "GAVIC411522605"
   }
  },
  {
   "type": "Feature",
   "geometry": {
    "type": "Point",
    "coordinates": [
     145.01329944,
     -37.93265643
    ]
   },
   "properties": {
    "name": "27A KINGSTON STREET HAMPTON 3188",
    "locID": "LOC000041421627",
    "tech": "HFC",
    "upgrade": "NULL_NA",
    "gnaf_pid": "GAVIC411522635"
   }
  },
  {
   "type": "Feature",
   "geometry": {
    "type": "Point",
    "coordinates": [
     145.01386221,
     -37.93408441
    ]
   },
   "properties": {
    "name": "UNIT 2, 91 LUDSTONE STREET HAMPTON 3188",
    "locID": "LOC000036730005",
    "tech": "HFC",
    "upgrade": "NULL_NA",
    "gnaf_pid": "GAVIC411522684"
   }
  },
  {
   "type": "Feature",
   "geometry": {
    "type": "Point",
    "coordinates": [
     145.01901409,
     -37.9329006
    ]
   },
   "properties": {
    "name": "17 BARNETT STREET HAMPTON 3188",
    "locID": "LOC000020234172",
    "tech": "HFC",
    "upgrade": "NULL_NA",
    "gnaf_pid": "GAVIC411522686"
   }
  },
  {
   "type": "Feature",
   "geometry": {
    "type": "Point",
    "coordinates": [
     145.002047,
     -37.935365
    ]
   },
   "properties": {
    "name": "43 GRENVILLE STREET HAMPTON 3188",
    "locID": "LOC000002740541",
    "tech": "HFC",
    "upgrade": "NULL_NA",
    "gnaf_pid": "GAVIC411522688"
   }
  },
  {
   "type": "Feature",
   "geometry": {
    "type": "Point",
    "coordinates": [
     145.01626138,
     -37.93833151
    ]
   },
   "properties": {
    "name": "UNIT 4, 32A FEWSTER ROAD HAMPTON 3188",
    "locID": "LOC000006052416",
    "tech": "HFC",
    "upgrade": "NULL_NA",
    "gnaf_pid": "GAVIC411522693"
   }
  },
  {
   "type": "Feature",
   "geometry": {
    "type": "Point",
    "coordinates": [
     145.015752,
     -37.938931
    ]
   },
   "properties": {
    "name": "5 EDINBURGH STREET HAMPTON 3188",
    "locID": "LOC000080517398",
    "tech": "HFC",
    "upgrade": "NULL_NA",
    "gnaf_pid": "GAVIC411522698"
   }
  },
  {
   "type": "Feature",
   "geometry": {
    "type": "Point",
    "coordinates": [
     145.01264973,
     -37.93922559
    ]
   },
   "properties": {
    "name": "1A STOREY AVENUE HAMPTON 3188",
    "locID": "LOC000176439055",
    "tech": "HFC",
    "upgrade": "NULL_NA",
    "gnaf_pid": "GAVIC411522705"
   }
  },
  {
   "type": "Feature",
   "geometry": {
    "type": "Point",
    "coordinates": [
     145.01350471,
     -37.9416608
    ]
   },
   "properties": {
    "name": "20 MYRTLE ROAD HAMPTON 3188",
    "locID": "LOC000084874657",
    "tech": "HFC",
    "upgrade": "NULL_NA",
    "gnaf_pid": "GAVIC411522770"
   }
  },
  {
   "type": "Feature",
   "geometry": {
    "type": "Point",
    "coordinates": [
     145.0206922,
     -37.94634024
    ]
   },
   "properties": {
    "name": "UNIT 1, 96 HIGHETT ROAD HAMPTON 3188",
    "locID": "LOC000048611273",
    "tech": "HFC",
    "upgrade": "NULL_NA",
    "gnaf_pid": "GAVIC411522771"
   }
  },
  {
   "type": "Feature",
   "geometry": {
    "type": "Point",
    "coordinates": [
     145.02065542,
     -37.94643875
    ]
   },
   "properties": {
    "name": "UNIT 11, 96 HIGHETT ROAD HAMPTON 3188",
    "locID": "LOC000048527764",
    "tech": "HFC",
    "upgrade": "NULL_NA",
    "gnaf_pid": "GAVIC411523391"
   }
  },
  {
   "type": "Feature",
   "geometry": {
    "type": "Point",
    "coordinates": [
     145.01629662,
     -37.94355223
    ]
   },
   "properties": {
    "name": "4A WALES STREET HAMPTON 3188",
    "locID": "LOC000040868009",
    "tech": "HFC",
    "upgrade": "NULL_NA",
    "gnaf_pid": "GAVIC411525439"
   }
  },
  {
   "type": "Feature",
   "geometry": {
    "type": "Point",
    "coordinates": [
     145.00138335,
     -37.93977166
    ]
   },
   "properties": {
    "name": "UNIT 2, 10 SMALL STREET HAMPTON 3188",
    "locID": "LOC000022983186",
    "tech": "HFC",
    "upgrade": "NULL_NA",
    "gnaf_pid": "GAVIC411525440"
   }
  },
  {
   "type": "Feature",
   "geometry": {
    "type": "Point",
    "coordinates": [
     145.00006612,
     -37.93952547
    ]
   },
   "properties": {
    "name": "UNIT 10, 56 BEACH ROAD HAMPTON 3188",
    "locID": "LOC000087562349",
    "tech": "HFC",
    "upgrade": "NULL_NA",
    "gnaf_pid": "GAVIC411525452"
   }
  },
  {
   "type": "Feature",
   "geometry": {
    "type": "Point",
    "coordinates": [
     144.99990521,
     -37.93982274
    ]
   },
   "properties": {
    "name": "56E BEACH ROAD HAMPTON 3188",
    "locID": "LOC000088573053",
    "tech": "HFC",
    "upgrade": "NULL_NA",
    "gnaf_pid": "GAVIC411525455"
   }
  },
  {
   "type": "Feature",
   "geometry": {
    "type": "Point",
    "coordinates": [
     144.99698663,
     -37.93345418
    ]
   },
   "properties": {
    "name": "UNIT 2, 22 HOLYROOD STREET HAMPTON 3188",
    "locID": "LOC000062370505",
    "tech": "HFC",
    "upgrade": "NULL_NA",
    "gnaf_pid": "GAVIC411525928"
   }
  },
  {
   "type": "Feature",
   "geometry": {
    "type": "Point",
    "coordinates": [
     144.99689005,
     -37.93381443
    ]
   },
   "properties": {
    "name": "UNIT 4, 22 HOLYROOD STREET HAMPTON 3188",
    "locID": "LOC000062288502",
    "tech": "HFC",
    "upgrade": "NULL_NA",
    "gnaf_pid": "GAVIC411525929"
   }
  },
  {
   "type": "Feature",
   "geometry": {
    "type": "Point",
    "coordinates": [
     145.00872543,
     -37.93530309
    ]
   },
   "properties": {
    "name": "55A LITTLEWOOD STREET HAMPTON 3188",
    "locID": "LOC000017621509",
    "tech": "HFC",
    "upgrade": "NULL_NA",
    "gnaf_pid": "GAVIC411525931"
   }
  },
  {
   "type": "Feature",
   "geometry": {
    "type": "Point",
    "coordinates": [
     145.00634981,
     -37.93319388
    ]
   },
   "properties": {
    "name": "UNIT 9, 31 LUDSTONE STREET HAMPTON 3188",
    "locID": "LOC000033735195",
    "tech": "HFC",
    "upgrade": "NULL_NA",
    "gnaf_pid": "GAVIC411525932"
   }
  },
  {
   "type": "Feature",
   "geometry": {
    "type": "Point",
    "coordinates": [
     145.0022329,
     -37.9357148
    ]
   },
   "properties": {
    "name": "46 GRENVILLE STREET HAMPTON 3188",
    "locID": "LOC000002874599",
    "tech": "HFC",
    "upgrade": "NULL_NA",
    "gnaf_pid": "GAVIC411525936"
   }
  },
  {
   "type": "Feature",
   "geometry": {
    "type": "Point",
    "coordinates": [
     145.001112,
     -37.939193
    ]
   },
   "properties": {
    "name": "21A SMALL STREET HAMPTON 3188",
    "locID": "LOC000190963867",
    "tech": "HFC",
    "upgrade": "NULL_NA",
    "gnaf_pid": "GAVIC411525941"
   }
  },
  {
   "type": "Feature",
   "geometry": {
    "type": "Point",
    "coordinates": [
     145.00559181,
     -37.93601848
    ]
   },
   "properties": {
    "name": "UNIT 2, 26 MILLS STREET HAMPTON 3188",
    "locID": "LOC000040141788",
    "tech": "HFC",
    "upgrade": "NULL_NA",
    "gnaf_pid": "GAVIC411525942"
   }
  },
  {
   "type": "Feature",
   "geometry": {
    "type": "Point",
    "coordinates": [
     144.99551093,
     -37.93203932
    ]
   },
   "properties": {
    "name": "23 HOYT STREET HAMPTON 3188",
    "locID": "LOC000018178946",
    "tech": "HFC",
    "upgrade": "NULL_NA",
    "gnaf_pid": "GAVIC411525945"
   }
  },
  {
   "type": "Feature",
   "geometry": {
    "type": "Point",
    "coordinates": [
     145.01717,
     -37.9431
    ]
   },
   "properties": {
    "name": "UNIT 1, 54 DAVID STREET HAMPTON 3188",
    "locID": "LOC000091394587",
    "tech": "HFC",
    "upgrade": "NULL_NA",
    "gnaf_pid": "GAVIC411526025"
   }
  },
  {
   "type": "Feature",
   "geometry": {
    "type": "Point",
    "coordinates": [
     145.01204466,
     -37.9431607
    ]
   },
   "properties": {
    "name": "91B LINACRE ROAD HAMPTON 3188",
    "locID": "LOC000092483444",
    "tech": "HFC",
    "upgrade": "NULL_NA",
    "gnaf_pid": "GAVIC411526026"
   }
  },
  {
   "type": "Feature",
   "geometry": {
    "type": "Point",
    "coordinates": [
     145.00127939,
     -37.93976735
    ]
   },
   "properties": {
    "name": "UNIT 3, 10 SMALL STREET HAMPTON 3188",
    "locID": "LOC000022956028",
    "tech": "HFC",
    "upgrade": "NULL_NA",
    "gnaf_pid": "GAVIC411526027"
   }
  },
  {
   "type": "Feature",
   "geometry": {
    "type": "Point",
    "coordinates": [
     145.00006612,
     -37.93952547
    ]
   },
   "properties": {
    "name": "UNIT 28, 56 BEACH ROAD HAMPTON 3188",
    "locID": "LOC000088769840",
    "tech": "HFC",
    "upgrade": "NULL_NA",
    "gnaf_pid": "GAVIC411526028"
   }
  },
  {
   "type": "Feature",
   "geometry": {
    "type": "Point",
    "coordinates": [
     145.01742053,
     -37.94283181
    ]
   },
   "properties": {
    "name": "59B DAVID STREET HAMPTON 3188",
    "locID": "LOC000123941035",
    "tech": "HFC",
    "upgrade": "NULL_NA",
    "gnaf_pid": "GAVIC411526093"
   }
  },
  {
   "type": "Feature",
   "geometry": {
    "type": "Point",
    "coordinates": [
     145.020017,
     -37.941276
    ]
   },
   "properties": {
    "name": "13 THORBURN STREET HAMPTON 3188",
    "locID": "LOC000123961729",
    "tech": "HFC",
    "upgrade": "NULL_NA",
    "gnaf_pid": "GAVIC411526097"
   }
  },
  {
   "type": "Feature",
   "geometry": {
    "type": "Point",
    "coordinates": [
     145.016524,
     -37.945538
    ]
   },
   "properties": {
    "name": "UNIT 1, 49 HIGHETT ROAD HAMPTON 3188",
    "locID": "LOC000044440938",
    "tech": "HFC",
    "upgrade": "NULL_NA",
    "gnaf_pid": "GAVIC411526102"
   }
  },
  {
   "type": "Feature",
   "geometry": {
    "type": "Point",
    "coordinates": [
     145.00006612,
     -37.93952547
    ]
   },
   "properties": {
    "name": "UNIT 9, 56 BEACH ROAD HAMPTON 3188",
    "locID": "LOC000087530126",
    "tech": "HFC",
    "upgrade": "NULL_NA",
    "gnaf_pid": "GAVIC411526104"
   }
  },
  {
   "type": "Feature",
   "geometry": {
    "type": "Point",
    "coordinates": [
     145.018389,
     -37.942133
    ]
   },
   "properties": {
    "name": "19 POOLE AVENUE HAMPTON 3188",
    "locID": "LOC000079183246",
    "tech": "HFC",
    "upgrade": "NULL_NA",
    "gnaf_pid": "GAVIC411526208"
   }
  },
  {
   "type": "Feature",
   "geometry": {
    "type": "Point",
    "coordinates": [
     145.00231779,
     -37.94327148
    ]
   },
   "properties": {
    "name": "3 ALICIA STREET HAMPTON 3188",
    "locID": "LOC000123912988",
    "tech": "HFC",
    "upgrade": "NULL_NA",
    "gnaf_pid": "GAVIC411526214"
   }
  },
  {
   "type": "Feature",
   "geometry": {
    "type": "Point",
    "coordinates": [
     145.008593,
     -37.939625
    ]
   },
   "properties": {
    "name": "64 THOMAS STREET HAMPTON 3188",
    "locID": "LOC000058559109",
    "tech": "HFC",
    "upgrade": "NULL_NA",
    "gnaf_pid": "GAVIC411526216"
   }
  },
  {
   "type": "Feature",
   "geometry": {
    "type": "Point",
    "coordinates": [
     145.02432205,
     -37.93351055
    ]
   },
   "properties": {
    "name": "UNIT 15, 499B BLUFF ROAD HAMPTON 3188",
    "locID": "LOC000070245042",
    "tech": "HFC",
    "upgrade": "NULL_NA",
    "gnaf_pid": "GAVIC411526219"
   }
  },
  {
   "type": "Feature",
   "geometry": {
    "type": "Point",
    "coordinates": [
     145.01378399,
     -37.93428409
    ]
   },
   "properties": {
    "name": "25 LUDSTONE STREET HAMPTON 3188",
    "locID": "ChIJxb3m-dpu1moRphIrIu7pyJk",
    "tech": "HFC",
    "upgrade": "UNKNOWN",
    "gnaf_pid": "GAVIC411526222"
   }
  },
  {
   "type": "Feature",
   "geometry": {
    "type": "Point",
    "coordinates": [
     145.00403443,
     -37.93410871
    ]
   },
   "properties": {
    "name": "UNIT 4, 3 LITTLEWOOD STREET HAMPTON 3188",
    "locID": "LOC000048943069",
    "tech": "HFC",
    "upgrade": "NULL_NA",
    "gnaf_pid": "GAVIC411526223"
   }
  },
  {
   "type": "Feature",
   "geometry": {
    "type": "Point",
    "coordinates": [
     145.00634981,
     -37.93319388
    ]
   },
   "properties": {
    "name": "31 LUDSTONE STREET HAMPTON 3188",
    "locID": "LOC000033373551",
    "tech": "HFC",
    "upgrade": "NULL_NA",
    "gnaf_pid": "GAVIC411526224"
   }
  },
  {
   "type": "Feature",
   "geometry": {
    "type": "Point",
    "coordinates": [
     144.99999144,
     -37.93568171
    ]
   },
   "properties": {
    "name": "UNIT 3, 18 GRENVILLE STREET HAMPTON 3188",
    "locID": "LOC000018574169",
    "tech": "HFC",
    "upgrade": "NULL_NA",
    "gnaf_pid": "GAVIC411526232"
   }
  },
  {
   "type": "Feature",
   "geometry": {
    "type": "Point",
    "coordinates": [
     145.01887393,
     -37.9415135
    ]
   },
   "properties": {
    "name": "4A POOLE AVENUE HAMPTON 3188",
    "locID": "LOC000123925206",
    "tech": "HFC",
    "upgrade": "NULL_NA",
    "gnaf_pid": "GAVIC411526245"
   }
  },
  {
   "type": "Feature",
   "geometry": {
    "type": "Point",
    "coordinates": [
     144.995605,
     -37.93274
    ]
   },
   "properties": {
    "name": "19 HOLYROOD STREET HAMPTON 3188",
    "locID": "LOC000058196900",
    "tech": "HFC",
    "upgrade": "NULL_NA",
    "gnaf_pid": "GAVIC411526262"
   }
  },
  {
   "type": "Feature",
   "geometry": {
    "type": "Point",
    "coordinates": [
     145.0118274,
     -37.93963335
    ]
   },
   "properties": {
    "name": "96 THOMAS STREET HAMPTON 3188",
    "locID": "LOC000072830744",
    "tech": "HFC",
    "upgrade": "NULL_NA",
    "gnaf_pid": "GAVIC411526274"
   }
  },
  {
   "type": "Feature",
   "geometry": {
    "type": "Point",
    "coordinates": [
     145.02066703,
     -37.94642993
    ]
   },
   "properties": {
    "name": "UNIT 10, 96 HIGHETT ROAD HAMPTON 3188",
    "locID": "LOC000048771994",
    "tech": "HFC",
    "upgrade": "NULL_NA",
    "gnaf_pid": "GAVIC411526275"
   }
  },
  {
   "type": "Feature",
   "geometry": {
    "type": "Point",
    "coordinates": [
     145.02293383,
     -37.94125173
    ]
   },
   "properties": {
    "name": "413 BLUFF ROAD HAMPTON 3188",
    "locID": "LOC000008892260",
    "tech": "HFC",
    "upgrade": "NULL_NA",
    "gnaf_pid": "GAVIC411526283"
   }
  },
  {
   "type": "Feature",
   "geometry": {
    "type": "Point",
    "coordinates": [
     145.02227646,
     -37.94155822
    ]
   },
   "properties": {
    "name": "39 THORBURN STREET HAMPTON 3188",
    "locID": "LOC000098357442",
    "tech": "HFC",
    "upgrade": "NULL_NA",
    "gnaf_pid": "GAVIC411526290"
   }
  },
  {
   "type": "Feature",
   "geometry": {
    "type": "Point",
    "coordinates": [
     145.002699,
     -37.937464
    ]
   },
   "properties": {
    "name": "UNIT 1, 436 HAMPTON STREET HAMPTON 3188",
    "locID": "LOC000034008537",
    "tech": "HFC",
    "upgrade": "NULL_NA",
    "gnaf_pid": "GAVIC411526819"
   }
  },
  {
   "type": "Feature",
   "geometry": {
    "type": "Point",
    "coordinates": [
     145.00354809,
     -37.93679595
    ]
   },
   "properties": {
    "name": "UNIT 2, 42 WILLIS STREET HAMPTON 3188",
    "locID": "LOC000123928999",
    "tech": "HFC",
    "upgrade": "NULL_NA",
    "gnaf_pid": "GAVIC411526821"
   }
  },
  {
   "type": "Feature",
   "geometry": {
    "type": "Point",
    "coordinates": [
     145.00354809,
     -37.93679595
    ]
   },
   "properties": {
    "name": "UNIT 3, 42 WILLIS STREET HAMPTON 3188",
    "locID": "LOC000123925234",
    "tech": "HFC",
    "upgrade": "NULL_NA",
    "gnaf_pid": "GAVIC411526823"
   }
  },
  {
   "type": "Feature",
   "geometry": {
    "type": "Point",
    "coordinates": [
     145.0185871,
     -37.93907919
    ]
   },
   "properties": {
    "name": "UNIT 4, 46 FEWSTER ROAD HAMPTON 3188",
    "locID": "LOC000046970293",
    "tech": "HFC",
    "upgrade": "NULL_NA",
    "gnaf_pid": "GAVIC411526838"
   }
  },
  {
   "type": "Feature",
   "geometry": {
    "type": "Point",
    "coordinates": [
     145.023066,
     -37.935579
    ]
   },
   "properties": {
    "name": "194A LUDSTONE STREET HAMPTON 3188",
    "locID": "LOC000022766252",
    "tech": "HFC",
    "upgrade": "NULL_NA",
    "gnaf_pid": "GAVIC411526862"
   }
  },
  {
   "type": "Feature",
   "geometry": {
    "type": "Point",
    "coordinates": [
     145.01307698,
     -37.93648636
    ]
   },
   "properties": {
    "name": "10 RAYNES PARK ROAD HAMPTON 3188",
    "locID": "LOC000002915213",
    "tech": "HFC",
    "upgrade": "NULL_NA",
    "gnaf_pid": "GAVIC411526868"
   }
  },
  {
   "type": "Feature",
   "geometry": {
    "type": "Point",
    "coordinates": [
     145.01863476,
     -37.9376518
    ]
   },
   "properties": {
    "name": "UNIT 3, 3 WALKER AVENUE HAMPTON 3188",
    "locID": "LOC000083067141",
    "tech": "HFC",
    "upgrade": "NULL_NA",
    "gnaf_pid": "GAVIC411526871"
   }
  },
  {
   "type": "Feature",
   "geometry": {
    "type": "Point",
    "coordinates": [
     145.01327996,
     -37.93276049
    ]
   },
   "properties": {
    "name": "27B KINGSTON STREET HAMPTON 3188",
    "locID": "LOC000041111313",
    "tech": "HFC",
    "upgrade": "NULL_NA",
    "gnaf_pid": "GAVIC411526900"
   }
  },
  {
   "type": "Feature",
   "geometry": {
    "type": "Point",
    "coordinates": [
     145.00737428,
     -37.93428008
    ]
   },
   "properties": {
    "name": "UNIT 3, 7 HOOD STREET HAMPTON 3188",
    "locID": "LOC000065851026",
    "tech": "HFC",
    "upgrade": "NULL_NA",
    "gnaf_pid": "GAVIC411526903"
   }
  },
  {
   "type": "Feature",
   "geometry": {
    "type": "Point",
    "coordinates": [
     145.00668211,
     -37.93267274
    ]
   },
   "properties": {
    "name": "UNIT 1, 8 PASSCHENDAELE STREET HAMPTON 3188",
    "locID": "LOC000051969693",
    "tech": "HFC",
    "upgrade": "NULL_NA",
    "gnaf_pid": "GAVIC411526904"
   }
  },
  {
   "type": "Feature",
   "geometry": {
    "type": "Point",
    "coordinates": [
     145.00668211,
     -37.93267274
    ]
   },
   "properties": {
    "name": "UNIT 4, 8 PASSCHENDAELE STREET HAMPTON 3188",
    "locID": "LOC000051621705",
    "tech": "HFC",
    "upgrade": "NULL_NA",
    "gnaf_pid": "GAVIC411526984"
   }
  },
  {
   "type": "Feature",
   "geometry": {
    "type": "Point",
    "coordinates": [
     145.00668211,
     -37.93267274
    ]
   },
   "properties": {
    "name": "UNIT 12, 8 PASSCHENDAELE STREET HAMPTON 3188",
    "locID": "LOC000051679975",
    "tech": "HFC",
    "upgrade": "NULL_NA",
    "gnaf_pid": "GAVIC411527021"
   }
  },
  {
   "type": "Feature",
   "geometry": {
    "type": "Point",
    "coordinates": [
     145.02066752,
     -37.94641192
    ]
   },
   "properties": {
    "name": "UNIT 9, 96 HIGHETT ROAD HAMPTON 3188",
    "locID": "LOC000048567392",
    "tech": "HFC",
    "upgrade": "NULL_NA",
    "gnaf_pid": "GAVIC411527039"
   }
  },
  {
   "type": "Feature",
   "geometry": {
    "type": "Point",
    "coordinates": [
     145.01760575,
     -37.9426863
    ]
   },
   "properties": {
    "name": "1A JAMES CRESCENT HAMPTON 3188",
    "locID": "LOC000003607358",
    "tech": "HFC",
    "upgrade": "NULL_NA",
    "gnaf_pid": "GAVIC411527041"
   }
  },
  {
   "type": "Feature",
   "geometry": {
    "type": "Point",
    "coordinates": [
     145.01971921,
     -37.94152324
    ]
   },
   "properties": {
    "name": "6A THORBURN STREET HAMPTON 3188",
    "locID": "LOC000076117703",
    "tech": "HFC",
    "upgrade": "NULL_NA",
    "gnaf_pid": "GAVIC411527045"
   }
  },
  {
   "type": "Feature",
   "geometry": {
    "type": "Point",
    "coordinates": [
     145.014981,
     -37.93139
    ]
   },
   "properties": {
    "name": "4A PRINCE STREET HAMPTON 3188",
    "locID": "ChIJB7PAONBu1moRtjbkHBct1s8",
    "tech": "HFC",
    "upgrade": "UNKNOWN",
    "gnaf_pid": "GAVIC411527049"
   }
  },
  {
   "type": "Feature",
   "geometry": {
    "type": "Point",
    "coordinates": [
     145.01931565,
     -37.9351217
    ]
   },
   "properties": {
    "name": "152 LUDSTONE STREET HAMPTON 3188",
    "locID": "LOC000049898582",
    "tech": "HFC",
    "upgrade": "NULL_NA",
    "gnaf_pid": "GAVIC411527061"
   }
  },
  {
   "type": "Feature",
   "geometry": {
    "type": "Point",
    "coordinates": [
     145.00633327,
     -37.93817457
    ]
   },
   "properties": {
    "name": "17 FOAM STREET HAMPTON 3188",
    "locID": "LOC000113180985",
    "tech": "HFC",
    "upgrade": "NULL_NA",
    "gnaf_pid": "GAVIC411527079"
   }
  },
  {
   "type": "Feature",
   "geometry": {
    "type": "Point",
    "coordinates": [
     145.00634981,
     -37.93319388
    ]
   },
   "properties": {
    "name": "UNIT 6, 31 LUDSTONE STREET HAMPTON 3188",
    "locID": "LOC000033752621",
    "tech": "HFC",
    "upgrade": "NULL_NA",
    "gnaf_pid": "GAVIC411527095"
   }
  },
  {
   "type": "Feature",
   "geometry": {
    "type": "Point",
    "coordinates": [
     144.99545371,
     -37.93272219
    ]
   },
   "properties": {
    "name": "17 HOLYROOD STREET HAMPTON 3188",
    "locID": "LOC000169422876",
    "tech": "HFC",
    "upgrade": "NULL_NA",
    "gnaf_pid": "GAVIC411527102"
   }
  },
  {
   "type": "Feature",
   "geometry": {
    "type": "Point",
    "coordinates": [
     145.01497148,
     -37.93429699
    ]
   },
   "properties": {
    "name": "107 LUDSTONE STREET HAMPTON 3188",
    "locID": "LOC000012973714",
    "tech": "HFC",
    "upgrade": "NULL_NA",
    "gnaf_pid": "GAVIC411527131"
   }
  },
  {
   "type": "Feature",
   "geometry": {
    "type": "Point",
    "coordinates": [
     145.02065517,
     -37.94644776
    ]
   },
   "properties": {
    "name": "UNIT 12, 96 HIGHETT ROAD HAMPTON 3188",
    "locID": "LOC000048588231",
    "tech": "HFC",
    "upgrade": "NULL_NA",
    "gnaf_pid": "GAVIC411527167"
   }
  },
  {
   "type": "Feature",
   "geometry": {
    "type": "Point",
    "coordinates": [
     145.02129816,
     -37.9464313
    ]
   },
   "properties": {
    "name": "UNIT 9, 98 HIGHETT ROAD HAMPTON 3188",
    "locID": "LOC000060261852",
    "tech": "HFC",
    "upgrade": "NULL_NA",
    "gnaf_pid": "GAVIC411527168"
   }
  },
  {
   "type": "Feature",
   "geometry": {
    "type": "Point",
    "coordinates": [
     145.02129816,
     -37.9464313
    ]
   },
   "properties": {
    "name": "UNIT 1, 98 HIGHETT ROAD HAMPTON 3188",
    "locID": "LOC000060218752",
    "tech": "HFC",
    "upgrade": "NULL_NA",
    "gnaf_pid": "GAVIC411527171"
   }
  },
  {
   "type": "Feature",
   "geometry": {
    "type": "Point",
    "coordinates": [
     145.02175829,
     -37.94647533
    ]
   },
   "properties": {
    "name": "UNIT 2, 100 HIGHETT ROAD HAMPTON 3188",
    "locID": "LOC000060403375",
    "tech": "HFC",
    "upgrade": "NULL_NA",
    "gnaf_pid": "GAVIC411527172"
   }
  },
  {
   "type": "Feature",
   "geometry": {
    "type": "Point",
    "coordinates": [
     145.00634981,
     -37.93319388
    ]
   },
   "properties": {
    "name": "UNIT 4, 31 LUDSTONE STREET HAMPTON 3188",
    "locID": "LOC000033456337",
    "tech": "HFC",
    "upgrade": "NULL_NA",
    "gnaf_pid": "GAVIC411527198"
   }
  },
  {
   "type": "Feature",
   "geometry": {
    "type": "Point",
    "coordinates": [
     145.00668211,
     -37.93267274
    ]
   },
   "properties": {
    "name": "UNIT 6, 8 PASSCHENDAELE STREET HAMPTON 3188",
    "locID": "LOC000052074827",
    "tech": "HFC",
    "upgrade": "NULL_NA",
    "gnaf_pid": "GAVIC411527199"
   }
  },
  {
   "type": "Feature",
   "geometry": {
    "type": "Point",
    "coordinates": [
     145.00668211,
     -37.93267274
    ]
   },
   "properties": {
    "name": "UNIT 19, 8 PASSCHENDAELE STREET HAMPTON 3188",
    "locID": "LOC000052005242",
    "tech": "HFC",
    "upgrade": "NULL_NA",
    "gnaf_pid": "GAVIC411527205"
   }
  },
  {
   "type": "Feature",
   "geometry": {
    "type": "Point",
    "coordinates": [
     145.00388762,
     -37.93120054
    ]
   },
   "properties": {
    "name": "576 HAMPTON STREET HAMPTON 3188",
    "locID": "LOC000123940865",
    "tech": "HFC",
    "upgrade": "NULL_NA",
    "gnaf_pid": "GAVIC411527207"
   }
  },
  {
   "type": "Feature",
   "geometry": {
    "type": "Point",
    "coordinates": [
     145.00634981,
     -37.93319388
    ]
   },
   "properties": {
    "name": "UNIT 10, 31 LUDSTONE STREET HAMPTON 3188",
    "locID": "LOC000033562298",
    "tech": "HFC",
    "upgrade": "NULL_NA",
    "gnaf_pid": "GAVIC411527210"
   }
  },
  {
   "type": "Feature",
   "geometry": {
    "type": "Point",
    "coordinates": [
     144.994902,
     -37.929447
    ]
   },
   "properties": {
    "name": "UNIT 12A, 32 NEW STREET HAMPTON 3188",
    "locID": "LOC000028592733",
    "tech": "HFC",
    "upgrade": "NULL_NA",
    "gnaf_pid": "GAVIC411527211"
   }
  },
  {
   "type": "Feature",
   "geometry": {
    "type": "Point",
    "coordinates": [
     145.00380949,
     -37.9316265
    ]
   },
   "properties": {
    "name": "UNIT 5, 572 HAMPTON STREET HAMPTON 3188",
    "locID": "LOC000040953021",
    "tech": "HFC",
    "upgrade": "NULL_NA",
    "gnaf_pid": "GAVIC411527234"
   }
  },
  {
   "type": "Feature",
   "geometry": {
    "type": "Point",
    "coordinates": [
     144.9984,
     -37.937391
    ]
   },
   "properties": {
    "name": "40A BEACH ROAD HAMPTON 3188",
    "locID": "LOC000060126978",
    "tech": "HFC",
    "upgrade": "NULL_NA",
    "gnaf_pid": "GAVIC411527235"
   }
  },
  {
   "type": "Feature",
   "geometry": {
    "type": "Point",
    "coordinates": [
     144.9983047,
     -37.93731198
    ]
   },
   "properties": {
    "name": "39A BEACH ROAD HAMPTON 3188",
    "locID": "LOC000037782365",
    "tech": "HFC",
    "upgrade": "NULL_NA",
    "gnaf_pid": "GAVIC411527237"
   }
  },
  {
   "type": "Feature",
   "geometry": {
    "type": "Point",
    "coordinates": [
     145.00354809,
     -37.93679595
    ]
   },
   "properties": {
    "name": "UNIT 1, 42 WILLIS STREET HAMPTON 3188",
    "locID": "LOC000123925234",
    "tech": "HFC",
    "upgrade": "NULL_NA",
    "gnaf_pid": "GAVIC411527732"
   }
  },
  {
   "type": "Feature",
   "geometry": {
    "type": "Point",
    "coordinates": [
     145.00368056,
     -37.93230636
    ]
   },
   "properties": {
    "name": "UNIT 3, 544 HAMPTON STREET HAMPTON 3188",
    "locID": "LOC000044216044",
    "tech": "HFC",
    "upgrade": "NULL_NA",
    "gnaf_pid": "GAVIC411527734"
   }
  },
  {
   "type": "Feature",
   "geometry": {
    "type": "Point",
    "coordinates": [
     145.003646,
     -37.930252
    ]
   },
   "properties": {
    "name": "577A HAMPTON STREET HAMPTON 3188",
    "locID": "LOC000021803753",
    "tech": "HFC",
    "upgrade": "NULL_NA",
    "gnaf_pid": "GAVIC411527762"
   }
  },
  {
   "type": "Feature",
   "geometry": {
    "type": "Point",
    "coordinates": [
     144.995151,
     -37.933848
    ]
   },
   "properties": {
    "name": "12A BEACH ROAD HAMPTON 3188",
    "locID": "LOC000091003871",
    "tech": "HFC",
    "upgrade": "NULL_NA",
    "gnaf_pid": "GAVIC411527772"
   }
  },
  {
   "type": "Feature",
   "geometry": {
    "type": "Point",
    "coordinates": [
     145.00668211,
     -37.93267274
    ]
   },
   "properties": {
    "name": "UNIT 7, 8 PASSCHENDAELE STREET HAMPTON 3188",
    "locID": "LOC000051203445",
    "tech": "HFC",
    "upgrade": "NULL_NA",
    "gnaf_pid": "GAVIC411527773"
   }
  },
  {
   "type": "Feature",
   "geometry": {
    "type": "Point",
    "coordinates": [
     145.01865966,
     -37.93867719
    ]
   },
   "properties": {
    "name": "UNIT 1, 46 FEWSTER ROAD HAMPTON 3188",
    "locID": "LOC000046592945",
    "tech": "HFC",
    "upgrade": "NULL_NA",
    "gnaf_pid": "GAVIC411527782"
   }
  },
  {
   "type": "Feature",
   "geometry": {
    "type": "Point",
    "coordinates": [
     145.0137961,
     -37.94561008
    ]
   },
   "properties": {
    "name": "UNIT 2, 26 HIGHETT ROAD HAMPTON 3188",
    "locID": "LOC000063593006",
    "tech": "HFC",
    "upgrade": "NULL_NA",
    "gnaf_pid": "GAVIC411527790"
   }
  },
  {
   "type": "Feature",
   "geometry": {
    "type": "Point",
    "coordinates": [
     145.01195331,
     -37.93964969
    ]
   },
   "properties": {
    "name": "98 THOMAS STREET HAMPTON 3188",
    "locID": "LOC000123949399",
    "tech": "HFC",
    "upgrade": "NULL_NA",
    "gnaf_pid": "GAVIC411527793"
   }
  },
  {
   "type": "Feature",
   "geometry": {
    "type": "Point",
    "coordinates": [
     145.01818301,
     -37.9421093
    ]
   },
   "properties": {
    "name": "5A JAMES CRESCENT HAMPTON 3188",
    "locID": "LOC000006875699",
    "tech": "HFC",
    "upgrade": "NULL_NA",
    "gnaf_pid": "GAVIC411527805"
   }
  },
  {
   "type": "Feature",
   "geometry": {
    "type": "Point",
    "coordinates": [
     145.02129816,
     -37.9464313
    ]
   },
   "properties": {
    "name": "UNIT 3, 98 HIGHETT ROAD HAMPTON 3188",
    "locID": "LOC000060261852",
    "tech": "HFC",
    "upgrade": "NULL_NA",
    "gnaf_pid": "GAVIC411527807"
   }
  },
  {
   "type": "Feature",
   "geometry": {
    "type": "Point",
    "coordinates": [
     145.019309,
     -37.942259
    ]
   },
   "properties": {
    "name": "9 JAMES CRESCENT HAMPTON 3188",
    "locID": "LOC000040294045",
    "tech": "HFC",
    "upgrade": "NULL_NA",
    "gnaf_pid": "GAVIC411527832"
   }
  },
  {
   "type": "Feature",
   "geometry": {
    "type": "Point",
    "coordinates": [
     145.01179805,
     -37.94313005
    ]
   },
   "properties": {
    "name": "91 LINACRE ROAD HAMPTON 3188",
    "locID": "LOC000123949368",
    "tech": "HFC",
    "upgrade": "NULL_NA",
    "gnaf_pid": "GAVIC411527852"
   }
  },
  {
   "type": "Feature",
   "geometry": {
    "type": "Point",
    "coordinates": [
     145.00006612,
     -37.93952547
    ]
   },
   "properties": {
    "name": "UNIT 29, 56 BEACH ROAD HAMPTON 3188",
    "locID": "LOC000088607795",
    "tech": "HFC",
    "upgrade": "NULL_NA",
    "gnaf_pid": "GAVIC411527896"
   }
  },
  {
   "type": "Feature",
   "geometry": {
    "type": "Point",
    "coordinates": [
     145.02005626,
     -37.94598655
    ]
   },
   "properties": {
    "name": "UNIT 2, 83 HIGHETT ROAD HAMPTON 3188",
    "locID": "LOC000049813604",
    "tech": "HFC",
    "upgrade": "NULL_NA",
    "gnaf_pid": "GAVIC411527898"
   }
  },
  {
   "type": "Feature",
   "geometry": {
    "type": "Point",
    "coordinates": [
     145.009414,
     -37.94248
    ]
   },
   "properties": {
    "name": "2B KERFERD STREET HAMPTON 3188",
    "locID": "LOC000023818860",
    "tech": "HFC",
    "upgrade": "NULL_NA",
    "gnaf_pid": "GAVIC411527912"
   }
  },
  {
   "type": "Feature",
   "geometry": {
    "type": "Point",
    "coordinates": [
     145.00634981,
     -37.93319388
    ]
   },
   "properties": {
    "name": "UNIT 7, 31 LUDSTONE STREET HAMPTON 3188",
    "locID": "LOC000033521857",
    "tech": "HFC",
    "upgrade": "NULL_NA",
    "gnaf_pid": "GAVIC411530580"
   }
  },
  {
   "type": "Feature",
   "geometry": {
    "type": "Point",
    "coordinates": [
     145.00668211,
     -37.93267274
    ]
   },
   "properties": {
    "name": "UNIT 18, 8 PASSCHENDAELE STREET HAMPTON 3188",
    "locID": "LOC000051554507",
    "tech": "HFC",
    "upgrade": "NULL_NA",
    "gnaf_pid": "GAVIC411530582"
   }
  },
  {
   "type": "Feature",
   "geometry": {
    "type": "Point",
    "coordinates": [
     145.00368056,
     -37.93230636
    ]
   },
   "properties": {
    "name": "UNIT 1, 544 HAMPTON STREET HAMPTON 3188",
    "locID": "LOC000169426019",
    "tech": "HFC",
    "upgrade": "NULL_NA",
    "gnaf_pid": "GAVIC411530586"
   }
  },
  {
   "type": "Feature",
   "geometry": {
    "type": "Point",
    "coordinates": [
     145.00634981,
     -37.93319388
    ]
   },
   "properties": {
    "name": "27 LUDSTONE STREET HAMPTON 3188",
    "locID": "ChIJE5v1k9hu1moRbF2Lej_kibU",
    "tech": "HFC",
    "upgrade": "UNKNOWN",
    "gnaf_pid": "GAVIC411530646"
   }
  },
  {
   "type": "Feature",
   "geometry": {
    "type": "Point",
    "coordinates": [
     145.00142476,
     -37.93623486
    ]
   },
   "properties": {
    "name": "27 WILLIS STREET HAMPTON 3188",
    "locID": "LOC000024491779",
    "tech": "HFC",
    "upgrade": "NULL_NA",
    "gnaf_pid": "GAVIC411530647"
   }
  },
  {
   "type": "Feature",
   "geometry": {
    "type": "Point",
    "coordinates": [
     145.00640596,
     -37.93785993
    ]
   },
   "properties": {
    "name": "UNIT 1, 11 FOAM STREET HAMPTON 3188",
    "locID": "LOC000080557041",
    "tech": "HFC",
    "upgrade": "NULL_NA",
    "gnaf_pid": "GAVIC411530651"
   }
  },
  {
   "type": "Feature",
   "geometry": {
    "type": "Point",
    "coordinates": [
     145.01386221,
     -37.93408441
    ]
   },
   "properties": {
    "name": "UNIT 3, 91 LUDSTONE STREET HAMPTON 3188",
    "locID": "LOC000036971985",
    "tech": "HFC",
    "upgrade": "NULL_NA",
    "gnaf_pid": "GAVIC411530688"
   }
  },
  {
   "type": "Feature",
   "geometry": {
    "type": "Point",
    "coordinates": [
     145.00634981,
     -37.93319388
    ]
   },
   "properties": {
    "name": "UNIT 10, 19 LUDSTONE STREET HAMPTON 3188",
    "locID": "LOC000092867477",
    "tech": "HFC",
    "upgrade": "NULL_NA",
    "gnaf_pid": "GAVIC411530729"
   }
  },
  {
   "type": "Feature",
   "geometry": {
    "type": "Point",
    "coordinates": [
     145.00668211,
     -37.93267274
    ]
   },
   "properties": {
    "name": "UNIT 2, 8 PASSCHENDAELE STREET HAMPTON 3188",
    "locID": "LOC000051906682",
    "tech": "HFC",
    "upgrade": "NULL_NA",
    "gnaf_pid": "GAVIC411530780"
   }
  },
  {
   "type": "Feature",
   "geometry": {
    "type": "Point",
    "coordinates": [
     145.00668211,
     -37.93267274
    ]
   },
   "properties": {
    "name": "UNIT 17, 8 PASSCHENDAELE STREET HAMPTON 3188",
    "locID": "LOC000051221940",
    "tech": "HFC",
    "upgrade": "NULL_NA",
    "gnaf_pid": "GAVIC411530784"
   }
  },
  {
   "type": "Feature",
   "geometry": {
    "type": "Point",
    "coordinates": [
     145.004337,
     -37.932686
    ]
   },
   "properties": {
    "name": "5A LUDSTONE STREET HAMPTON 3188",
    "locID": "LOC000063432588",
    "tech": "HFC",
    "upgrade": "NULL_NA",
    "gnaf_pid": "GAVIC411530787"
   }
  },
  {
   "type": "Feature",
   "geometry": {
    "type": "Point",
    "coordinates": [
     145.02348827,
     -37.93945307
    ]
   },
   "properties": {
    "name": "467 BLUFF ROAD HAMPTON 3188",
    "locID": "ChIJK5d_wcZu1moRKK9uAc_w2LA",
    "tech": "HFC",
    "upgrade": "UNKNOWN",
    "gnaf_pid": "GAVIC411530855"
   }
  },
  {
   "type": "Feature",
   "geometry": {
    "type": "Point",
    "coordinates": [
     145.016434,
     -37.936164
    ]
   },
   "properties": {
    "name": "56A EARLSFIELD ROAD HAMPTON 3188",
    "locID": "LOC000081918167",
    "tech": "HFC",
    "upgrade": "NULL_NA",
    "gnaf_pid": "GAVIC411530856"
   }
  },
  {
   "type": "Feature",
   "geometry": {
    "type": "Point",
    "coordinates": [
     145.00668211,
     -37.93267274
    ]
   },
   "properties": {
    "name": "UNIT 11, 8 PASSCHENDAELE STREET HAMPTON 3188",
    "locID": "LOC000051991985",
    "tech": "HFC",
    "upgrade": "NULL_NA",
    "gnaf_pid": "GAVIC411530869"
   }
  },
  {
   "type": "Feature",
   "geometry": {
    "type": "Point",
    "coordinates": [
     145.00634981,
     -37.93319388
    ]
   },
   "properties": {
    "name": "UNIT 5, 31 LUDSTONE STREET HAMPTON 3188",
    "locID": "LOC000033422206",
    "tech": "HFC",
    "upgrade": "NULL_NA",
    "gnaf_pid": "GAVIC411530872"
   }
  },
  {
   "type": "Feature",
   "geometry": {
    "type": "Point",
    "coordinates": [
     144.99846225,
     -37.93747855
    ]
   },
   "properties": {
    "name": "41A BEACH ROAD HAMPTON 3188",
    "locID": "LOC000089627744",
    "tech": "HFC",
    "upgrade": "NULL_NA",
    "gnaf_pid": "GAVIC411531334"
   }
  },
  {
   "type": "Feature",
   "geometry": {
    "type": "Point",
    "coordinates": [
     145.002631,
     -37.937895
    ]
   },
   "properties": {
    "name": "418B HAMPTON STREET HAMPTON 3188",
    "locID": "ChIJk5wCKyBv1moRR0BSCbuGChw",
    "tech": "HFC",
    "upgrade": "UNKNOWN",
    "gnaf_pid": "GAVIC411531341"
   }
  },
  {
   "type": "Feature",
   "geometry": {
    "type": "Point",
    "coordinates": [
     144.99482551,
     -37.93005405
    ]
   },
   "properties": {
    "name": "6A GORDON STREET HAMPTON 3188",
    "locID": "LOC000103312078",
    "tech": "HFC",
    "upgrade": "NULL_NA",
    "gnaf_pid": "GAVIC411531344"
   }
  },