{
 "type": "FeatureCollection",
 "generated": "2023-09-25T03:12:10.090589",
 "suburb": "HARKNESS",
 "features": [
  {
   "type": "Feature",
   "geometry": {
    "type": "Point",
    "coordinates": [
     144.5651567,
     -37.66378761
    ]
   },
   "properties": {
    "name": "2 KIM LANE HARKNESS 3337",
    "locID": "LOC000079608676",
    "tech": "FTTC",
    "upgrade": "FTTP_SA",
    "gnaf_pid": "GAVIC719409168"
   }
  },
  {
   "type": "Feature",
   "geometry": {
    "type": "Point",
    "coordinates": [
     144.57127445,
     -37.66393095
    ]
   },
   "properties": {
    "name": "UNIT 14, 9 PETREA PLACE HARKNESS 3337",
    "locID": "LOC000114018830",
    "tech": "FTTN",
    "upgrade": "NULL_NA",
    "gnaf_pid": "GAVIC719409169"
   }
  },
  {
   "type": "Feature",
   "geometry": {
    "type": "Point",
    "coordinates": [
     144.56355754,
     -37.66645674
    ]
   },
   "properties": {
    "name": "UNIT 2, 4 GRANHOLM GROVE HARKNESS 3337",
    "locID": "LOC000115033191",
    "tech": "FTTC",
    "upgrade": "FTTP_NA",
    "gnaf_pid": "GAVIC719409170"
   }
  },
  {
   "type": "Feature",
   "geometry": {
    "type": "Point",
    "coordinates": [
     144.56387009,
     -37.66112464
    ]
   },
   "properties": {
    "name": "87 CAITLYN DRIVE HARKNESS 3337",
    "locID": "LOC000095452047",
    "tech": "FTTN",
    "upgrade": "FTTP_SA",
    "gnaf_pid": "GAVIC719409171"
   }
  },
  {
   "type": "Feature",
   "geometry": {
    "type": "Point",
    "coordinates": [
     144.54637091,
     -37.66386762
    ]
   },
   "properties": {
    "name": "49 LEAFY VIEW ESPLANADE HARKNESS 3337",
    "locID": "LOC000124522188",
    "tech": "FTTP",
    "upgrade": "NULL_NA",
    "gnaf_pid": "GAVIC719409172"
   }
  },
  {
   "type": "Feature",
   "geometry": {
    "type": "Point",
    "coordinates": [
     144.54659547,
     -37.6642828
    ]
   },
   "properties": {
    "name": "41 LEAFY VIEW ESPLANADE HARKNESS 3337",
    "locID": "LOC000124505799",
    "tech": "FTTP",
    "upgrade": "NULL_NA",
    "gnaf_pid": "GAVIC719409186"
   }
  },
  {
   "type": "Feature",
   "geometry": {
    "type": "Point",
    "coordinates": [
     144.55692556,
     -37.66432473
    ]
   },
   "properties": {
    "name": "23 CONNOLLY DRIVE HARKNESS 3337",
    "locID": "LOC000124509596",
    "tech": "FTTP",
    "upgrade": "NULL_NA",
    "gnaf_pid": "GAVIC719409187"
   }
  },
  {
   "type": "Feature",
   "geometry": {
    "type": "Point",
    "coordinates": [
     144.54552183,
     -37.66590643
    ]
   },
   "properties": {
    "name": "23 OAKPARK DRIVE HARKNESS 3337",
    "locID": "LOC000060353335",
    "tech": "FTTP",
    "upgrade": "NULL_NA",
    "gnaf_pid": "GAVIC719409188"
   }
  },
  {
   "type": "Feature",
   "geometry": {
    "type": "Point",
    "coordinates": [
     144.56506427,
     -37.6698925
    ]
   },
   "properties": {
    "name": "24 GALILEE BOULEVARD HARKNESS 3337",
    "locID": "LOC000056512861",
    "tech": "FTTN",
    "upgrade": "FTTP_SA",
    "gnaf_pid": "GAVIC719409189"
   }
  },
  {
   "type": "Feature",
   "geometry": {
    "type": "Point",
    "coordinates": [
     144.57012755,
     -37.6606605
    ]
   },
   "properties": {
    "name": "18 LOMANDRA BOWL HARKNESS 3337",
    "locID": "LOC000060412070",
    "tech": "FTTC",
    "upgrade": "FTTP_SA",
    "gnaf_pid": "GAVIC719409190"
   }
  },
  {
   "type": "Feature",
   "geometry": {
    "type": "Point",
    "coordinates": [
     144.55026782,
     -37.67213537
    ]
   },
   "properties": {
    "name": "26 STABLEFORD CHASE HARKNESS 3337",
    "locID": "LOC000067757964",
    "tech": "FTTP",
    "upgrade": "NULL_NA",
    "gnaf_pid": "GAVIC719409191"
   }
  },
  {
   "type": "Feature",
   "geometry": {
    "type": "Point",
    "coordinates": [
     144.57020078,
     -37.66284442
    ]
   },
   "properties": {
    "name": "UNIT 6, 20-22 ROSLYN PARK DRIVE HARKNESS 3337",
    "locID": "LOC000062997860",
    "tech": "FTTN",
    "upgrade": "NULL_NA",
    "gnaf_pid": "GAVIC719409192"
   }
  },
  {
   "type": "Feature",
   "geometry": {
    "type": "Point",
    "coordinates": [
     144.55637792,
     -37.66899151
    ]
   },
   "properties": {
    "name": "UNIT 4, 20 MARLO DRIVE HARKNESS 3337",
    "locID": "LOC000141763563",
    "tech": "FTTP",
    "upgrade": "NULL_NA",
    "gnaf_pid": "GAVIC719409203"
   }
  },
  {
   "type": "Feature",
   "geometry": {
    "type": "Point",
    "coordinates": [
     144.56210519,
     -37.66559212
    ]
   },
   "properties": {
    "name": "13 RIVERTON BOULEVARD HARKNESS 3337",
    "locID": "LOC000175859055",
    "tech": "FTTP",
    "upgrade": "NULL_NA",
    "gnaf_pid": "GAVIC719409204"
   }
  },
  {
   "type": "Feature",
   "geometry": {
    "type": "Point",
    "coordinates": [
     144.57002814,
     -37.66366334
    ]
   },
   "properties": {
    "name": "UNIT 39, 20-22 ROSLYN PARK DRIVE HARKNESS 3337",
    "locID": "LOC000062405884",
    "tech": "FTTN",
    "upgrade": "NULL_NA",
    "gnaf_pid": "GAVIC719409205"
   }
  },
  {
   "type": "Feature",
   "geometry": {
    "type": "Point",
    "coordinates": [
     144.56810175,
     -37.66239201
    ]
   },
   "properties": {
    "name": "36-40 ROSLYN PARK DRIVE HARKNESS 3337",
    "locID": "ChIJRQdcnwHt1moR_VUVGFdxToc",
    "tech": "FTTN",
    "upgrade": "UNKNOWN",
    "gnaf_pid": "GAVIC719409206"
   }
  },
  {
   "type": "Feature",
   "geometry": {
    "type": "Point",
    "coordinates": [
     144.57068531,
     -37.66287883
    ]
   },
   "properties": {
    "name": "UNIT 27, 20-22 ROSLYN PARK DRIVE HARKNESS 3337",
    "locID": "LOC000062403610",
    "tech": "FTTN",
    "upgrade": "NULL_NA",
    "gnaf_pid": "GAVIC719409207"
   }
  },
  {
   "type": "Feature",
   "geometry": {
    "type": "Point",
    "coordinates": [
     144.55463103,
     -37.66729434
    ]
   },
   "properties": {
    "name": "2 KALAMUNDA COURT HARKNESS 3337",
    "locID": "LOC000124555075",
    "tech": "FTTP",
    "upgrade": "NULL_NA",
    "gnaf_pid": "GAVIC719409214"
   }
  },
  {
   "type": "Feature",
   "geometry": {
    "type": "Point",
    "coordinates": [
     144.5701089,
     -37.66638918
    ]
   },
   "properties": {
    "name": "19 HILLCREST COURT HARKNESS 3337",
    "locID": "LOC000098062409",
    "tech": "FTTC",
    "upgrade": "FTTP_SA",
    "gnaf_pid": "GAVIC719409215"
   }
  },
  {
   "type": "Feature",
   "geometry": {
    "type": "Point",
    "coordinates": [
     144.55608203,
     -37.66747107
    ]
   },
   "properties": {
    "name": "24 BURSWOOD CIRCUIT HARKNESS 3337",
    "locID": "LOC000124513877",
    "tech": "FTTP",
    "upgrade": "NULL_NA",
    "gnaf_pid": "GAVIC719409216"
   }
  },
  {
   "type": "Feature",
   "geometry": {
    "type": "Point",
    "coordinates": [
     144.57141442,
     -37.65955323
    ]
   },
   "properties": {
    "name": "10 SCARLET OAK AVENUE HARKNESS 3337",
    "locID": "LOC000086533680",
    "tech": "FTTC",
    "upgrade": "FTTP_SA",
    "gnaf_pid": "GAVIC719409217"
   }
  },
  {
   "type": "Feature",
   "geometry": {
    "type": "Point",
    "coordinates": [
     144.55966247,
     -37.67025684
    ]
   },
   "properties": {
    "name": "12 PANGBOURNE AVENUE HARKNESS 3337",
    "locID": "LOC000009814768",
    "tech": "FTTP",
    "upgrade": "NULL_NA",
    "gnaf_pid": "GAVIC719409225"
   }
  },
  {
   "type": "Feature",
   "geometry": {
    "type": "Point",
    "coordinates": [
     144.5541208,
     -37.6672322
    ]
   },
   "properties": {
    "name": "5 KALAMUNDA COURT HARKNESS 3337",
    "locID": "LOC000124526543",
    "tech": "FTTP",
    "upgrade": "NULL_NA",
    "gnaf_pid": "GAVIC719409226"
   }
  },
  {
   "type": "Feature",
   "geometry": {
    "type": "Point",
    "coordinates": [
     144.5642402,
     -37.66978535
    ]
   },
   "properties": {
    "name": "5 TRISTRON COURT HARKNESS 3337",
    "locID": "LOC000101278286",
    "tech": "FTTN",
    "upgrade": "FTTP_SA",
    "gnaf_pid": "GAVIC719409227"
   }
  },
  {
   "type": "Feature",
   "geometry": {
    "type": "Point",
    "coordinates": [
     144.54104363,
     -37.66418642
    ]
   },
   "properties": {
    "name": "5 SHAHEEN COURT HARKNESS 3337",
    "locID": "LOC000124526656",
    "tech": "FTTP",
    "upgrade": "NULL_NA",
    "gnaf_pid": "GAVIC719409228"
   }
  },
  {
   "type": "Feature",
   "geometry": {
    "type": "Point",
    "coordinates": [
     144.57266201,
     -37.65316764
    ]
   },
   "properties": {
    "name": "20 LANCERS DRIVE HARKNESS 3337",
    "locID": "LOC000156913050",
    "tech": "FTTP",
    "upgrade": "NULL_NA",
    "gnaf_pid": "GAVIC719409229"
   }
  },
  {
   "type": "Feature",
   "geometry": {
    "type": "Point",
    "coordinates": [
     144.57002402,
     -37.65981348
    ]
   },
   "properties": {
    "name": "17 SCARLET OAK AVENUE HARKNESS 3337",
    "locID": "LOC000059060247",
    "tech": "FTTC",
    "upgrade": "FTTP_SA",
    "gnaf_pid": "GAVIC719409230"
   }
  },
  {
   "type": "Feature",
   "geometry": {
    "type": "Point",
    "coordinates": [
     144.54618298,
     -37.66474132
    ]
   },
   "properties": {
    "name": "18 HAWTHORN AVENUE HARKNESS 3337",
    "locID": "LOC000090912322",
    "tech": "FTTP",
    "upgrade": "NULL_NA",
    "gnaf_pid": "GAVIC719409231"
   }
  },
  {
   "type": "Feature",
   "geometry": {
    "type": "Point",
    "coordinates": [
     144.54120698,
     -37.66570935
    ]
   },
   "properties": {
    "name": "76 CLARET ASH BOULEVARD HARKNESS 3337",
    "locID": "LOC000139284575",
    "tech": "FTTP",
    "upgrade": "NULL_NA",
    "gnaf_pid": "GAVIC719409232"
   }
  },
  {
   "type": "Feature",
   "geometry": {
    "type": "Point",
    "coordinates": [
     144.55100602,
     -37.66822105
    ]
   },
   "properties": {
    "name": "2 FLEMINGS AVENUE HARKNESS 3337",
    "locID": "LOC000101465328",
    "tech": "FTTP",
    "upgrade": "NULL_NA",
    "gnaf_pid": "GAVIC719409233"
   }
  },
  {
   "type": "Feature",
   "geometry": {
    "type": "Point",
    "coordinates": [
     144.54306809,
     -37.66593291
    ]
   },
   "properties": {
    "name": "56 CLARET ASH BOULEVARD HARKNESS 3337",
    "locID": "LOC000139284677",
    "tech": "FTTP",
    "upgrade": "NULL_NA",
    "gnaf_pid": "GAVIC719409242"
   }
  },
  {
   "type": "Feature",
   "geometry": {
    "type": "Point",
    "coordinates": [
     144.55007671,
     -37.66412278
    ]
   },
   "properties": {
    "name": "53 RIVERBANK BOULEVARD HARKNESS 3337",
    "locID": "LOC000124535469",
    "tech": "FTTP",
    "upgrade": "NULL_NA",
    "gnaf_pid": "GAVIC719409243"
   }
  },
  {
   "type": "Feature",
   "geometry": {
    "type": "Point",
    "coordinates": [
     144.55122784,
     -37.66625283
    ]
   },
   "properties": {
    "name": "84 ARNOLDS CREEK BOULEVARD HARKNESS 3337",
    "locID": "LOC000114201787",
    "tech": "FTTP",
    "upgrade": "NULL_NA",
    "gnaf_pid": "GAVIC719409255"
   }
  },
  {
   "type": "Feature",
   "geometry": {
    "type": "Point",
    "coordinates": [
     144.56771271,
     -37.6668131
    ]
   },
   "properties": {
    "name": "28 PRINCETON AVENUE HARKNESS 3337",
    "locID": "LOC000031071938",
    "tech": "FTTC",
    "upgrade": "FTTP_SA",
    "gnaf_pid": "GAVIC719409256"
   }
  },
  {
   "type": "Feature",
   "geometry": {
    "type": "Point",
    "coordinates": [
     144.54469975,
     -37.67220041
    ]
   },
   "properties": {
    "name": "48 SOVEREIGN BOULEVARD HARKNESS 3337",
    "locID": "LOC000042604016",
    "tech": "FTTP",
    "upgrade": "NULL_NA",
    "gnaf_pid": "GAVIC719409257"
   }
  },
  {
   "type": "Feature",
   "geometry": {
    "type": "Point",
    "coordinates": [
     144.55923099,
     -37.66462526
    ]
   },
   "properties": {
    "name": "39 NORANDA CIRCUIT HARKNESS 3337",
    "locID": "LOC000124497588",
    "tech": "FTTP",
    "upgrade": "NULL_NA",
    "gnaf_pid": "GAVIC719409258"
   }
  },
  {
   "type": "Feature",
   "geometry": {
    "type": "Point",
    "coordinates": [
     144.56243115,
     -37.66894593
    ]
   },
   "properties": {
    "name": "7 DULCIFY COURT HARKNESS 3337",
    "locID": "LOC000023841720",
    "tech": "FTTN",
    "upgrade": "FTTP_SA",
    "gnaf_pid": "GAVIC719409271"
   }
  },
  {
   "type": "Feature",
   "geometry": {
    "type": "Point",
    "coordinates": [
     144.55244112,
     -37.66388796
    ]
   },
   "properties": {
    "name": "7 SINCLAIR COURT HARKNESS 3337",
    "locID": "LOC000124497751",
    "tech": "FTTP",
    "upgrade": "NULL_NA",
    "gnaf_pid": "GAVIC719409272"
   }
  },
  {
   "type": "Feature",
   "geometry": {
    "type": "Point",
    "coordinates": [
     144.55956421,
     -37.66466566
    ]
   },
   "properties": {
    "name": "43 NORANDA CIRCUIT HARKNESS 3337",
    "locID": "LOC000141247902",
    "tech": "FTTP",
    "upgrade": "NULL_NA",
    "gnaf_pid": "GAVIC719409273"
   }
  },
  {
   "type": "Feature",
   "geometry": {
    "type": "Point",
    "coordinates": [
     144.54667158,
     -37.67190831
    ]
   },
   "properties": {
    "name": "4 ROSEDALE COURT HARKNESS 3337",
    "locID": "LOC000067880238",
    "tech": "FTTP",
    "upgrade": "NULL_NA",
    "gnaf_pid": "GAVIC719409274"
   }
  },
  {
   "type": "Feature",
   "geometry": {
    "type": "Point",
    "coordinates": [
     144.5598213,
     -37.66762916
    ]
   },
   "properties": {
    "name": "3 BATEMAN DRIVE HARKNESS 3337",
    "locID": "LOC000124535392",
    "tech": "FTTP",
    "upgrade": "NULL_NA",
    "gnaf_pid": "GAVIC719409275"
   }
  },
  {
   "type": "Feature",
   "geometry": {
    "type": "Point",
    "coordinates": [
     144.54260695,
     -37.66307674
    ]
   },
   "properties": {
    "name": "39 CHANTICLEER AVENUE HARKNESS 3337",
    "locID": "LOC000114081693",
    "tech": "FTTP",
    "upgrade": "NULL_NA",
    "gnaf_pid": "GAVIC719409276"
   }
  },
  {
   "type": "Feature",
   "geometry": {
    "type": "Point",
    "coordinates": [
     144.5528346,
     -37.66400095
    ]
   },
   "properties": {
    "name": "9 SINCLAIR COURT HARKNESS 3337",
    "locID": "LOC000124514451",
    "tech": "FTTP",
    "upgrade": "NULL_NA",
    "gnaf_pid": "GAVIC719409277"
   }
  },
  {
   "type": "Feature",
   "geometry": {
    "type": "Point",
    "coordinates": [
     144.53963602,
     -37.6632176
    ]
   },
   "properties": {
    "name": "31 MOOR PARK AVENUE HARKNESS 3337",
    "locID": "LOC000167354027",
    "tech": "FTTP",
    "upgrade": "NULL_NA",
    "gnaf_pid": "GAVIC719409278"
   }
  },
  {
   "type": "Feature",
   "geometry": {
    "type": "Point",
    "coordinates": [
     144.55694993,
     -37.66419777
    ]
   },
   "properties": {
    "name": "25 CONNOLLY DRIVE HARKNESS 3337",
    "locID": "LOC000124517979",
    "tech": "FTTP",
    "upgrade": "NULL_NA",
    "gnaf_pid": "GAVIC719409286"
   }
  },
  {
   "type": "Feature",
   "geometry": {
    "type": "Point",
    "coordinates": [
     144.5503696,
     -37.66712518
    ]
   },
   "properties": {
    "name": "53 GALLERY AVENUE HARKNESS 3337",
    "locID": "LOC000006068264",
    "tech": "FTTP",
    "upgrade": "NULL_NA",
    "gnaf_pid": "GAVIC719409287"
   }
  },
  {
   "type": "Feature",
   "geometry": {
    "type": "Point",
    "coordinates": [
     144.56556674,
     -37.6645875
    ]
   },
   "properties": {
    "name": "1 OAKBANK COURT HARKNESS 3337",
    "locID": "LOC000081840268",
    "tech": "FTTC",
    "upgrade": "FTTP_SA",
    "gnaf_pid": "GAVIC719409288"
   }
  },
  {
   "type": "Feature",
   "geometry": {
    "type": "Point",
    "coordinates": [
     144.55448069,
     -37.66768255
    ]
   },
   "properties": {
    "name": "UNIT 2, 30 LADY PENRHYN DRIVE HARKNESS 3337",
    "locID": "LOC000148626940",
    "tech": "FTTP",
    "upgrade": "NULL_NA",
    "gnaf_pid": "GAVIC719409289"
   }
  },
  {
   "type": "Feature",
   "geometry": {
    "type": "Point",
    "coordinates": [
     144.55393553,
     -37.66544815
    ]
   },
   "properties": {
    "name": "19 COOLOONGUP CRESCENT HARKNESS 3337",
    "locID": "LOC000124546771",
    "tech": "FTTP",
    "upgrade": "NULL_NA",
    "gnaf_pid": "GAVIC719409290"
   }
  },
  {
   "type": "Feature",
   "geometry": {
    "type": "Point",
    "coordinates": [
     144.54689704,
     -37.66311554
    ]
   },
   "properties": {
    "name": "54 CARUANA CRESCENT HARKNESS 3337",
    "locID": "LOC000182715208",
    "tech": "FTTP",
    "upgrade": "NULL_NA",
    "gnaf_pid": "GAVIC719409291"
   }
  },
  {
   "type": "Feature",
   "geometry": {
    "type": "Point",
    "coordinates": [
     144.57293945,
     -37.6574105
    ]
   },
   "properties": {
    "name": "8 ASHTON CIRCUIT HARKNESS 3337",
    "locID": "LOC000164244075",
    "tech": "FTTP",
    "upgrade": "NULL_NA",
    "gnaf_pid": "GAVIC719409292"
   }
  },
  {
   "type": "Feature",
   "geometry": {
    "type": "Point",
    "coordinates": [
     144.53799116,
     -37.66734059
    ]
   },
   "properties": {
    "name": "6 PORTMAN AVENUE HARKNESS 3337",
    "locID": "LOC000115791858",
    "tech": "FTTP",
    "upgrade": "NULL_NA",
    "gnaf_pid": "GAVIC719409293"
   }
  },
  {
   "type": "Feature",
   "geometry": {
    "type": "Point",
    "coordinates": [
     144.53605231,
     -37.66870452
    ]
   },
   "properties": {
    "name": "105 LONG TREE DRIVE HARKNESS 3337",
    "locID": "LOC000091429428",
    "tech": "FTTP",
    "upgrade": "NULL_NA",
    "gnaf_pid": "GAVIC719409299"
   }
  },
  {
   "type": "Feature",
   "geometry": {
    "type": "Point",
    "coordinates": [
     144.54694923,
     -37.6674766
    ]
   },
   "properties": {
    "name": "39A PANORAMA DRIVE HARKNESS 3337",
    "locID": "ChIJsTECr-vs1moRDc10OZfMmmw",
    "tech": "FTTP",
    "upgrade": "UNKNOWN",
    "gnaf_pid": "GAVIC719409300"
   }
  },
  {
   "type": "Feature",
   "geometry": {
    "type": "Point",
    "coordinates": [
     144.56212193,
     -37.66741196
    ]
   },
   "properties": {
    "name": "46 BATEMAN DRIVE HARKNESS 3337",
    "locID": "LOC000164582753",
    "tech": "FTTP",
    "upgrade": "NULL_NA",
    "gnaf_pid": "GAVIC719409301"
   }
  },
  {
   "type": "Feature",
   "geometry": {
    "type": "Point",
    "coordinates": [
     144.5495135,
     -37.66343299
    ]
   },
   "properties": {
    "name": "16 CARUANA CRESCENT HARKNESS 3337",
    "locID": "LOC000124526222",
    "tech": "FTTP",
    "upgrade": "NULL_NA",
    "gnaf_pid": "GAVIC719409302"
   }
  },
  {
   "type": "Feature",
   "geometry": {
    "type": "Point",
    "coordinates": [
     144.56418107,
     -37.66295519
    ]
   },
   "properties": {
    "name": "62 ROSLYN PARK DRIVE HARKNESS 3337",
    "locID": "LOC000057534585",
    "tech": "FTTC",
    "upgrade": "FTTP_SA",
    "gnaf_pid": "GAVIC719409303"
   }
  },
  {
   "type": "Feature",
   "geometry": {
    "type": "Point",
    "coordinates": [
     144.53905119,
     -37.66216268
    ]
   },
   "properties": {
    "name": "42 LONG FOREST AVENUE HARKNESS 3337",
    "locID": "LOC000167354193",
    "tech": "FTTP",
    "upgrade": "NULL_NA",
    "gnaf_pid": "GAVIC719409310"
   }
  },
  {
   "type": "Feature",
   "geometry": {
    "type": "Point",
    "coordinates": [
     144.54221733,
     -37.66277994
    ]
   },
   "properties": {
    "name": "46 CHANTICLEER AVENUE HARKNESS 3337",
    "locID": "LOC000114819858",
    "tech": "FTTP",
    "upgrade": "NULL_NA",
    "gnaf_pid": "GAVIC719409311"
   }
  },
  {
   "type": "Feature",
   "geometry": {
    "type": "Point",
    "coordinates": [
     144.56070954,
     -37.66887001
    ]
   },
   "properties": {
    "name": "21 SCARBOROUGH CRESCENT HARKNESS 3337",
    "locID": "LOC000004790017",
    "tech": "FTTP",
    "upgrade": "NULL_NA",
    "gnaf_pid": "GAVIC719409312"
   }
  },
  {
   "type": "Feature",
   "geometry": {
    "type": "Point",
    "coordinates": [
     144.5534916,
     -37.66675452
    ]
   },
   "properties": {
    "name": "10 KALAMUNDA COURT HARKNESS 3337",
    "locID": "LOC000124493159",
    "tech": "FTTP",
    "upgrade": "NULL_NA",
    "gnaf_pid": "GAVIC719409313"
   }
  },
  {
   "type": "Feature",
   "geometry": {
    "type": "Point",
    "coordinates": [
     144.54637623,
     -37.66959509
    ]
   },
   "properties": {
    "name": "7 PARRIS AVENUE HARKNESS 3337",
    "locID": "LOC000051984340",
    "tech": "FTTP",
    "upgrade": "NULL_NA",
    "gnaf_pid": "GAVIC719409314"
   }
  },
  {
   "type": "Feature",
   "geometry": {
    "type": "Point",
    "coordinates": [
     144.56381195,
     -37.66376281
    ]
   },
   "properties": {
    "name": "26 CAITLYN DRIVE HARKNESS 3337",
    "locID": "LOC000060489500",
    "tech": "FTTC",
    "upgrade": "FTTP_SA",
    "gnaf_pid": "GAVIC719409322"
   }
  },
  {
   "type": "Feature",
   "geometry": {
    "type": "Point",
    "coordinates": [
     144.55063907,
     -37.66843886
    ]
   },
   "properties": {
    "name": "9 BLOSSOM AVENUE HARKNESS 3337",
    "locID": "LOC000077883774",
    "tech": "FTTP",
    "upgrade": "NULL_NA",
    "gnaf_pid": "GAVIC719409323"
   }
  },
  {
   "type": "Feature",
   "geometry": {
    "type": "Point",
    "coordinates": [
     144.55603597,
     -37.66798561
    ]
   },
   "properties": {
    "name": "10 LADY PENRHYN DRIVE HARKNESS 3337",
    "locID": "LOC000114213689",
    "tech": "FTTP",
    "upgrade": "NULL_NA",
    "gnaf_pid": "GAVIC719409324"
   }
  },
  {
   "type": "Feature",
   "geometry": {
    "type": "Point",
    "coordinates": [
     144.56447116,
     -37.66047526
    ]
   },
   "properties": {
    "name": "58 CAITLYN DRIVE HARKNESS 3337",
    "locID": "LOC000104039330",
    "tech": "FTTN",
    "upgrade": "FTTP_SA",
    "gnaf_pid": "GAVIC719409325"
   }
  },
  {
   "type": "Feature",
   "geometry": {
    "type": "Point",
    "coordinates": [
     144.55040858,
     -37.67127024
    ]
   },
   "properties": {
    "name": "15 ROBINIA COURT HARKNESS 3337",
    "locID": "LOC000071828124",
    "tech": "FTTP",
    "upgrade": "NULL_NA",
    "gnaf_pid": "GAVIC719409326"
   }
  },
  {
   "type": "Feature",
   "geometry": {
    "type": "Point",
    "coordinates": [
     144.56319699,
     -37.66806062
    ]
   },
   "properties": {
    "name": "12 GROSVENOR COURT HARKNESS 3337",
    "locID": "LOC000092719081",
    "tech": "FTTN",
    "upgrade": "FTTP_SA",
    "gnaf_pid": "GAVIC719409327"
   }
  },
  {
   "type": "Feature",
   "geometry": {
    "type": "Point",
    "coordinates": [
     144.54388892,
     -37.66477345
    ]
   },
   "properties": {
    "name": "4 CHERRY CLOSE HARKNESS 3337",
    "locID": "LOC000114627880",
    "tech": "FTTP",
    "upgrade": "NULL_NA",
    "gnaf_pid": "GAVIC719409330"
   }
  },
  {
   "type": "Feature",
   "geometry": {
    "type": "Point",
    "coordinates": [
     144.56918617,
     -37.65392375
    ]
   },
   "properties": {
    "name": "5 FIELD AVENUE HARKNESS 3337",
    "locID": "LOC000173755618",
    "tech": "FTTP",
    "upgrade": "NULL_NA",
    "gnaf_pid": "GAVIC719409331"
   }
  },
  {
   "type": "Feature",
   "geometry": {
    "type": "Point",
    "coordinates": [
     144.55076436,
     -37.66430339
    ]
   },
   "properties": {
    "name": "34 ORMONDE ESPLANADE HARKNESS 3337",
    "locID": "LOC000124555317",
    "tech": "FTTP",
    "upgrade": "NULL_NA",
    "gnaf_pid": "GAVIC719409384"
   }
  },
  {
   "type": "Feature",
   "geometry": {
    "type": "Point",
    "coordinates": [
     144.57191101,
     -37.65307627
    ]
   },
   "properties": {
    "name": "32 LANCERS DRIVE HARKNESS 3337",
    "locID": "LOC000173754418",
    "tech": "FTTP",
    "upgrade": "NULL_NA",
    "gnaf_pid": "GAVIC719409385"
   }
  },
  {
   "type": "Feature",
   "geometry": {
    "type": "Point",
    "coordinates": [
     144.5683101,
     -37.66830181
    ]
   },
   "properties": {
    "name": "3 PARK LANE HARKNESS 3337",
    "locID": "LOC000094838973",
    "tech": "FTTC",
    "upgrade": "FTTP_SA",
    "gnaf_pid": "GAVIC719409386"
   }
  },
  {
   "type": "Feature",
   "geometry": {
    "type": "Point",
    "coordinates": [
     144.57178078,
     -37.65872118
    ]
   },
   "properties": {
    "name": "5 MURNONG MEWS HARKNESS 3337",
    "locID": "LOC000100293777",
    "tech": "FTTC",
    "upgrade": "FTTP_SA",
    "gnaf_pid": "GAVIC719409387"
   }
  },
  {
   "type": "Feature",
   "geometry": {
    "type": "Point",
    "coordinates": [
     144.5555059,
     -37.66826861
    ]
   },
   "properties": {
    "name": "7 LADY PENRHYN DRIVE HARKNESS 3337",
    "locID": "LOC000114105180",
    "tech": "FTTP",
    "upgrade": "NULL_NA",
    "gnaf_pid": "GAVIC719409388"
   }
  },
  {
   "type": "Feature",
   "geometry": {
    "type": "Point",
    "coordinates": [
     144.54099294,
     -37.66519159
    ]
   },
   "properties": {
    "name": "71 OAKPARK DRIVE HARKNESS 3337",
    "locID": "LOC000114810111",
    "tech": "FTTP",
    "upgrade": "NULL_NA",
    "gnaf_pid": "GAVIC719409389"
   }
  },
  {
   "type": "Feature",
   "geometry": {
    "type": "Point",
    "coordinates": [
     144.54018959,
     -37.66509513
    ]
   },
   "properties": {
    "name": "81 OAKPARK DRIVE HARKNESS 3337",
    "locID": "LOC000115033115",
    "tech": "FTTP",
    "upgrade": "NULL_NA",
    "gnaf_pid": "GAVIC719409390"
   }
  },
  {
   "type": "Feature",
   "geometry": {
    "type": "Point",
    "coordinates": [
     144.56968077,
     -37.66271385
    ]
   },
   "properties": {
    "name": "10 ROSEMONT RISE HARKNESS 3337",
    "locID": "LOC000028626730",
    "tech": "FTTP",
    "upgrade": "NULL_NA",
    "gnaf_pid": "GAVIC719409809"
   }
  },
  {
   "type": "Feature",
   "geometry": {
    "type": "Point",
    "coordinates": [
     144.56345486,
     -37.66571974
    ]
   },
   "properties": {
    "name": "6 REIDY RISE HARKNESS 3337",
    "locID": "LOC000156914884",
    "tech": "FTTC",
    "upgrade": "NULL_NA",
    "gnaf_pid": "GAVIC719409810"
   }
  },
  {
   "type": "Feature",
   "geometry": {
    "type": "Point",
    "coordinates": [
     144.55322667,
     -37.66897754
    ]
   },
   "properties": {
    "name": "UNIT 2, 266 BULMANS ROAD HARKNESS 3337",
    "locID": "LOC000149353355",
    "tech": "FTTP",
    "upgrade": "NULL_NA",
    "gnaf_pid": "GAVIC719409811"
   }
  },
  {
   "type": "Feature",
   "geometry": {
    "type": "Point",
    "coordinates": [
     144.5476886,
     -37.66903432
    ]
   },
   "properties": {
    "name": "19 RIVER VIEWS ROAD HARKNESS 3337",
    "locID": "LOC000093175608",
    "tech": "FTTP",
    "upgrade": "NULL_NA",
    "gnaf_pid": "GAVIC719409812"
   }
  },
  {
   "type": "Feature",
   "geometry": {
    "type": "Point",
    "coordinates": [
     144.57127445,
     -37.66393095
    ]
   },
   "properties": {
    "name": "UNIT 31, 9 PETREA PLACE HARKNESS 3337",
    "locID": "LOC000112971949",
    "tech": "FTTN",
    "upgrade": "NULL_NA",
    "gnaf_pid": "GAVIC719409813"
   }
  },
  {
   "type": "Feature",
   "geometry": {
    "type": "Point",
    "coordinates": [
     144.56210149,
     -37.64978885
    ]
   },
   "properties": {
    "name": "664-678 MINNS ROAD HARKNESS 3337",
    "locID": "LOC100078150455",
    "tech": "SATELLITE",
    "upgrade": "NULL_NA",
    "gnaf_pid": "GAVIC719409814"
   }
  },
  {
   "type": "Feature",
   "geometry": {
    "type": "Point",
    "coordinates": [
     144.56514745,
     -37.66484093
    ]
   },
   "properties": {
    "name": "7 CAITLYN DRIVE HARKNESS 3337",
    "locID": "LOC000107981831",
    "tech": "FTTC",
    "upgrade": "FTTP_SA",
    "gnaf_pid": "GAVIC719409815"
   }
  },
  {
   "type": "Feature",
   "geometry": {
    "type": "Point",
    "coordinates": [
     144.57127445,
     -37.66393095
    ]
   },
   "properties": {
    "name": "9 PETREA PLACE HARKNESS 3337",
    "locID": "LOC000113250294",
    "tech": "FTTN",
    "upgrade": "NULL_NA",
    "gnaf_pid": "GAVIC719409816"
   }
  },
  {
   "type": "Feature",
   "geometry": {
    "type": "Point",
    "coordinates": [
     144.56687484,
     -37.65802603
    ]
   },
   "properties": {
    "name": "8 GOLDEN WATTLE WAY HARKNESS 3337",
    "locID": "LOC000104655870",
    "tech": "FTTN",
    "upgrade": "FTTP_SA",
    "gnaf_pid": "GAVIC719409817"
   }
  },
  {
   "type": "Feature",
   "geometry": {
    "type": "Point",
    "coordinates": [
     144.56460448,
     -37.66225047
    ]
   },
   "properties": {
    "name": "9 JOSEPH PLACE HARKNESS 3337",
    "locID": "LOC000058122721",
    "tech": "FTTC",
    "upgrade": "FTTP_SA",
    "gnaf_pid": "GAVIC719409818"
   }
  },
  {
   "type": "Feature",
   "geometry": {
    "type": "Point",
    "coordinates": [
     144.56745957,
     -37.66676847
    ]
   },
   "properties": {
    "name": "30 PRINCETON AVENUE HARKNESS 3337",
    "locID": "LOC000104480233",
    "tech": "FTTC",
    "upgrade": "FTTP_SA",
    "gnaf_pid": "GAVIC719409819"
   }
  },
  {
   "type": "Feature",
   "geometry": {
    "type": "Point",
    "coordinates": [
     144.56757366,
     -37.65525314
    ]
   },
   "properties": {
    "name": "57 WILLANDRA BOULEVARD HARKNESS 3337",
    "locID": "LOC000168510549",
    "tech": "FTTP",
    "upgrade": "NULL_NA",
    "gnaf_pid": "GAVIC719409820"
   }
  },
  {
   "type": "Feature",
   "geometry": {
    "type": "Point",
    "coordinates": [
     144.53563749,
     -37.66504001
    ]
   },
   "properties": {
    "name": "142 CLARET ASH BOULEVARD HARKNESS 3337",
    "locID": "LOC000173233513",
    "tech": "FTTP",
    "upgrade": "NULL_NA",
    "gnaf_pid": "GAVIC719409821"
   }
  },
  {
   "type": "Feature",
   "geometry": {
    "type": "Point",
    "coordinates": [
     144.55699427,
     -37.66641596
    ]
   },
   "properties": {
    "name": "34 MINT BOULEVARD HARKNESS 3337",
    "locID": "ChIJ45ofBOXs1moRLyMtq3fu-3c",
    "tech": "NULL",
    "upgrade": "UNKNOWN",
    "gnaf_pid": "GAVIC719409822"
   }
  },
  {
   "type": "Feature",
   "geometry": {
    "type": "Point",
    "coordinates": [
     144.56665151,
     -37.66414564
    ]
   },
   "properties": {
    "name": "38 COOTAMUNDRA CIRCUIT HARKNESS 3337",
    "locID": "LOC000051838367",
    "tech": "FTTN",
    "upgrade": "FTTP_SA",
    "gnaf_pid": "GAVIC719409823"
   }
  },
  {
   "type": "Feature",
   "geometry": {
    "type": "Point",
    "coordinates": [
     144.56779668,
     -37.66112654
    ]
   },
   "properties": {
    "name": "15 FIDDLEWOOD TURN HARKNESS 3337",
    "locID": "LOC000082193908",
    "tech": "FTTN",
    "upgrade": "FTTP_SA",
    "gnaf_pid": "GAVIC719409824"
   }
  },
  {
   "type": "Feature",
   "geometry": {
    "type": "Point",
    "coordinates": [
     144.56718078,
     -37.66131035
    ]
   },
   "properties": {
    "name": "14 FIDDLEWOOD TURN HARKNESS 3337",
    "locID": "LOC000075252768",
    "tech": "FTTN",
    "upgrade": "FTTP_SA",
    "gnaf_pid": "GAVIC719409825"
   }
  },
  {
   "type": "Feature",
   "geometry": {
    "type": "Point",
    "coordinates": [
     144.5608011,
     -37.66706679
    ]
   },
   "properties": {
    "name": "28 MANDURAH CRESCENT HARKNESS 3337",
    "locID": "LOC000164583032",
    "tech": "FTTP",
    "upgrade": "NULL_NA",
    "gnaf_pid": "GAVIC719409826"
   }
  },
  {
   "type": "Feature",
   "geometry": {
    "type": "Point",
    "coordinates": [
     144.56759696,
     -37.66137535
    ]
   },
   "properties": {
    "name": "18 FIDDLEWOOD TURN HARKNESS 3337",
    "locID": "LOC000090320048",
    "tech": "FTTN",
    "upgrade": "FTTP_SA",
    "gnaf_pid": "GAVIC719409827"
   }
  },
  {
   "type": "Feature",
   "geometry": {
    "type": "Point",
    "coordinates": [
     144.55273309,
     -37.66663349
    ]
   },
   "properties": {
    "name": "245 BULMANS ROAD HARKNESS 3337",
    "locID": "LOC000112911371",
    "tech": "FTTP",
    "upgrade": "NULL_NA",
    "gnaf_pid": "GAVIC719409828"
   }
  },
  {
   "type": "Feature",
   "geometry": {
    "type": "Point",
    "coordinates": [
     144.5636815,
     -37.66585788
    ]
   },
   "properties": {
    "name": "UNIT 2, 5 REIDY RISE HARKNESS 3337",
    "locID": "LOC000138455317",
    "tech": "FTTC",
    "upgrade": "FTTP_NA",
    "gnaf_pid": "GAVIC719409829"
   }
  },
  {
   "type": "Feature",
   "geometry": {
    "type": "Point",
    "coordinates": [
     144.55886762,
     -37.66865072
    ]
   },
   "properties": {
    "name": "35 SCARBOROUGH CRESCENT HARKNESS 3337",
    "locID": "LOC000091792461",
    "tech": "FTTP",
    "upgrade": "NULL_NA",
    "gnaf_pid": "GAVIC719409830"
   }
  },
  {
   "type": "Feature",
   "geometry": {
    "type": "Point",
    "coordinates": [
     144.55335562,
     -37.66766636
    ]
   },
   "properties": {
    "name": "44 LADY PENRHYN DRIVE HARKNESS 3337",
    "locID": "LOC000113165159",
    "tech": "FTTP",
    "upgrade": "NULL_NA",
    "gnaf_pid": "GAVIC719409831"
   }
  },
  {
   "type": "Feature",
   "geometry": {
    "type": "Point",
    "coordinates": [
     144.54876586,
     -37.67395912
    ]
   },
   "properties": {
    "name": "10 ROYAL TERRACE HARKNESS 3337",
    "locID": "LOC000101359551",
    "tech": "FTTP",
    "upgrade": "NULL_NA",
    "gnaf_pid": "GAVIC719409832"
   }
  },
  {
   "type": "Feature",
   "geometry": {
    "type": "Point",
    "coordinates": [
     144.53758391,
     -37.66905474
    ]
   },
   "properties": {
    "name": "1 KATE AVENUE HARKNESS 3337",
    "locID": "LOC000124554870",
    "tech": "FTTP",
    "upgrade": "NULL_NA",
    "gnaf_pid": "GAVIC719409833"
   }
  },
  {
   "type": "Feature",
   "geometry": {
    "type": "Point",
    "coordinates": [
     144.55005634,
     -37.67054054
    ]
   },
   "properties": {
    "name": "17 ARNOLDS CREEK BOULEVARD HARKNESS 3337",
    "locID": "LOC000092944569",
    "tech": "FTTP",
    "upgrade": "NULL_NA",
    "gnaf_pid": "GAVIC719409835"
   }
  },
  {
   "type": "Feature",
   "geometry": {
    "type": "Point",
    "coordinates": [
     144.54042764,
     -37.66561577
    ]
   },
   "properties": {
    "name": "86 CLARET ASH BOULEVARD HARKNESS 3337",
    "locID": "LOC000165029505",
    "tech": "FTTP",
    "upgrade": "NULL_NA",
    "gnaf_pid": "GAVIC719409836"
   }
  },
  {
   "type": "Feature",
   "geometry": {
    "type": "Point",
    "coordinates": [
     144.54841487,
     -37.67182591
    ]
   },
   "properties": {
    "name": "3 BALLAMORE VISTA HARKNESS 3337",
    "locID": "LOC000101974474",
    "tech": "FTTP",
    "upgrade": "NULL_NA",
    "gnaf_pid": "GAVIC719409837"
   }
  },
  {
   "type": "Feature",
   "geometry": {
    "type": "Point",
    "coordinates": [
     144.54300558,
     -37.66368608
    ]
   },
   "properties": {
    "name": "14 GAUTAM GROVE HARKNESS 3337",
    "locID": "LOC000092514657",
    "tech": "FTTP",
    "upgrade": "NULL_NA",
    "gnaf_pid": "GAVIC719409839"
   }
  },
  {
   "type": "Feature",
   "geometry": {
    "type": "Point",
    "coordinates": [
     144.54888064,
     -37.66609965
    ]
   },
   "properties": {
    "name": "2 ORMONDE ESPLANADE HARKNESS 3337",
    "locID": "LOC000124555178",
    "tech": "FTTP",
    "upgrade": "NULL_NA",
    "gnaf_pid": "GAVIC719409840"
   }
  },
  {
   "type": "Feature",
   "geometry": {
    "type": "Point",
    "coordinates": [
     144.55508321,
     -37.65557947
    ]
   },
   "properties": {
    "name": "429-455 BULMANS ROAD HARKNESS 3337",
    "locID": "LOC000107745445",
    "tech": "SATELLITE",
    "upgrade": "NULL_NA",
    "gnaf_pid": "GAVIC719409841"
   }
  },
  {
   "type": "Feature",
   "geometry": {
    "type": "Point",
    "coordinates": [
     144.55470437,
     -37.6693605
    ]
   },
   "properties": {
    "name": "7 FISHBURN GROVE HARKNESS 3337",
    "locID": "LOC000124530322",
    "tech": "FTTP",
    "upgrade": "NULL_NA",
    "gnaf_pid": "GAVIC719409842"
   }
  },
  {
   "type": "Feature",
   "geometry": {
    "type": "Point",
    "coordinates": [
     144.57002358,
     -37.65412784
    ]
   },
   "properties": {
    "name": "3 POTTER LANE HARKNESS 3337",
    "locID": "LOC000173755809",
    "tech": "FTTP",
    "upgrade": "NULL_NA",
    "gnaf_pid": "GAVIC719409843"
   }
  },
  {
   "type": "Feature",
   "geometry": {
    "type": "Point",
    "coordinates": [
     144.53471655,
     -37.66510941
    ]
   },
   "properties": {
    "name": "338-378 HARKNESS ROAD HARKNESS 3337",
    "locID": "LOC000033873811",
    "tech": "WIRELESS",
    "upgrade": "NULL_NA",
    "gnaf_pid": "GAVIC719409844"
   }
  },
  {
   "type": "Feature",
   "geometry": {
    "type": "Point",
    "coordinates": [
     144.56465027,
     -37.6693793
    ]
   },
   "properties": {
    "name": "30 GALILEE BOULEVARD HARKNESS 3337",
    "locID": "LOC000015647474",
    "tech": "FTTN",
    "upgrade": "FTTP_SA",
    "gnaf_pid": "GAVIC719409845"
   }
  },
  {
   "type": "Feature",
   "geometry": {
    "type": "Point",
    "coordinates": [
     144.53629117,
     -37.66468125
    ]
   },
   "properties": {
    "name": "21 SCENIC WAY HARKNESS 3337",
    "locID": "LOC000173233337",
    "tech": "FTTP",
    "upgrade": "NULL_NA",
    "gnaf_pid": "GAVIC719409846"
   }
  },
  {
   "type": "Feature",
   "geometry": {
    "type": "Point",
    "coordinates": [
     144.54369004,
     -37.66996032
    ]
   },
   "properties": {
    "name": "53 MERRYSTOWE WAY HARKNESS 3337",
    "locID": "LOC000011053255",
    "tech": "FTTP",
    "upgrade": "NULL_NA",
    "gnaf_pid": "GAVIC719409848"
   }
  },
  {
   "type": "Feature",
   "geometry": {
    "type": "Point",
    "coordinates": [
     144.54998383,
     -37.67121859
    ]
   },
   "properties": {
    "name": "17 ROBINIA COURT HARKNESS 3337",
    "locID": "LOC000101458127",
    "tech": "FTTP",
    "upgrade": "NULL_NA",
    "gnaf_pid": "GAVIC719409849"
   }
  },
  {
   "type": "Feature",
   "geometry": {
    "type": "Point",
    "coordinates": [
     144.55869658,
     -37.66680296
    ]
   },
   "properties": {
    "name": "38 BORROWDALE ROAD HARKNESS 3337",
    "locID": "LOC000124493656",
    "tech": "FTTP",
    "upgrade": "NULL_NA",
    "gnaf_pid": "GAVIC719409850"
   }
  },
  {
   "type": "Feature",
   "geometry": {
    "type": "Point",
    "coordinates": [
     144.56674851,
     -37.65243704
    ]
   },
   "properties": {
    "name": "41 TORRANCE DRIVE HARKNESS 3337",
    "locID": "LOC000175744502",
    "tech": "FTTP",
    "upgrade": "NULL_NA",
    "gnaf_pid": "GAVIC719409851"
   }
  },
  {
   "type": "Feature",
   "geometry": {
    "type": "Point",
    "coordinates": [
     144.57129183,
     -37.66091508
    ]
   },
   "properties": {
    "name": "30 LOMANDRA BOWL HARKNESS 3337",
    "locID": "LOC000012822153",
    "tech": "FTTC",
    "upgrade": "FTTP_SA",
    "gnaf_pid": "GAVIC719409852"
   }
  },
  {
   "type": "Feature",
   "geometry": {
    "type": "Point",
    "coordinates": [
     144.55136841,
     -37.67053288
    ]
   },
   "properties": {
    "name": "5 ARNOLDS CREEK BOULEVARD HARKNESS 3337",
    "locID": "LOC000027968602",
    "tech": "FTTP",
    "upgrade": "NULL_NA",
    "gnaf_pid": "GAVIC719409853"
   }
  },
  {
   "type": "Feature",
   "geometry": {
    "type": "Point",
    "coordinates": [
     144.55440241,
     -37.66641437
    ]
   },
   "properties": {
    "name": "10 MINT BOULEVARD HARKNESS 3337",
    "locID": "LOC000124497094",
    "tech": "FTTP",
    "upgrade": "NULL_NA",
    "gnaf_pid": "GAVIC719409854"
   }
  },
  {
   "type": "Feature",
   "geometry": {
    "type": "Point",
    "coordinates": [
     144.55089933,
     -37.67009309
    ]
   },
   "properties": {
    "name": "10 ARNOLDS CREEK BOULEVARD HARKNESS 3337",
    "locID": "LOC000082388793",
    "tech": "FTTP",
    "upgrade": "NULL_NA",
    "gnaf_pid": "GAVIC719409855"
   }
  },
  {
   "type": "Feature",
   "geometry": {
    "type": "Point",
    "coordinates": [
     144.54948492,
     -37.66804031
    ]
   },
   "properties": {
    "name": "33 GALLERY AVENUE HARKNESS 3337",
    "locID": "LOC000085378354",
    "tech": "FTTP",
    "upgrade": "NULL_NA",
    "gnaf_pid": "GAVIC719409858"
   }
  },
  {
   "type": "Feature",
   "geometry": {
    "type": "Point",
    "coordinates": [
     144.5553003,
     -37.66737586
    ]
   },
   "properties": {
    "name": "14 BURSWOOD CIRCUIT HARKNESS 3337",
    "locID": "LOC000124517594",
    "tech": "FTTP",
    "upgrade": "NULL_NA",
    "gnaf_pid": "GAVIC719409859"
   }
  },
  {
   "type": "Feature",
   "geometry": {
    "type": "Point",
    "coordinates": [
     144.57003639,
     -37.66322364
    ]
   },
   "properties": {
    "name": "UNIT 3, 20-22 ROSLYN PARK DRIVE HARKNESS 3337",
    "locID": "LOC000062362587",
    "tech": "FTTN",
    "upgrade": "NULL_NA",
    "gnaf_pid": "GAVIC719409860"
   }
  },
  {
   "type": "Feature",
   "geometry": {
    "type": "Point",
    "coordinates": [
     144.56581015,
     -37.66172432
    ]
   },
   "properties": {
    "name": "20 KOONAWARRA TERRACE HARKNESS 3337",
    "locID": "LOC000100890496",
    "tech": "FTTN",
    "upgrade": "FTTP_SA",
    "gnaf_pid": "GAVIC719409861"
   }
  },
  {
   "type": "Feature",
   "geometry": {
    "type": "Point",
    "coordinates": [
     144.55976921,
     -37.66557728
    ]
   },
   "properties": {
    "name": "61 NORANDA CIRCUIT HARKNESS 3337",
    "locID": "LOC000141247551",
    "tech": "FTTP",
    "upgrade": "NULL_NA",
    "gnaf_pid": "GAVIC719409863"
   }
  },
  {
   "type": "Feature",
   "geometry": {
    "type": "Point",
    "coordinates": [
     144.56120994,
     -37.66486517
    ]
   },
   "properties": {
    "name": "31 WANNEROO CIRCUIT HARKNESS 3337",
    "locID": "LOC000170308859",
    "tech": "FTTP",
    "upgrade": "NULL_NA",
    "gnaf_pid": "GAVIC719409864"
   }
  },
  {
   "type": "Feature",
   "geometry": {
    "type": "Point",
    "coordinates": [
     144.55768295,
     -37.66539639
    ]
   },
   "properties": {
    "name": "7 NORANDA CIRCUIT HARKNESS 3337",
    "locID": "LOC000124494021",
    "tech": "FTTP",
    "upgrade": "NULL_NA",
    "gnaf_pid": "GAVIC719409865"
   }
  },
  {
   "type": "Feature",
   "geometry": {
    "type": "Point",
    "coordinates": [
     144.57364863,
     -37.65368648
    ]
   },
   "properties": {
    "name": "27 KARINYA WAY HARKNESS 3337",
    "locID": "LOC000156912898",
    "tech": "FTTP",
    "upgrade": "NULL_NA",
    "gnaf_pid": "GAVIC719409866"
   }
  },
  {
   "type": "Feature",
   "geometry": {
    "type": "Point",
    "coordinates": [
     144.55983461,
     -37.6652364
    ]
   },
   "properties": {
    "name": "55 NORANDA CIRCUIT HARKNESS 3337",
    "locID": "LOC000141247863",
    "tech": "FTTP",
    "upgrade": "NULL_NA",
    "gnaf_pid": "GAVIC719409867"
   }
  },
  {
   "type": "Feature",
   "geometry": {
    "type": "Point",
    "coordinates": [
     144.53921586,
     -37.6649782
    ]
   },
   "properties": {
    "name": "93 OAKPARK DRIVE HARKNESS 3337",
    "locID": "LOC000167353858",
    "tech": "FTTP",
    "upgrade": "NULL_NA",
    "gnaf_pid": "GAVIC719409868"
   }
  },
  {
   "type": "Feature",
   "geometry": {
    "type": "Point",
    "coordinates": [
     144.56448693,
     -37.664761
    ]
   },
   "properties": {
    "name": "19 CAITLYN DRIVE HARKNESS 3337",
    "locID": "LOC000004379992",
    "tech": "FTTC",
    "upgrade": "FTTP_SA",
    "gnaf_pid": "GAVIC719409869"
   }
  },
  {
   "type": "Feature",
   "geometry": {
    "type": "Point",
    "coordinates": [
     144.55644208,
     -37.66751492
    ]
   },
   "properties": {
    "name": "28 BURSWOOD CIRCUIT HARKNESS 3337",
    "locID": "LOC000124530899",
    "tech": "FTTP",
    "upgrade": "NULL_NA",
    "gnaf_pid": "GAVIC719409870"
   }
  },
  {
   "type": "Feature",
   "geometry": {
    "type": "Point",
    "coordinates": [
     144.56461558,
     -37.66646004
    ]
   },
   "properties": {
    "name": "53 GAMALITE DRIVE HARKNESS 3337",
    "locID": "LOC000049236934",
    "tech": "FTTC",
    "upgrade": "FTTP_SA",
    "gnaf_pid": "GAVIC719409871"
   }
  },
  {
   "type": "Feature",
   "geometry": {
    "type": "Point",
    "coordinates": [
     144.55911185,
     -37.66753098
    ]
   },
   "properties": {
    "name": "3 MANDURAH CRESCENT HARKNESS 3337",
    "locID": "LOC000124539321",
    "tech": "FTTP",
    "upgrade": "NULL_NA",
    "gnaf_pid": "GAVIC719409872"
   }
  },
  {
   "type": "Feature",
   "geometry": {
    "type": "Point",
    "coordinates": [
     144.5478051,
     -37.67173272
    ]
   },
   "properties": {
    "name": "13 PANORAMA DRIVE HARKNESS 3337",
    "locID": "LOC000062261533",
    "tech": "FTTP",
    "upgrade": "NULL_NA",
    "gnaf_pid": "GAVIC719409873"
   }
  },
  {
   "type": "Feature",
   "geometry": {
    "type": "Point",
    "coordinates": [
     144.57037103,
     -37.65555426
    ]
   },
   "properties": {
    "name": "31 WILLANDRA BOULEVARD HARKNESS 3337",
    "locID": "LOC000139088252",
    "tech": "FTTP",
    "upgrade": "NULL_NA",
    "gnaf_pid": "GAVIC719409874"
   }
  },
  {
   "type": "Feature",
   "geometry": {
    "type": "Point",
    "coordinates": [
     144.56867125,
     -37.6620612
    ]
   },
   "properties": {
    "name": "26 ROSEMONT RISE HARKNESS 3337",
    "locID": "LOC000019364635",
    "tech": "FTTN",
    "upgrade": "FTTP_SA",
    "gnaf_pid": "GAVIC719409875"
   }
  },
  {
   "type": "Feature",
   "geometry": {
    "type": "Point",
    "coordinates": [
     144.56575988,
     -37.65596952
    ]
   },
   "properties": {
    "name": "15 BROOKSBY CIRCUIT HARKNESS 3337",
    "locID": "LOC000178128173",
    "tech": "FTTP",
    "upgrade": "NULL_NA",
    "gnaf_pid": "GAVIC719409876"
   }
  },
  {
   "type": "Feature",
   "geometry": {
    "type": "Point",
    "coordinates": [
     144.56706996,
     -37.65385531
    ]
   },
   "properties": {
    "name": "8 HOBSON ROAD HARKNESS 3337",
    "locID": "LOC000175744375",
    "tech": "FTTP",
    "upgrade": "NULL_NA",
    "gnaf_pid": "GAVIC719409877"
   }
  },
  {
   "type": "Feature",
   "geometry": {
    "type": "Point",
    "coordinates": [
     144.5590221,
     -37.66923523
    ]
   },
   "properties": {
    "name": "31 PANGBOURNE AVENUE HARKNESS 3337",
    "locID": "LOC000070260834",
    "tech": "FTTP",
    "upgrade": "NULL_NA",
    "gnaf_pid": "GAVIC719409878"
   }
  },
  {
   "type": "Feature",
   "geometry": {
    "type": "Point",
    "coordinates": [
     144.55683473,
     -37.67006777
    ]
   },
   "properties": {
    "name": "358 CENTENARY AVENUE HARKNESS 3337",
    "locID": "LOC000080858586",
    "tech": "FTTP",
    "upgrade": "NULL_NA",
    "gnaf_pid": "GAVIC719409879"
   }
  },
  {
   "type": "Feature",
   "geometry": {
    "type": "Point",
    "coordinates": [
     144.53902441,
     -37.66245104
    ]
   },
   "properties": {
    "name": "33 LONG FOREST AVENUE HARKNESS 3337",
    "locID": "LOC000167354091",
    "tech": "FTTP",
    "upgrade": "NULL_NA",
    "gnaf_pid": "GAVIC719409880"
   }
  },
  {
   "type": "Feature",
   "geometry": {
    "type": "Point",
    "coordinates": [
     144.56002574,
     -37.66971702
    ]
   },
   "properties": {
    "name": "9 CHARLOTTE AVENUE HARKNESS 3337",
    "locID": "LOC000053727138",
    "tech": "FTTP",
    "upgrade": "NULL_NA",
    "gnaf_pid": "GAVIC719409882"
   }
  },
  {
   "type": "Feature",
   "geometry": {
    "type": "Point",
    "coordinates": [
     144.57020871,
     -37.65470221
    ]
   },
   "properties": {
    "name": "27 MERCER STREET HARKNESS 3337",
    "locID": "LOC000139088776",
    "tech": "FTTP",
    "upgrade": "NULL_NA",
    "gnaf_pid": "GAVIC719409883"
   }
  },
  {
   "type": "Feature",
   "geometry": {
    "type": "Point",
    "coordinates": [
     144.54434084,
     -37.66313323
    ]
   },
   "properties": {
    "name": "17 CHANTICLEER AVENUE HARKNESS 3337",
    "locID": "LOC000114579547",
    "tech": "FTTP",
    "upgrade": "NULL_NA",
    "gnaf_pid": "GAVIC719409884"
   }
  },
  {
   "type": "Feature",
   "geometry": {
    "type": "Point",
    "coordinates": [
     144.5420489,
     -37.66408142
    ]
   },
   "properties": {
    "name": "62 CHANTICLEER AVENUE HARKNESS 3337",
    "locID": "LOC000075340678",
    "tech": "FTTP",
    "upgrade": "NULL_NA",
    "gnaf_pid": "GAVIC719409885"
   }
  },
  {
   "type": "Feature",
   "geometry": {
    "type": "Point",
    "coordinates": [
     144.55449805,
     -37.66780244
    ]
   },
   "properties": {
    "name": "UNIT 1, 30 LADY PENRHYN DRIVE HARKNESS 3337",
    "locID": "LOC000148626938",
    "tech": "FTTP",
    "upgrade": "NULL_NA",
    "gnaf_pid": "GAVIC719409886"
   }
  },
  {
   "type": "Feature",
   "geometry": {
    "type": "Point",
    "coordinates": [
     144.55892243,
     -37.66976705
    ]
   },
   "properties": {
    "name": "25 PANGBOURNE AVENUE HARKNESS 3337",
    "locID": "LOC000034529491",
    "tech": "FTTP",
    "upgrade": "NULL_NA",
    "gnaf_pid": "GAVIC719409887"
   }
  },
  {
   "type": "Feature",
   "geometry": {
    "type": "Point",
    "coordinates": [
     144.56485259,
     -37.65846565
    ]
   },
   "properties": {
    "name": "8 BUTTERCUP RISE HARKNESS 3337",
    "locID": "LOC000009429826",
    "tech": "FTTN",
    "upgrade": "FTTP_SA",
    "gnaf_pid": "GAVIC719409888"
   }
  },
  {
   "type": "Feature",
   "geometry": {
    "type": "Point",
    "coordinates": [
     144.53862794,
     -37.66681712
    ]
   },
   "properties": {
    "name": "16 FERDINAND PLACE HARKNESS 3337",
    "locID": "LOC000115801741",
    "tech": "FTTP",
    "upgrade": "NULL_NA",
    "gnaf_pid": "GAVIC719409889"
   }
  },
  {
   "type": "Feature",
   "geometry": {
    "type": "Point",
    "coordinates": [
     144.54037689,
     -37.6670929
    ]
   },
   "properties": {
    "name": "15 SUSAN PLACE HARKNESS 3337",
    "locID": "LOC000180651238",
    "tech": "FTTP",
    "upgrade": "NULL_NA",
    "gnaf_pid": "GAVIC719409890"
   }
  },
  {
   "type": "Feature",
   "geometry": {
    "type": "Point",
    "coordinates": [
     144.57209873,
     -37.65439655
    ]
   },
   "properties": {
    "name": "18 PARKVIEW STREET HARKNESS 3337",
    "locID": "LOC000156914088",
    "tech": "FTTP",
    "upgrade": "NULL_NA",
    "gnaf_pid": "GAVIC719409891"
   }
  },
  {
   "type": "Feature",
   "geometry": {
    "type": "Point",
    "coordinates": [
     144.57175742,
     -37.65423424
    ]
   },
   "properties": {
    "name": "17 PARKVIEW STREET HARKNESS 3337",
    "locID": "LOC000156914074",
    "tech": "FTTP",
    "upgrade": "NULL_NA",
    "gnaf_pid": "GAVIC719409892"
   }
  },
  {
   "type": "Feature",
   "geometry": {
    "type": "Point",
    "coordinates": [
     144.56986036,
     -37.65436362
    ]
   },
   "properties": {
    "name": "30 MERCER STREET HARKNESS 3337",
    "locID": "LOC000139088782",
    "tech": "FTTP",
    "upgrade": "NULL_NA",
    "gnaf_pid": "GAVIC719409893"
   }
  },
  {
   "type": "Feature",
   "geometry": {
    "type": "Point",
    "coordinates": [
     144.56355995,
     -37.66464882
    ]
   },
   "properties": {
    "name": "29 CAITLYN DRIVE HARKNESS 3337",
    "locID": "LOC000069999259",
    "tech": "FTTC",
    "upgrade": "FTTP_SA",
    "gnaf_pid": "GAVIC719409894"
   }
  },
  {
   "type": "Feature",
   "geometry": {
    "type": "Point",
    "coordinates": [
     144.55337754,
     -37.66896783
    ]
   },
   "properties": {
    "name": "UNIT 3, 266 BULMANS ROAD HARKNESS 3337",
    "locID": "LOC000149353340",
    "tech": "FTTP",
    "upgrade": "NULL_NA",
    "gnaf_pid": "GAVIC719409895"
   }
  },
  {
   "type": "Feature",
   "geometry": {
    "type": "Point",
    "coordinates": [
     144.53992233,
     -37.66477148
    ]
   },
   "properties": {
    "name": "74 OAKPARK DRIVE HARKNESS 3337",
    "locID": "LOC000113062558",
    "tech": "FTTP",
    "upgrade": "NULL_NA",
    "gnaf_pid": "GAVIC719409896"
   }
  },
  {
   "type": "Feature",
   "geometry": {
    "type": "Point",
    "coordinates": [
     144.5385049,
     -37.66605475
    ]
   },
   "properties": {
    "name": "9 FERDINAND PLACE HARKNESS 3337",
    "locID": "LOC000115792948",
    "tech": "FTTP",
    "upgrade": "NULL_NA",
    "gnaf_pid": "GAVIC719409897"
   }
  },
  {
   "type": "Feature",
   "geometry": {
    "type": "Point",
    "coordinates": [
     144.57175605,
     -37.65642123
    ]
   },
   "properties": {
    "name": "8 BICKLEY STREET HARKNESS 3337",
    "locID": "LOC000143999010",
    "tech": "FTTP",
    "upgrade": "NULL_NA",
    "gnaf_pid": "GAVIC719409898"
   }
  },
  {
   "type": "Feature",
   "geometry": {
    "type": "Point",
    "coordinates": [
     144.5670755,
     -37.65489207
    ]
   },
   "properties": {
    "name": "1 HOBSON ROAD HARKNESS 3337",
    "locID": "LOC000175744368",
    "tech": "FTTP",
    "upgrade": "NULL_NA",
    "gnaf_pid": "GAVIC719409899"
   }
  },
  {
   "type": "Feature",
   "geometry": {
    "type": "Point",
    "coordinates": [
     144.57113141,
     -37.65619712
    ]
   },
   "properties": {
    "name": "16 BICKLEY STREET HARKNESS 3337",
    "locID": "LOC000145866316",
    "tech": "FTTP",
    "upgrade": "NULL_NA",
    "gnaf_pid": "GAVIC719409900"
   }
  },
  {
   "type": "Feature",
   "geometry": {
    "type": "Point",
    "coordinates": [
     144.57362755,
     -37.65379689
    ]
   },
   "properties": {
    "name": "25 KARINYA WAY HARKNESS 3337",
    "locID": "LOC000156912880",
    "tech": "FTTP",
    "upgrade": "NULL_NA",
    "gnaf_pid": "GAVIC719409901"
   }
  },
  {
   "type": "Feature",
   "geometry": {
    "type": "Point",
    "coordinates": [
     144.56233041,
     -37.66821392
    ]
   },
   "properties": {
    "name": "8 GROSVENOR COURT HARKNESS 3337",
    "locID": "LOC000056752679",
    "tech": "FTTN",
    "upgrade": "FTTP_SA",
    "gnaf_pid": "GAVIC719409902"
   }
  },
  {
   "type": "Feature",
   "geometry": {
    "type": "Point",
    "coordinates": [
     144.55186224,
     -37.6671681
    ]
   },
   "properties": {
    "name": "2 WILLOW COURT HARKNESS 3337",
    "locID": "LOC000017711533",
    "tech": "FTTP",
    "upgrade": "NULL_NA",
    "gnaf_pid": "GAVIC719409903"
   }
  },
  {
   "type": "Feature",
   "geometry": {
    "type": "Point",
    "coordinates": [
     144.55768662,
     -37.66970367
    ]
   },
   "properties": {
    "name": "5 BORROWDALE ROAD HARKNESS 3337",
    "locID": "LOC000069701499",
    "tech": "FTTP",
    "upgrade": "NULL_NA",
    "gnaf_pid": "GAVIC719409904"
   }
  },
  {
   "type": "Feature",
   "geometry": {
    "type": "Point",
    "coordinates": [
     144.57127445,
     -37.66393095
    ]
   },
   "properties": {
    "name": "UNIT 25, 9 PETREA PLACE HARKNESS 3337",
    "locID": "LOC000113124536",
    "tech": "FTTN",
    "upgrade": "NULL_NA",
    "gnaf_pid": "GAVIC719409905"
   }
  },
  {
   "type": "Feature",
   "geometry": {
    "type": "Point",
    "coordinates": [
     144.5690337,
     -37.66214886
    ]
   },
   "properties": {
    "name": "22 ROSEMONT RISE HARKNESS 3337",
    "locID": "LOC000022054211",
    "tech": "FTTN",
    "upgrade": "FTTP_SA",
    "gnaf_pid": "GAVIC719409906"
   }
  },
  {
   "type": "Feature",
   "geometry": {
    "type": "Point",
    "coordinates": [
     144.56024306,
     -37.6679723
    ]
   },
   "properties": {
    "name": "12 BATEMAN DRIVE HARKNESS 3337",
    "locID": "LOC000124505214",
    "tech": "FTTP",
    "upgrade": "NULL_NA",
    "gnaf_pid": "GAVIC719409907"
   }
  },
  {
   "type": "Feature",
   "geometry": {
    "type": "Point",
    "coordinates": [
     144.54427177,
     -37.66468873
    ]
   },
   "properties": {
    "name": "12 CHERRY CLOSE HARKNESS 3337",
    "locID": "LOC000114089230",
    "tech": "FTTP",
    "upgrade": "NULL_NA",
    "gnaf_pid": "GAVIC719409908"
   }
  },
  {
   "type": "Feature",
   "geometry": {
    "type": "Point",
    "coordinates": [
     144.57281714,
     -37.65795507
    ]
   },
   "properties": {
    "name": "14 MURNONG MEWS HARKNESS 3337",
    "locID": "LOC000075918608",
    "tech": "FTTC",
    "upgrade": "FTTP_SA",
    "gnaf_pid": "GAVIC719409909"
   }
  },
  {
   "type": "Feature",
   "geometry": {
    "type": "Point",
    "coordinates": [
     144.57101934,
     -37.6557466
    ]
   },
   "properties": {
    "name": "25 WILLANDRA BOULEVARD HARKNESS 3337",
    "locID": "LOC000139088223",
    "tech": "FTTP",
    "upgrade": "NULL_NA",
    "gnaf_pid": "GAVIC719409910"
   }
  },
  {
   "type": "Feature",
   "geometry": {
    "type": "Point",
    "coordinates": [
     144.55320147,
     -37.6641991
    ]
   },
   "properties": {
    "name": "275 BULMANS ROAD HARKNESS 3337",
    "locID": "LOC000113314435",
    "tech": "FTTP",
    "upgrade": "NULL_NA",
    "gnaf_pid": "GAVIC719409911"
   }
  },
  {
   "type": "Feature",
   "geometry": {
    "type": "Point",
    "coordinates": [
     144.56479544,
     -37.67083314
    ]
   },
   "properties": {
    "name": "4 COMIC COURT HARKNESS 3337",
    "locID": "LOC000031007300",
    "tech": "FTTN",
    "upgrade": "FTTP_SA",
    "gnaf_pid": "GAVIC719409912"
   }
  },
  {
   "type": "Feature",
   "geometry": {
    "type": "Point",
    "coordinates": [
     144.54539709,
     -37.67063477
    ]
   },
   "properties": {
    "name": "28 MERRYSTOWE WAY HARKNESS 3337",
    "locID": "LOC000081022117",
    "tech": "FTTP",
    "upgrade": "NULL_NA",
    "gnaf_pid": "GAVIC719409913"
   }
  },
  {
   "type": "Feature",
   "geometry": {
    "type": "Point",
    "coordinates": [
     144.56770045,
     -37.65256385
    ]
   },
   "properties": {
    "name": "2 SATCHVILLE ROAD HARKNESS 3337",
    "locID": "LOC000175942901",
    "tech": "FTTP",
    "upgrade": "NULL_NA",
    "gnaf_pid": "GAVIC719409916"
   }
  },
  {
   "type": "Feature",
   "geometry": {
    "type": "Point",
    "coordinates": [
     144.55506285,
     -37.66474927
    ]
   },
   "properties": {
    "name": "38 CARRAMAR DRIVE HARKNESS 3337",
    "locID": "LOC000124493673",
    "tech": "FTTP",
    "upgrade": "NULL_NA",
    "gnaf_pid": "GAVIC719409917"
   }
  },
  {
   "type": "Feature",
   "geometry": {
    "type": "Point",
    "coordinates": [
     144.57253433,
     -37.65344375
    ]
   },
   "properties": {
    "name": "11 LANCERS DRIVE HARKNESS 3337",
    "locID": "LOC000156912949",
    "tech": "FTTP",
    "upgrade": "NULL_NA",
    "gnaf_pid": "GAVIC719409918"
   }
  },
  {
   "type": "Feature",
   "geometry": {
    "type": "Point",
    "coordinates": [
     144.55468691,
     -37.66559179
    ]
   },
   "properties": {
    "name": "11 COOLOONGUP CRESCENT HARKNESS 3337",
    "locID": "LOC000124500785",
    "tech": "FTTP",
    "upgrade": "NULL_NA",
    "gnaf_pid": "GAVIC719409919"
   }
  },
  {
   "type": "Feature",
   "geometry": {
    "type": "Point",
    "coordinates": [
     144.56940781,
     -37.66596968
    ]
   },
   "properties": {
    "name": "9 HILLCREST COURT HARKNESS 3337",
    "locID": "LOC000080725692",
    "tech": "FTTC",
    "upgrade": "FTTP_SA",
    "gnaf_pid": "GAVIC719409920"
   }
  },
  {
   "type": "Feature",
   "geometry": {
    "type": "Point",
    "coordinates": [
     144.54698075,
     -37.66959822
    ]
   },
   "properties": {
    "name": "33 PANORAMA DRIVE HARKNESS 3337",
    "locID": "LOC000011049386",
    "tech": "FTTP",
    "upgrade": "NULL_NA",
    "gnaf_pid": "GAVIC719409921"
   }
  },
  {
   "type": "Feature",
   "geometry": {
    "type": "Point",
    "coordinates": [
     144.56754326,
     -37.66707849
    ]
   },
   "properties": {
    "name": "23 PRINCETON AVENUE HARKNESS 3337",
    "locID": "LOC000015993879",
    "tech": "FTTC",
    "upgrade": "FTTP_SA",
    "gnaf_pid": "GAVIC719409922"
   }
  },
  {
   "type": "Feature",
   "geometry": {
    "type": "Point",
    "coordinates": [
     144.53991217,
     -37.66295939
    ]
   },
   "properties": {
    "name": "22 MOOR PARK AVENUE HARKNESS 3337",
    "locID": "LOC000124505536",
    "tech": "FTTP",
    "upgrade": "NULL_NA",
    "gnaf_pid": "GAVIC719409923"
   }
  },
  {
   "type": "Feature",
   "geometry": {
    "type": "Point",
    "coordinates": [
     144.55431941,
     -37.66911993
    ]
   },
   "properties": {
    "name": "UNIT 3, 11 FISHBURN GROVE HARKNESS 3337",
    "locID": "LOC000141753339",
    "tech": "FTTP",
    "upgrade": "NULL_NA",
    "gnaf_pid": "GAVIC719409926"
   }
  },
  {
   "type": "Feature",
   "geometry": {
    "type": "Point",
    "coordinates": [
     144.55781138,
     -37.66918133
    ]
   },
   "properties": {
    "name": "UNIT 1, 11 BORROWDALE ROAD HARKNESS 3337",
    "locID": "LOC000141784148",
    "tech": "FTTP",
    "upgrade": "NULL_NA",
    "gnaf_pid": "GAVIC719409927"
   }
  },
  {
   "type": "Feature",
   "geometry": {
    "type": "Point",
    "coordinates": [
     144.54148433,
     -37.66525067
    ]
   },
   "properties": {
    "name": "65 OAKPARK DRIVE HARKNESS 3337",
    "locID": "LOC000139284534",
    "tech": "FTTP",
    "upgrade": "NULL_NA",
    "gnaf_pid": "GAVIC719409928"
   }
  },
  {
   "type": "Feature",
   "geometry": {
    "type": "Point",
    "coordinates": [
     144.56085263,
     -37.66679993
    ]
   },
   "properties": {
    "name": "32 MANDURAH CRESCENT HARKNESS 3337",
    "locID": "LOC000164583050",
    "tech": "FTTP",
    "upgrade": "NULL_NA",
    "gnaf_pid": "GAVIC719409929"
   }
  },
  {
   "type": "Feature",
   "geometry": {
    "type": "Point",
    "coordinates": [
     144.54953274,
     -37.6681821
    ]
   },
   "properties": {
    "name": "31 GALLERY AVENUE HARKNESS 3337",
    "locID": "LOC000069233659",
    "tech": "FTTP",
    "upgrade": "NULL_NA",
    "gnaf_pid": "GAVIC719409930"
   }
  },
  {
   "type": "Feature",
   "geometry": {
    "type": "Point",
    "coordinates": [
     144.53875916,
     -37.66743306
    ]
   },
   "properties": {
    "name": "16 PORTMAN AVENUE HARKNESS 3337",
    "locID": "LOC000115801760",
    "tech": "FTTP",
    "upgrade": "NULL_NA",
    "gnaf_pid": "GAVIC719409931"
   }
  },
  {
   "type": "Feature",
   "geometry": {
    "type": "Point",
    "coordinates": [
     144.5679852,
     -37.65298677
    ]
   },
   "properties": {
    "name": "72 MERCER STREET HARKNESS 3337",
    "locID": "LOC000175942955",
    "tech": "FTTP",
    "upgrade": "NULL_NA",
    "gnaf_pid": "GAVIC719409932"
   }
  },
  {
   "type": "Feature",
   "geometry": {
    "type": "Point",
    "coordinates": [
     144.57127445,
     -37.66393095
    ]
   },
   "properties": {
    "name": "UNIT 33, 9 PETREA PLACE HARKNESS 3337",
    "locID": "LOC000113250294",
    "tech": "FTTN",
    "upgrade": "NULL_NA",
    "gnaf_pid": "GAVIC719409933"
   }
  },
  {
   "type": "Feature",
   "geometry": {
    "type": "Point",
    "coordinates": [
     144.56988474,
     -37.66890125
    ]
   },
   "properties": {
    "name": "11 THE CREST HARKNESS 3337",
    "locID": "LOC000036052554",
    "tech": "FTTC",
    "upgrade": "FTTP_SA",
    "gnaf_pid": "GAVIC719409934"
   }
  },
  {
   "type": "Feature",
   "geometry": {
    "type": "Point",
    "coordinates": [
     144.55190494,
     -37.66430793
    ]
   },
   "properties": {
    "name": "20 EDGEWOOD DRIVE HARKNESS 3337",
    "locID": "LOC000124493429",
    "tech": "FTTP",
    "upgrade": "NULL_NA",
    "gnaf_pid": "GAVIC719409935"
   }
  },
  {
   "type": "Feature",
   "geometry": {
    "type": "Point",
    "coordinates": [
     144.56053707,
     -37.66771651
    ]
   },
   "properties": {
    "name": "13 BATEMAN DRIVE HARKNESS 3337",
    "locID": "LOC000164583260",
    "tech": "FTTP",
    "upgrade": "NULL_NA",
    "gnaf_pid": "GAVIC719409936"
   }
  },
  {
   "type": "Feature",
   "geometry": {
    "type": "Point",
    "coordinates": [
     144.55555099,
     -37.6553026
    ]
   },
   "properties": {
    "name": "530-540 BULMANS ROAD HARKNESS 3337",
    "locID": "LOC000027899747",
    "tech": "WIRELESS",
    "upgrade": "NULL_NA",
    "gnaf_pid": "GAVIC719409937"
   }
  },
  {
   "type": "Feature",
   "geometry": {
    "type": "Point",
    "coordinates": [
     144.56915877,
     -37.65274134
    ]
   },
   "properties": {
    "name": "72 LANCERS DRIVE HARKNESS 3337",
    "locID": "LOC000173754210",
    "tech": "FTTP",
    "upgrade": "NULL_NA",
    "gnaf_pid": "GAVIC719409938"
   }
  },
  {
   "type": "Feature",
   "geometry": {
    "type": "Point",
    "coordinates": [
     144.53956831,
     -37.66350547
    ]
   },
   "properties": {
    "name": "96 OAKPARK DRIVE HARKNESS 3337",
    "locID": "LOC000167354015",
    "tech": "FTTP",
    "upgrade": "NULL_NA",
    "gnaf_pid": "GAVIC719409939"
   }
  },
  {
   "type": "Feature",
   "geometry": {
    "type": "Point",
    "coordinates": [
     144.56115461,
     -37.668923
    ]
   },
   "properties": {
    "name": "17 SCARBOROUGH CRESCENT HARKNESS 3337",
    "locID": "LOC000188206440",
    "tech": "FTTP",
    "upgrade": "NULL_NA",
    "gnaf_pid": "GAVIC719409940"
   }
  },
  {
   "type": "Feature",
   "geometry": {
    "type": "Point",
    "coordinates": [
     144.56416036,
     -37.66880125
    ]
   },
   "properties": {
    "name": "UNIT 2, 38 GALILEE BOULEVARD HARKNESS 3337",
    "locID": "LOC000030106520",
    "tech": "FTTN",
    "upgrade": "FTTP_SA",
    "gnaf_pid": "GAVIC719409941"
   }
  },
  {
   "type": "Feature",
   "geometry": {
    "type": "Point",
    "coordinates": [
     144.53610759,
     -37.66467858
    ]
   },
   "properties": {
    "name": "23 SCENIC WAY HARKNESS 3337",
    "locID": "LOC000173233328",
    "tech": "FTTP",
    "upgrade": "NULL_NA",
    "gnaf_pid": "GAVIC719409942"
   }
  },
  {
   "type": "Feature",
   "geometry": {
    "type": "Point",
    "coordinates": [
     144.54075212,
     -37.66487112
    ]
   },
   "properties": {
    "name": "66 OAKPARK DRIVE HARKNESS 3337",
    "locID": "LOC000114667591",
    "tech": "FTTP",
    "upgrade": "NULL_NA",
    "gnaf_pid": "GAVIC719409943"
   }
  },
  {
   "type": "Feature",
   "geometry": {
    "type": "Point",
    "coordinates": [
     144.55128931,
     -37.66679864
    ]
   },
   "properties": {
    "name": "63 GALLERY AVENUE HARKNESS 3337",
    "locID": "LOC000012136126",
    "tech": "FTTP",
    "upgrade": "NULL_NA",
    "gnaf_pid": "GAVIC719409944"
   }
  },
  {
   "type": "Feature",
   "geometry": {
    "type": "Point",
    "coordinates": [
     144.54780248,
     -37.66351586
    ]
   },
   "properties": {
    "name": "29 CARUANA CRESCENT HARKNESS 3337",
    "locID": "LOC000144118759",
    "tech": "FTTP",
    "upgrade": "NULL_NA",
    "gnaf_pid": "GAVIC719409945"
   }
  },
  {
   "type": "Feature",
   "geometry": {
    "type": "Point",
    "coordinates": [
     144.56717518,
     -37.65637191
    ]
   },
   "properties": {
    "name": "30 GOLDEN WATTLE WAY HARKNESS 3337",
    "locID": "LOC000168510740",
    "tech": "FTTP",
    "upgrade": "NULL_NA",
    "gnaf_pid": "GAVIC719409946"
   }
  },
  {
   "type": "Feature",
   "geometry": {
    "type": "Point",
    "coordinates": [
     144.57223355,
     -37.65465237
    ]
   },
   "properties": {
    "name": "6 MERCER STREET HARKNESS 3337",
    "locID": "LOC000137644934",
    "tech": "FTTP",
    "upgrade": "NULL_NA",
    "gnaf_pid": "GAVIC719409947"
   }
  },
  {
   "type": "Feature",
   "geometry": {
    "type": "Point",
    "coordinates": [
     144.57222533,
     -37.65732366
    ]
   },
   "properties": {
    "name": "17 ARUMA AVENUE HARKNESS 3337",
    "locID": "LOC000143998694",
    "tech": "FTTP",
    "upgrade": "NULL_NA",
    "gnaf_pid": "GAVIC719409948"
   }
  },
  {
   "type": "Feature",
   "geometry": {
    "type": "Point",
    "coordinates": [
     144.5589144,
     -37.67031229
    ]
   },
   "properties": {
    "name": "19 PANGBOURNE AVENUE HARKNESS 3337",
    "locID": "LOC000016885567",
    "tech": "FTTP",
    "upgrade": "NULL_NA",
    "gnaf_pid": "GAVIC719409949"
   }
  },
  {
   "type": "Feature",
   "geometry": {
    "type": "Point",
    "coordinates": [
     144.54728233,
     -37.66933819
    ]
   },
   "properties": {
    "name": "40 PANORAMA DRIVE HARKNESS 3337",
    "locID": "LOC000038708948",
    "tech": "FTTP",
    "upgrade": "NULL_NA",
    "gnaf_pid": "GAVIC719409950"
   }
  },
  {
   "type": "Feature",
   "geometry": {
    "type": "Point",
    "coordinates": [
     144.56639709,
     -37.66089305
    ]
   },
   "properties": {
    "name": "12 STORKBILL VIEW HARKNESS 3337",
    "locID": "LOC000065618169",
    "tech": "FTTN",
    "upgrade": "FTTP_SA",
    "gnaf_pid": "GAVIC719409951"
   }
  },
  {
   "type": "Feature",
   "geometry": {
    "type": "Point",
    "coordinates": [
     144.54658914,
     -37.67037672
    ]
   },
   "properties": {
    "name": "11 ARJUN AVENUE HARKNESS 3337",
    "locID": "LOC000095100515",
    "tech": "FTTP",
    "upgrade": "NULL_NA",
    "gnaf_pid": "GAVIC719409952"
   }
  },
  {
   "type": "Feature",
   "geometry": {
    "type": "Point",
    "coordinates": [
     144.56823083,
     -37.65567783
    ]
   },
   "properties": {
    "name": "64 ARUMA AVENUE HARKNESS 3337",
    "locID": "LOC000148966497",
    "tech": "FTTP",
    "upgrade": "NULL_NA",
    "gnaf_pid": "GAVIC719409953"
   }
  },
  {
   "type": "Feature",
   "geometry": {
    "type": "Point",
    "coordinates": [
     144.56003222,
     -37.67062868
    ]
   },
   "properties": {
    "name": "7 PANGBOURNE AVENUE HARKNESS 3337",
    "locID": "LOC000086641907",
    "tech": "FTTP",
    "upgrade": "NULL_NA",
    "gnaf_pid": "GAVIC719409954"
   }
  },
  {
   "type": "Feature",
   "geometry": {
    "type": "Point",
    "coordinates": [
     144.55249214,
     -37.66788576
    ]
   },
   "properties": {
    "name": "229 BULMANS ROAD HARKNESS 3337",
    "locID": "LOC000114944543",
    "tech": "FTTP",
    "upgrade": "NULL_NA",
    "gnaf_pid": "GAVIC719409955"
   }
  },
  {
   "type": "Feature",
   "geometry": {
    "type": "Point",
    "coordinates": [
     144.56779408,
     -37.65397533
    ]
   },
   "properties": {
    "name": "56 MERCER STREET HARKNESS 3337",
    "locID": "LOC000175948793",
    "tech": "FTTP",
    "upgrade": "NULL_NA",
    "gnaf_pid": "GAVIC719409956"
   }
  },
  {
   "type": "Feature",
   "geometry": {
    "type": "Point",
    "coordinates": [
     144.56792193,
     -37.65875831
    ]
   },
   "properties": {
    "name": "12 FEATHERHEAD WAY HARKNESS 3337",
    "locID": "LOC000017649280",
    "tech": "FTTN",
    "upgrade": "FTTP_SA",
    "gnaf_pid": "GAVIC719409957"
   }
  },
  {
   "type": "Feature",
   "geometry": {
    "type": "Point",
    "coordinates": [
     144.56715118,
     -37.65649658
    ]
   },
   "properties": {
    "name": "28 GOLDEN WATTLE WAY HARKNESS 3337",
    "locID": "LOC000168510755",
    "tech": "FTTP",
    "upgrade": "NULL_NA",
    "gnaf_pid": "GAVIC719409958"
   }
  },
  {
   "type": "Feature",
   "geometry": {
    "type": "Point",
    "coordinates": [
     144.56847121,
     -37.66322635
    ]
   },
   "properties": {
    "name": "23 ROSLYN PARK DRIVE HARKNESS 3337",
    "locID": "LOC000062270260",
    "tech": "FTTN",
    "upgrade": "NULL_NA",
    "gnaf_pid": "GAVIC719409959"
   }
  },
  {
   "type": "Feature",
   "geometry": {
    "type": "Point",
    "coordinates": [
     144.55979776,
     -37.66651422
    ]
   },
   "properties": {
    "name": "39 GRANHOLM GROVE HARKNESS 3337",
    "locID": "LOC000141247761",
    "tech": "FTTP",
    "upgrade": "NULL_NA",
    "gnaf_pid": "GAVIC719409960"
   }
  },
  {
   "type": "Feature",
   "geometry": {
    "type": "Point",
    "coordinates": [
     144.55584893,
     -37.66515264
    ]
   },
   "properties": {
    "name": "15 CARRAMAR DRIVE HARKNESS 3337",
    "locID": "LOC000124521759",
    "tech": "FTTP",
    "upgrade": "NULL_NA",
    "gnaf_pid": "GAVIC719409961"
   }
  },
  {
   "type": "Feature",
   "geometry": {
    "type": "Point",
    "coordinates": [
     144.56658519,
     -37.66120678
    ]
   },
   "properties": {
    "name": "3 STORKBILL VIEW HARKNESS 3337",
    "locID": "LOC000007659975",
    "tech": "FTTN",
    "upgrade": "FTTP_SA",
    "gnaf_pid": "GAVIC719409962"
   }
  },
  {
   "type": "Feature",
   "geometry": {
    "type": "Point",
    "coordinates": [
     144.56725136,
     -37.66187048
    ]
   },
   "properties": {
    "name": "4 KOONAWARRA TERRACE HARKNESS 3337",
    "locID": "LOC000048662095",
    "tech": "FTTN",
    "upgrade": "FTTP_SA",
    "gnaf_pid": "GAVIC719409963"
   }
  },
  {
   "type": "Feature",
   "geometry": {
    "type": "Point",
    "coordinates": [
     144.564507,
     -37.66556557
    ]
   },
   "properties": {
    "name": "18 REIDY RISE HARKNESS 3337",
    "locID": "LOC000079144572",
    "tech": "FTTP",
    "upgrade": "UNKNOWN",
    "gnaf_pid": "GAVIC719409964"
   }
  },
  {
   "type": "Feature",
   "geometry": {
    "type": "Point",
    "coordinates": [
     144.57030215,
     -37.66516373
    ]
   },
   "properties": {
    "name": "UNIT 2, 6 WOODLAND RISE HARKNESS 3337",
    "locID": "LOC000090924727",
    "tech": "FTTN",
    "upgrade": "FTTP_SA",
    "gnaf_pid": "GAVIC719409965"
   }
  },
  {
   "type": "Feature",
   "geometry": {
    "type": "Point",
    "coordinates": [
     144.56633811,
     -37.6604222
    ]
   },
   "properties": {
    "name": "11 SUGAR BERRY RISE HARKNESS 3337",
    "locID": "LOC000024324601",
    "tech": "FTTN",
    "upgrade": "FTTP_SA",
    "gnaf_pid": "GAVIC719409966"
   }
  },
  {
   "type": "Feature",
   "geometry": {
    "type": "Point",
    "coordinates": [
     144.57008401,
     -37.65314558
    ]
   },
   "properties": {
    "name": "39 LANCERS DRIVE HARKNESS 3337",
    "locID": "LOC000173755878",
    "tech": "FTTP",
    "upgrade": "NULL_NA",
    "gnaf_pid": "GAVIC719411312"
   }
  },
  {
   "type": "Feature",
   "geometry": {
    "type": "Point",
    "coordinates": [
     144.54775105,
     -37.66648762
    ]
   },
   "properties": {
    "name": "5 LEAFY VIEW ESPLANADE HARKNESS 3337",
    "locID": "LOC000092051628",
    "tech": "FTTP",
    "upgrade": "NULL_NA",
    "gnaf_pid": "GAVIC719411313"
   }
  },
  {
   "type": "Feature",
   "geometry": {
    "type": "Point",
    "coordinates": [
     144.56300755,
     -37.66661355
    ]
   },
   "properties": {
    "name": "UNIT 2, 8 GRANHOLM GROVE HARKNESS 3337",
    "locID": "LOC000009287652",
    "tech": "FTTC",
    "upgrade": "FTTP_NA",
    "gnaf_pid": "GAVIC719411314"
   }
  },
  {
   "type": "Feature",
   "geometry": {
    "type": "Point",
    "coordinates": [
     144.55449825,
     -37.66826485
    ]
   },
   "properties": {
    "name": "16 FISHBURN GROVE HARKNESS 3337",
    "locID": "LOC000141753510",
    "tech": "FTTP",
    "upgrade": "NULL_NA",
    "gnaf_pid": "GAVIC719411315"
   }
  },
  {
   "type": "Feature",
   "geometry": {
    "type": "Point",
    "coordinates": [
     144.5601504,
     -37.66655725
    ]
   },
   "properties": {
    "name": "35 GRANHOLM GROVE HARKNESS 3337",
    "locID": "LOC000141247788",
    "tech": "FTTP",
    "upgrade": "NULL_NA",
    "gnaf_pid": "GAVIC719411316"
   }
  },
  {
   "type": "Feature",
   "geometry": {
    "type": "Point",
    "coordinates": [
     144.54626145,
     -37.66366526
    ]
   },
   "properties": {
    "name": "53 LEAFY VIEW ESPLANADE HARKNESS 3337",
    "locID": "LOC000124535448",
    "tech": "FTTP",
    "upgrade": "NULL_NA",
    "gnaf_pid": "GAVIC719411328"
   }
  },
  {
   "type": "Feature",
   "geometry": {
    "type": "Point",
    "coordinates": [
     144.56677292,
     -37.6523123
    ]
   },
   "properties": {
    "name": "43 TORRANCE DRIVE HARKNESS 3337",
    "locID": "LOC000180923714",
    "tech": "FTTP",
    "upgrade": "NULL_NA",
    "gnaf_pid": "GAVIC719411329"
   }
  },
  {
   "type": "Feature",
   "geometry": {
    "type": "Point",
    "coordinates": [
     144.56513806,
     -37.66341994
    ]
   },
   "properties": {
    "name": "8 KIM LANE HARKNESS 3337",
    "locID": "LOC000057861530",
    "tech": "FTTC",
    "upgrade": "FTTP_SA",
    "gnaf_pid": "GAVIC719411330"
   }
  },
  {
   "type": "Feature",
   "geometry": {
    "type": "Point",
    "coordinates": [
     144.56698991,
     -37.65360119
    ]
   },
   "properties": {
    "name": "28 TORRANCE DRIVE HARKNESS 3337",
    "locID": "LOC000175744352",
    "tech": "FTTP",
    "upgrade": "NULL_NA",
    "gnaf_pid": "GAVIC719411332"
   }
  },
  {
   "type": "Feature",
   "geometry": {
    "type": "Point",
    "coordinates": [
     144.53888165,
     -37.66715621
    ]
   },
   "properties": {
    "name": "13 PORTMAN AVENUE HARKNESS 3337",
    "locID": "LOC000115797819",
    "tech": "FTTP",
    "upgrade": "NULL_NA",
    "gnaf_pid": "GAVIC719411333"
   }
  },
  {
   "type": "Feature",
   "geometry": {
    "type": "Point",
    "coordinates": [
     144.54116022,
     -37.66340188
    ]
   },
   "properties": {
    "name": "13 MOOR PARK AVENUE HARKNESS 3337",
    "locID": "LOC000124513535",
    "tech": "FTTP",
    "upgrade": "NULL_NA",
    "gnaf_pid": "GAVIC719411334"
   }
  },
  {
   "type": "Feature",
   "geometry": {
    "type": "Point",
    "coordinates": [
     144.56352615,
     -37.67167732
    ]
   },
   "properties": {
    "name": "UNIT 1, 308 CENTENARY AVENUE HARKNESS 3337",
    "locID": "LOC000040826583",
    "tech": "FTTN",
    "upgrade": "FTTP_SA",
    "gnaf_pid": "GAVIC719411335"
   }
  },
  {
   "type": "Feature",
   "geometry": {
    "type": "Point",
    "coordinates": [
     144.54483811,
     -37.66290174
    ]
   },
   "properties": {
    "name": "14 CHANTICLEER AVENUE HARKNESS 3337",
    "locID": "LOC000115010042",
    "tech": "FTTP",
    "upgrade": "NULL_NA",
    "gnaf_pid": "GAVIC719411336"
   }
  },
  {
   "type": "Feature",
   "geometry": {
    "type": "Point",
    "coordinates": [
     144.57113057,
     -37.6553807
    ]
   },
   "properties": {
    "name": "24 WILLANDRA BOULEVARD HARKNESS 3337",
    "locID": "LOC000139088402",
    "tech": "FTTP",
    "upgrade": "NULL_NA",
    "gnaf_pid": "GAVIC719411337"
   }
  },
  {
   "type": "Feature",
   "geometry": {
    "type": "Point",
    "coordinates": [
     144.57212447,
     -37.65614267
    ]
   },
   "properties": {
    "name": "11 WILLANDRA BOULEVARD HARKNESS 3337",
    "locID": "LOC000137644705",
    "tech": "FTTP",
    "upgrade": "NULL_NA",
    "gnaf_pid": "GAVIC719411338"
   }
  },
  {
   "type": "Feature",
   "geometry": {
    "type": "Point",
    "coordinates": [
     144.54551642,
     -37.66963132
    ]
   },
   "properties": {
    "name": "15 PARRIS AVENUE HARKNESS 3337",
    "locID": "LOC000017048741",
    "tech": "FTTP",
    "upgrade": "NULL_NA",
    "gnaf_pid": "GAVIC719411339"
   }
  },
  {
   "type": "Feature",
   "geometry": {
    "type": "Point",
    "coordinates": [
     144.54646151,
     -37.66688141
    ]
   },
   "properties": {
    "name": "20 CLARET ASH BOULEVARD HARKNESS 3337",
    "locID": "LOC000063592368",
    "tech": "FTTP",
    "upgrade": "NULL_NA",
    "gnaf_pid": "GAVIC719411340"
   }
  },
  {
   "type": "Feature",
   "geometry": {
    "type": "Point",
    "coordinates": [
     144.55603559,
     -37.66979023
    ]
   },
   "properties": {
    "name": "3 PRISCILLA COURT HARKNESS 3337",
    "locID": "LOC000003659061",
    "tech": "FTTP",
    "upgrade": "NULL_NA",
    "gnaf_pid": "GAVIC719411341"
   }
  },
  {
   "type": "Feature",
   "geometry": {
    "type": "Point",
    "coordinates": [
     144.56405348,
     -37.66202053
    ]
   },
   "properties": {
    "name": "42 CAITLYN DRIVE HARKNESS 3337",
    "locID": "LOC000056258900",
    "tech": "FTTC",
    "upgrade": "FTTP_SA",
    "gnaf_pid": "GAVIC719411357"
   }
  },
  {
   "type": "Feature",
   "geometry": {
    "type": "Point",
    "coordinates": [
     144.54334044,
     -37.66518199
    ]
   },
   "properties": {
    "name": "42 OAKPARK DRIVE HARKNESS 3337",
    "locID": "LOC000114288780",
    "tech": "FTTP",
    "upgrade": "NULL_NA",
    "gnaf_pid": "GAVIC719411358"
   }
  },
  {
   "type": "Feature",
   "geometry": {
    "type": "Point",
    "coordinates": [
     144.54255507,
     -37.66952563
    ]
   },
   "properties": {
    "name": "41 LONG TREE DRIVE HARKNESS 3337",
    "locID": "LOC000095325658",
    "tech": "FTTP",
    "upgrade": "NULL_NA",
    "gnaf_pid": "GAVIC719411359"
   }
  },
  {
   "type": "Feature",
   "geometry": {
    "type": "Point",
    "coordinates": [
     144.56975971,
     -37.66456308
    ]
   },
   "properties": {
    "name": "3 SHE OAK COURT HARKNESS 3337",
    "locID": "LOC000016218293",
    "tech": "FTTN",
    "upgrade": "FTTP_SA",
    "gnaf_pid": "GAVIC719411360"
   }
  },
  {
   "type": "Feature",
   "geometry": {
    "type": "Point",
    "coordinates": [
     144.55926388,
     -37.67014276
    ]
   },
   "properties": {
    "name": "UNIT 2, 14 PANGBOURNE AVENUE HARKNESS 3337",
    "locID": "LOC000124505035",
    "tech": "FTTP",
    "upgrade": "NULL_NA",
    "gnaf_pid": "GAVIC719411361"
   }
  },
  {
   "type": "Feature",
   "geometry": {
    "type": "Point",
    "coordinates": [
     144.56248749,
     -37.66551157
    ]
   },
   "properties": {
    "name": "16 RIVERTON BOULEVARD HARKNESS 3337",
    "locID": "LOC000175859174",
    "tech": "FTTP",
    "upgrade": "NULL_NA",
    "gnaf_pid": "GAVIC719411362"
   }
  },
  {
   "type": "Feature",
   "geometry": {
    "type": "Point",
    "coordinates": [
     144.57021116,
     -37.66341995
    ]
   },
   "properties": {
    "name": "UNIT 37, 20-22 ROSLYN PARK DRIVE HARKNESS 3337",
    "locID": "LOC000062447690",
    "tech": "FTTN",
    "upgrade": "NULL_NA",
    "gnaf_pid": "GAVIC719411363"
   }
  },
  {
   "type": "Feature",
   "geometry": {
    "type": "Point",
    "coordinates": [
     144.56995649,
     -37.66334015
    ]
   },
   "properties": {
    "name": "UNIT 2, 20-22 ROSLYN PARK DRIVE HARKNESS 3337",
    "locID": "LOC000062362587",
    "tech": "FTTN",
    "upgrade": "NULL_NA",
    "gnaf_pid": "GAVIC719411364"
   }
  },
  {
   "type": "Feature",
   "geometry": {
    "type": "Point",
    "coordinates": [
     144.55852528,
     -37.66453968
    ]
   },
   "properties": {
    "name": "29 NORANDA CIRCUIT HARKNESS 3337",
    "locID": "LOC000124535154",
    "tech": "FTTP",
    "upgrade": "NULL_NA",
    "gnaf_pid": "GAVIC719411372"
   }
  },
  {
   "type": "Feature",
   "geometry": {
    "type": "Point",
    "coordinates": [
     144.55197898,
     -37.66494522
    ]
   },
   "properties": {
    "name": "2 LILAC COURT HARKNESS 3337",
    "locID": "LOC000124555109",
    "tech": "FTTP",
    "upgrade": "NULL_NA",
    "gnaf_pid": "GAVIC719411373"
   }
  },
  {
   "type": "Feature",
   "geometry": {
    "type": "Point",
    "coordinates": [
     144.5387963,
     -37.66857602
    ]
   },
   "properties": {
    "name": "2 ANDREAS COURT HARKNESS 3337",
    "locID": "LOC000091693543",
    "tech": "FTTP",
    "upgrade": "NULL_NA",
    "gnaf_pid": "GAVIC719411374"
   }
  },
  {
   "type": "Feature",
   "geometry": {
    "type": "Point",
    "coordinates": [
     144.55604418,
     -37.66997144
    ]
   },
   "properties": {
    "name": "2 PRISCILLA COURT HARKNESS 3337",
    "locID": "LOC000095245483",
    "tech": "FTTP",
    "upgrade": "NULL_NA",
    "gnaf_pid": "GAVIC719411375"
   }
  },
  {
   "type": "Feature",
   "geometry": {
    "type": "Point",
    "coordinates": [
     144.54915781,
     -37.6689079
    ]
   },
   "properties": {
    "name": "36 ARNOLDS CREEK BOULEVARD HARKNESS 3337",
    "locID": "LOC000080039970",
    "tech": "FTTP",
    "upgrade": "NULL_NA",
    "gnaf_pid": "GAVIC719411376"
   }
  },
  {
   "type": "Feature",
   "geometry": {
    "type": "Point",
    "coordinates": [
     144.55566889,
     -37.6671291
    ]
   },
   "properties": {
    "name": "11 BURSWOOD CIRCUIT HARKNESS 3337",
    "locID": "LOC000124497348",
    "tech": "FTTP",
    "upgrade": "NULL_NA",
    "gnaf_pid": "GAVIC719411377"
   }
  },
  {
   "type": "Feature",
   "geometry": {
    "type": "Point",
    "coordinates": [
     144.56898437,
     -37.66409461
    ]
   },
   "properties": {
    "name": "UNIT 2, 8 COOTAMUNDRA CIRCUIT HARKNESS 3337",
    "locID": "LOC000124530403",
    "tech": "FTTN",
    "upgrade": "FTTP_SA",
    "gnaf_pid": "GAVIC719411378"
   }
  },
  {
   "type": "Feature",
   "geometry": {
    "type": "Point",
    "coordinates": [
     144.56217985,
     -37.66900381
    ]
   },
   "properties": {
    "name": "6 DULCIFY COURT HARKNESS 3337",
    "locID": "LOC000102558463",
    "tech": "FTTN",
    "upgrade": "FTTP_SA",
    "gnaf_pid": "GAVIC719411379"
   }
  },
  {
   "type": "Feature",
   "geometry": {
    "type": "Point",
    "coordinates": [
     144.56252431,
     -37.66852432
    ]
   },
   "properties": {
    "name": "6 GROSVENOR COURT HARKNESS 3337",
    "locID": "LOC000029406025",
    "tech": "FTTN",
    "upgrade": "FTTP_SA",
    "gnaf_pid": "GAVIC719411380"
   }
  },
  {
   "type": "Feature",
   "geometry": {
    "type": "Point",
    "coordinates": [
     144.555185,
     -37.66505579
    ]
   },
   "properties": {
    "name": "21 CARRAMAR DRIVE HARKNESS 3337",
    "locID": "LOC000124497492",
    "tech": "FTTP",
    "upgrade": "NULL_NA",
    "gnaf_pid": "GAVIC719411381"
   }
  },
  {
   "type": "Feature",
   "geometry": {
    "type": "Point",
    "coordinates": [
     144.54598305,
     -37.66954801
    ]
   },
   "properties": {
    "name": "11 PARRIS AVENUE HARKNESS 3337",
    "locID": "LOC000061762161",
    "tech": "FTTP",
    "upgrade": "NULL_NA",
    "gnaf_pid": "GAVIC719411382"
   }
  },
  {
   "type": "Feature",
   "geometry": {
    "type": "Point",
    "coordinates": [
     144.54066294,
     -37.66812803
    ]
   },
   "properties": {
    "name": "11 WEEKS AVENUE HARKNESS 3337",
    "locID": "LOC000006800494",
    "tech": "FTTP",
    "upgrade": "NULL_NA",
    "gnaf_pid": "GAVIC719411383"
   }
  },
  {
   "type": "Feature",
   "geometry": {
    "type": "Point",
    "coordinates": [
     144.53656718,
     -37.66765265
    ]
   },
   "properties": {
    "name": "12 FINLAY AVENUE HARKNESS 3337",
    "locID": "LOC000022542654",
    "tech": "FTTP",
    "upgrade": "NULL_NA",
    "gnaf_pid": "GAVIC719411390"
   }
  },
  {
   "type": "Feature",
   "geometry": {
    "type": "Point",
    "coordinates": [
     144.55933866,
     -37.66973782
    ]
   },
   "properties": {
    "name": "UNIT 1, 18 PANGBOURNE AVENUE HARKNESS 3337",
    "locID": "LOC000147794013",
    "tech": "FTTP",
    "upgrade": "NULL_NA",
    "gnaf_pid": "GAVIC719411391"
   }
  },
  {
   "type": "Feature",
   "geometry": {
    "type": "Point",
    "coordinates": [
     144.54913124,
     -37.66396037
    ]
   },
   "properties": {
    "name": "17 LAWRENCE AVENUE HARKNESS 3337",
    "locID": "LOC000124534985",
    "tech": "FTTP",
    "upgrade": "NULL_NA",
    "gnaf_pid": "GAVIC719411392"
   }
  },
  {
   "type": "Feature",
   "geometry": {
    "type": "Point",
    "coordinates": [
     144.57195174,
     -37.65608842
    ]
   },
   "properties": {
    "name": "13 WILLANDRA BOULEVARD HARKNESS 3337",
    "locID": "LOC000137644714",
    "tech": "FTTP",
    "upgrade": "NULL_NA",
    "gnaf_pid": "GAVIC719411393"
   }
  },
  {
   "type": "Feature",
   "geometry": {
    "type": "Point",
    "coordinates": [
     144.53638419,
     -37.66551286
    ]
   },
   "properties": {
    "name": "131 CLARET ASH BOULEVARD HARKNESS 3337",
    "locID": "LOC000173233610",
    "tech": "FTTP",
    "upgrade": "NULL_NA",
    "gnaf_pid": "GAVIC719411394"
   }
  },
  {
   "type": "Feature",
   "geometry": {
    "type": "Point",
    "coordinates": [
     144.53648983,
     -37.66514239
    ]
   },
   "properties": {
    "name": "132 CLARET ASH BOULEVARD HARKNESS 3337",
    "locID": "LOC000173233469",
    "tech": "FTTP",
    "upgrade": "NULL_NA",
    "gnaf_pid": "GAVIC719411395"
   }
  },
  {
   "type": "Feature",
   "geometry": {
    "type": "Point",
    "coordinates": [
     144.55228399,
     -37.66524493
    ]
   },
   "properties": {
    "name": "9 LILAC COURT HARKNESS 3337",
    "locID": "LOC000124514388",
    "tech": "FTTP",
    "upgrade": "NULL_NA",
    "gnaf_pid": "GAVIC719411403"
   }
  },
  {
   "type": "Feature",
   "geometry": {
    "type": "Point",
    "coordinates": [
     144.55590423,
     -37.66883508
    ]
   },
   "properties": {
    "name": "18 MARLO DRIVE HARKNESS 3337",
    "locID": "LOC000113305051",
    "tech": "FTTP",
    "upgrade": "NULL_NA",
    "gnaf_pid": "GAVIC719411404"
   }
  },
  {
   "type": "Feature",
   "geometry": {
    "type": "Point",
    "coordinates": [
     144.54612122,
     -37.66462714
    ]
   },
   "properties": {
    "name": "20 HAWTHORN AVENUE HARKNESS 3337",
    "locID": "LOC000081036944",
    "tech": "FTTP",
    "upgrade": "NULL_NA",
    "gnaf_pid": "GAVIC719411405"
   }
  },
  {
   "type": "Feature",
   "geometry": {
    "type": "Point",
    "coordinates": [
     144.54213479,
     -37.66582086
    ]
   },
   "properties": {
    "name": "68 CLARET ASH BOULEVARD HARKNESS 3337",
    "locID": "LOC000139284612",
    "tech": "FTTP",
    "upgrade": "NULL_NA",
    "gnaf_pid": "GAVIC719411406"
   }
  },
  {
   "type": "Feature",
   "geometry": {
    "type": "Point",
    "coordinates": [
     144.55156847,
     -37.6705564
    ]
   },
   "properties": {
    "name": "3 ARNOLDS CREEK BOULEVARD HARKNESS 3337",
    "locID": "LOC000003877236",
    "tech": "FTTP",
    "upgrade": "NULL_NA",
    "gnaf_pid": "GAVIC719411407"
   }
  },
  {
   "type": "Feature",
   "geometry": {
    "type": "Point",
    "coordinates": [
     144.56947206,
     -37.66373862
    ]
   },
   "properties": {
    "name": "13 ROSLYN PARK DRIVE HARKNESS 3337",
    "locID": "LOC000156915311",
    "tech": "FTTN",
    "upgrade": "FTTP_SA",
    "gnaf_pid": "GAVIC719411408"
   }
  },
  {
   "type": "Feature",
   "geometry": {
    "type": "Point",
    "coordinates": [
     144.55137185,
     -37.66578397
    ]
   },
   "properties": {
    "name": "83 ARNOLDS CREEK BOULEVARD HARKNESS 3337",
    "locID": "LOC000113292782",
    "tech": "FTTP",
    "upgrade": "NULL_NA",
    "gnaf_pid": "GAVIC719411422"
   }
  },
  {
   "type": "Feature",
   "geometry": {
    "type": "Point",
    "coordinates": [
     144.55065669,
     -37.66607178
    ]
   },
   "properties": {
    "name": "77 ARNOLDS CREEK BOULEVARD HARKNESS 3337",
    "locID": "LOC000108224706",
    "tech": "FTTP",
    "upgrade": "NULL_NA",
    "gnaf_pid": "GAVIC719411423"
   }
  },
  {
   "type": "Feature",
   "geometry": {
    "type": "Point",
    "coordinates": [
     144.5361617,
     -37.66510298
    ]
   },
   "properties": {
    "name": "136 CLARET ASH BOULEVARD HARKNESS 3337",
    "locID": "LOC000173233482",
    "tech": "FTTP",
    "upgrade": "NULL_NA",
    "gnaf_pid": "GAVIC719411424"
   }
  },
  {
   "type": "Feature",
   "geometry": {
    "type": "Point",
    "coordinates": [
     144.56472115,
     -37.65909228
    ]
   },
   "properties": {
    "name": "111 CAITLYN DRIVE HARKNESS 3337",
    "locID": "LOC000188949871",
    "tech": "FTTP",
    "upgrade": "NULL_NA",
    "gnaf_pid": "GAVIC719411425"
   }
  },
  {
   "type": "Feature",
   "geometry": {
    "type": "Point",
    "coordinates": [
     144.55714468,
     -37.66710927
    ]
   },
   "properties": {
    "name": "31 BURSWOOD CIRCUIT HARKNESS 3337",
    "locID": "LOC000124543253",
    "tech": "FTTP",
    "upgrade": "NULL_NA",
    "gnaf_pid": "GAVIC719411426"
   }
  },
  {
   "type": "Feature",
   "geometry": {
    "type": "Point",
    "coordinates": [
     144.55178674,
     -37.67242013
    ]
   },
   "properties": {
    "name": "14A STABLEFORD CHASE HARKNESS 3337",
    "locID": "ChIJFdoefcLs1moRahu7oXN6PSA",
    "tech": "FTTP",
    "upgrade": "UNKNOWN",
    "gnaf_pid": "GAVIC719411427"
   }
  },
  {
   "type": "Feature",
   "geometry": {
    "type": "Point",
    "coordinates": [
     144.57258431,
     -37.65667456
    ]
   },
   "properties": {
    "name": "3 ARUMA AVENUE HARKNESS 3337",
    "locID": "LOC000143999121",
    "tech": "FTTP",
    "upgrade": "NULL_NA",
    "gnaf_pid": "GAVIC719411428"
   }
  },
  {
   "type": "Feature",
   "geometry": {
    "type": "Point",
    "coordinates": [
     144.57182819,
     -37.65994524
    ]
   },
   "properties": {
    "name": "3 SCARLET OAK AVENUE HARKNESS 3337",
    "locID": "LOC000007616696",
    "tech": "FTTP",
    "upgrade": "UNKNOWN",
    "gnaf_pid": "GAVIC719411429"
   }
  },
  {
   "type": "Feature",
   "geometry": {
    "type": "Point",
    "coordinates": [
     144.54618417,
     -37.66553088
    ]
   },
   "properties": {
    "name": "3 HAWTHORN AVENUE HARKNESS 3337",
    "locID": "LOC000044309537",
    "tech": "FTTP",
    "upgrade": "NULL_NA",
    "gnaf_pid": "GAVIC719411430"
   }
  },
  {
   "type": "Feature",
   "geometry": {
    "type": "Point",
    "coordinates": [
     144.54954138,
     -37.66373699
    ]
   },
   "properties": {
    "name": "32 LAWRENCE AVENUE HARKNESS 3337",
    "locID": "LOC000124547172",
    "tech": "FTTP",
    "upgrade": "NULL_NA",
    "gnaf_pid": "GAVIC719411431"
   }
  },
  {
   "type": "Feature",
   "geometry": {
    "type": "Point",
    "coordinates": [
     144.55928068,
     -37.67005181
    ]
   },
   "properties": {
    "name": "UNIT 3, 14 PANGBOURNE AVENUE HARKNESS 3337",
    "locID": "LOC000012132384",
    "tech": "FTTP",
    "upgrade": "NULL_NA",
    "gnaf_pid": "GAVIC719411432"
   }
  },
  {
   "type": "Feature",
   "geometry": {
    "type": "Point",
    "coordinates": [
     144.53972491,
     -37.66799545
    ]
   },
   "properties": {
    "name": "6 STACEY COURT HARKNESS 3337",
    "locID": "LOC000036754016",
    "tech": "FTTP",
    "upgrade": "NULL_NA",
    "gnaf_pid": "GAVIC719411447"
   }
  },
  {
   "type": "Feature",
   "geometry": {
    "type": "Point",
    "coordinates": [
     144.54440569,
     -37.66530987
    ]
   },
   "properties": {
    "name": "30 OAKPARK DRIVE HARKNESS 3337",
    "locID": "LOC000114066175",
    "tech": "FTTP",
    "upgrade": "NULL_NA",
    "gnaf_pid": "GAVIC719411448"
   }
  },
  {
   "type": "Feature",
   "geometry": {
    "type": "Point",
    "coordinates": [
     144.55911921,
     -37.66893686
    ]
   },
   "properties": {
    "name": "35 PANGBOURNE AVENUE HARKNESS 3337",
    "locID": "LOC000011825605",
    "tech": "FTTP",
    "upgrade": "NULL_NA",
    "gnaf_pid": "GAVIC719411449"
   }
  },
  {
   "type": "Feature",
   "geometry": {
    "type": "Point",
    "coordinates": [
     144.56241775,
     -37.67143281
    ]
   },
   "properties": {
    "name": "316 CENTENARY AVENUE HARKNESS 3337",
    "locID": "LOC000076691294",
    "tech": "FTTN",
    "upgrade": "FTTP_SA",
    "gnaf_pid": "GAVIC719411450"
   }
  },
  {
   "type": "Feature",
   "geometry": {
    "type": "Point",
    "coordinates": [
     144.5671841,
     -37.66581504
    ]
   },
   "properties": {
    "name": "1 HILLCREST COURT HARKNESS 3337",
    "locID": "LOC000031657279",
    "tech": "FTTC",
    "upgrade": "FTTP_SA",
    "gnaf_pid": "GAVIC719411461"
   }
  },
  {
   "type": "Feature",
   "geometry": {
    "type": "Point",
    "coordinates": [
     144.54140217,
     -37.66422965
    ]
   },
   "properties": {
    "name": "14 SHAHEEN COURT HARKNESS 3337",
    "locID": "LOC000124521595",
    "tech": "FTTP",
    "upgrade": "NULL_NA",
    "gnaf_pid": "GAVIC719411462"
   }
  },
  {
   "type": "Feature",
   "geometry": {
    "type": "Point",
    "coordinates": [
     144.54776219,
     -37.67045487
    ]
   },
   "properties": {
    "name": "25 PANORAMA DRIVE HARKNESS 3337",
    "locID": "LOC000003878126",
    "tech": "FTTP",
    "upgrade": "NULL_NA",
    "gnaf_pid": "GAVIC719411463"
   }
  },
  {
   "type": "Feature",
   "geometry": {
    "type": "Point",
    "coordinates": [
     144.5556351,
     -37.66626201
    ]
   },
   "properties": {
    "name": "1 CARRAMAR DRIVE HARKNESS 3337",
    "locID": "LOC000124554773",
    "tech": "FTTP",
    "upgrade": "NULL_NA",
    "gnaf_pid": "GAVIC719411469"
   }
  },
  {
   "type": "Feature",
   "geometry": {
    "type": "Point",
    "coordinates": [
     144.56039517,
     -37.6651829
    ]
   },
   "properties": {
    "name": "15 WANNEROO CIRCUIT HARKNESS 3337",
    "locID": "LOC000170308364",
    "tech": "FTTP",
    "upgrade": "NULL_NA",
    "gnaf_pid": "GAVIC719411470"
   }
  },
  {
   "type": "Feature",
   "geometry": {
    "type": "Point",
    "coordinates": [
     144.56151739,
     -37.66578742
    ]
   },
   "properties": {
    "name": "51 WANNEROO CIRCUIT HARKNESS 3337",
    "locID": "LOC000170308956",
    "tech": "FTTP",
    "upgrade": "NULL_NA",
    "gnaf_pid": "GAVIC719411471"
   }
  },
  {
   "type": "Feature",
   "geometry": {
    "type": "Point",
    "coordinates": [
     144.55367772,
     -37.66585427
    ]
   },
   "properties": {
    "name": "1 MINT BOULEVARD HARKNESS 3337",
    "locID": "LOC000177281535",
    "tech": "FTTP",
    "upgrade": "NULL_NA",
    "gnaf_pid": "GAVIC719411472"
   }
  },
  {
   "type": "Feature",
   "geometry": {
    "type": "Point",
    "coordinates": [
     144.56064132,
     -37.66479623
    ]
   },
   "properties": {
    "name": "23 WANNEROO CIRCUIT HARKNESS 3337",
    "locID": "LOC000170308800",
    "tech": "FTTP",
    "upgrade": "NULL_NA",
    "gnaf_pid": "GAVIC719411473"
   }
  },
  {
   "type": "Feature",
   "geometry": {
    "type": "Point",
    "coordinates": [
     144.55519875,
     -37.66856108
    ]
   },
   "properties": {
    "name": "UNIT 4, 15 MARLO DRIVE HARKNESS 3337",
    "locID": "LOC000114053388",
    "tech": "FTTP",
    "upgrade": "NULL_NA",
    "gnaf_pid": "GAVIC719411474"
   }
  },
  {
   "type": "Feature",
   "geometry": {
    "type": "Point",
    "coordinates": [
     144.572142,
     -37.65959204
    ]
   },
   "properties": {
    "name": "4 SCARLET OAK AVENUE HARKNESS 3337",
    "locID": "LOC000082700354",
    "tech": "FTTC",
    "upgrade": "FTTP_SA",
    "gnaf_pid": "GAVIC719411475"
   }
  },
  {
   "type": "Feature",
   "geometry": {
    "type": "Point",
    "coordinates": [
     144.54839195,
     -37.66511606
    ]
   },
   "properties": {
    "name": "4 LAWRENCE AVENUE HARKNESS 3337",
    "locID": "LOC000124501497",
    "tech": "FTTP",
    "upgrade": "NULL_NA",
    "gnaf_pid": "GAVIC719411476"
   }
  },
  {
   "type": "Feature",
   "geometry": {
    "type": "Point",
    "coordinates": [
     144.54949029,
     -37.66729383
    ]
   },
   "properties": {
    "name": "43 GALLERY AVENUE HARKNESS 3337",
    "locID": "LOC000012902289",
    "tech": "FTTP",
    "upgrade": "NULL_NA",
    "gnaf_pid": "GAVIC719411477"
   }
  },
  {
   "type": "Feature",
   "geometry": {
    "type": "Point",
    "coordinates": [
     144.55960909,
     -37.66841108
    ]
   },
   "properties": {
    "name": "48 SCARBOROUGH CRESCENT HARKNESS 3337",
    "locID": "LOC000032026806",
    "tech": "FTTP",
    "upgrade": "NULL_NA",
    "gnaf_pid": "GAVIC719411478"
   }
  },
  {
   "type": "Feature",
   "geometry": {
    "type": "Point",
    "coordinates": [
     144.5477582,
     -37.67365256
    ]
   },
   "properties": {
    "name": "UNIT 1, 24 SOVEREIGN BOULEVARD HARKNESS 3337",
    "locID": "ChIJ7-jJEsHs1moRzECHh8OF6MM",
    "tech": "FTTP",
    "upgrade": "UNKNOWN",
    "gnaf_pid": "GAVIC719411482"
   }
  },
  {
   "type": "Feature",
   "geometry": {
    "type": "Point",
    "coordinates": [
     144.56555082,
     -37.67061445
    ]
   },
   "properties": {
    "name": "16 GALILEE BOULEVARD HARKNESS 3337",
    "locID": "LOC000016014866",
    "tech": "FTTP",
    "upgrade": "NULL_NA",
    "gnaf_pid": "GAVIC719411483"
   }
  },
  {
   "type": "Feature",
   "geometry": {
    "type": "Point",
    "coordinates": [
     144.54704807,
     -37.67185694
    ]
   },
   "properties": {
    "name": "10 ROSEDALE COURT HARKNESS 3337",
    "locID": "LOC000010279418",
    "tech": "FTTP",
    "upgrade": "NULL_NA",
    "gnaf_pid": "GAVIC719411484"
   }
  },
  {
   "type": "Feature",
   "geometry": {
    "type": "Point",
    "coordinates": [
     144.55206933,
     -37.66523944
    ]
   },
   "properties": {
    "name": "10 LILAC COURT HARKNESS 3337",
    "locID": "LOC000124493205",
    "tech": "FTTP",
    "upgrade": "NULL_NA",
    "gnaf_pid": "GAVIC719411485"
   }
  },
  {
   "type": "Feature",
   "geometry": {
    "type": "Point",
    "coordinates": [
     144.55705875,
     -37.66925825
    ]
   },
   "properties": {
    "name": "10 PRISCILLA COURT HARKNESS 3337",
    "locID": "LOC000013889645",
    "tech": "FTTP",
    "upgrade": "NULL_NA",
    "gnaf_pid": "GAVIC719411486"
   }
  },
  {
   "type": "Feature",
   "geometry": {
    "type": "Point",
    "coordinates": [
     144.55553624,
     -37.67039818
    ]
   },
   "properties": {
    "name": "2 MARLO DRIVE HARKNESS 3337",
    "locID": "LOC000083445050",
    "tech": "FTTP",
    "upgrade": "NULL_NA",
    "gnaf_pid": "GAVIC719411487"
   }
  },
  {
   "type": "Feature",
   "geometry": {
    "type": "Point",
    "coordinates": [
     144.56353332,
     -37.67129368
    ]
   },
   "properties": {
    "name": "2 GAMALITE DRIVE HARKNESS 3337",
    "locID": "LOC000037819887",
    "tech": "FTTN",
    "upgrade": "FTTP_SA",
    "gnaf_pid": "GAVIC719411488"
   }
  },
  {
   "type": "Feature",
   "geometry": {
    "type": "Point",
    "coordinates": [
     144.57283432,
     -37.65512686
    ]
   },