{
 "type": "FeatureCollection",
 "generated": "2024-07-18T14:41:31.475392",
 "suburb": "INVERLOCH",
 "features": [
  {
   "type": "Feature",
   "geometry": {
    "type": "Point",
    "coordinates": [
     145.71353332,
     -38.63542246
    ]
   },
   "properties": {
    "name": "9 SHORT STREET INVERLOCH 3996",
    "locID": "LOC000109544472",
    "tech": "FTTN",
    "upgrade": "FTTP_SA",
    "gnaf_pid": "GAVIC411593464",
    "tech_change_status": "Eligible To Order",
    "program_type": "On-Demand N2P SDU/MDU Simple",
    "target_eligibility_quarter": "NA"
   }
  },
  {
   "type": "Feature",
   "geometry": {
    "type": "Point",
    "coordinates": [
     145.7104585,
     -38.63815395
    ]
   },
   "properties": {
    "name": "21A VICTORIA STREET INVERLOCH 3996",
    "locID": "LOC000100567414",
    "tech": "FTTN",
    "upgrade": "FTTP_NA",
    "gnaf_pid": "GAVIC411593485",
    "tech_change_status": "Committed",
    "program_type": "On-Demand N2P SDU/MDU Simple",
    "target_eligibility_quarter": "Dec 2024"
   }
  },
  {
   "type": "Feature",
   "geometry": {
    "type": "Point",
    "coordinates": [
     145.7359936,
     -38.63297756
    ]
   },
   "properties": {
    "name": "5 PYMBLE AVENUE INVERLOCH 3996",
    "locID": "LOC000114552319",
    "tech": "FTTN",
    "upgrade": "FTTP",
    "gnaf_pid": "GAVIC411594215",
    "tech_change_status": "Eligible To Order",
    "program_type": "On-Demand N2P SDU/MDU Simple",
    "target_eligibility_quarter": "NA"
   }
  },
  {
   "type": "Feature",
   "geometry": {
    "type": "Point",
    "coordinates": [
     145.73042897,
     -38.62820029
    ]
   },
   "properties": {
    "name": "UNIT 4, 23 WILSON AVENUE INVERLOCH 3996",
    "locID": "LOC000092238914",
    "tech": "FTTN",
    "upgrade": "FTTP_NA",
    "gnaf_pid": "GAVIC411594249",
    "tech_change_status": "MDU Complex Eligible To Apply",
    "program_type": "Customer-initiated N2P MDU Complex"
   }
  },
  {
   "type": "Feature",
   "geometry": {
    "type": "Point",
    "coordinates": [
     145.73057781,
     -38.62749604
    ]
   },
   "properties": {
    "name": "51 WILLIAMS STREET INVERLOCH 3996",
    "locID": "LOC000115065537",
    "tech": "FTTN",
    "upgrade": "FTTP_SA",
    "gnaf_pid": "GAVIC411594254",
    "tech_change_status": "Eligible To Order",
    "program_type": "On-Demand N2P SDU/MDU Simple",
    "target_eligibility_quarter": "NA"
   }
  },
  {
   "type": "Feature",
   "geometry": {
    "type": "Point",
    "coordinates": [
     145.72384209,
     -38.63483921
    ]
   },
   "properties": {
    "name": "2 CLERK CRESCENT INVERLOCH 3996",
    "locID": "LOC000092044226",
    "tech": "FTTN",
    "upgrade": "FTTP_NA",
    "gnaf_pid": "GAVIC411594259",
    "tech_change_status": "Committed",
    "program_type": "On-Demand N2P SDU/MDU Simple",
    "target_eligibility_quarter": "Dec 2024"
   }
  },
  {
   "type": "Feature",
   "geometry": {
    "type": "Point",
    "coordinates": [
     145.72580393,
     -38.63535209
    ]
   },
   "properties": {
    "name": "UNIT 5, 7 ST KILDA STREET INVERLOCH 3996",
    "locID": "LOC000016892415",
    "tech": "FTTN",
    "upgrade": "FTTP_NA",
    "gnaf_pid": "GAVIC411594263",
    "tech_change_status": "Committed",
    "program_type": "Customer-initiated N2P MDU Complex",
    "target_eligibility_quarter": "Dec 2024"
   }
  },
  {
   "type": "Feature",
   "geometry": {
    "type": "Point",
    "coordinates": [
     145.72417889,
     -38.6279017
    ]
   },
   "properties": {
    "name": "20 MARION COURT INVERLOCH 3996",
    "locID": "LOC000106959673",
    "tech": "FTTN",
    "upgrade": "FTTP_SA",
    "gnaf_pid": "GAVIC411594264",
    "tech_change_status": "Eligible To Order",
    "program_type": "On-Demand N2P SDU/MDU Simple",
    "target_eligibility_quarter": "NA"
   }
  },
  {
   "type": "Feature",
   "geometry": {
    "type": "Point",
    "coordinates": [
     145.72413369,
     -38.62838793
    ]
   },
   "properties": {
    "name": "19 MARION COURT INVERLOCH 3996",
    "locID": "LOC000101578801",
    "tech": "FTTN",
    "upgrade": "FTTP_SA",
    "gnaf_pid": "GAVIC411594271",
    "tech_change_status": "Eligible To Order",
    "program_type": "On-Demand N2P SDU/MDU Simple",
    "target_eligibility_quarter": "NA"
   }
  },
  {
   "type": "Feature",
   "geometry": {
    "type": "Point",
    "coordinates": [
     145.7092655,
     -38.63633565
    ]
   },
   "properties": {
    "name": "78 TOORAK ROAD INVERLOCH 3996",
    "locID": "LOC000114994854",
    "tech": "FTTN",
    "upgrade": "FTTP_SA",
    "gnaf_pid": "GAVIC411594305",
    "tech_change_status": "Eligible To Order",
    "program_type": "On-Demand N2P SDU/MDU Simple",
    "target_eligibility_quarter": "NA"
   }
  },
  {
   "type": "Feature",
   "geometry": {
    "type": "Point",
    "coordinates": [
     145.72492119,
     -38.63683289
    ]
   },
   "properties": {
    "name": "2 HILLSIDE AVENUE INVERLOCH 3996",
    "locID": "LOC000125897782",
    "tech": "FTTN",
    "upgrade": "FTTP_NA",
    "gnaf_pid": "GAVIC411594336",
    "tech_change_status": "Committed",
    "program_type": "On-Demand N2P SDU/MDU Simple",
    "target_eligibility_quarter": "Dec 2024"
   }
  },
  {
   "type": "Feature",
   "geometry": {
    "type": "Point",
    "coordinates": [
     145.73812498,
     -38.62847771
    ]
   },
   "properties": {
    "name": "33 INVERLOCH PARADE INVERLOCH 3996",
    "locID": "LOC000114575103",
    "tech": "FTTP",
    "upgrade": "FTTP_NA",
    "gnaf_pid": "GAVIC411594345",
    "tech_change_status": "Previous Tech Disconnected",
    "program_type": "On-Demand N2P SDU/MDU Simple",
    "target_eligibility_quarter": "NA"
   }
  },
  {
   "type": "Feature",
   "geometry": {
    "type": "Point",
    "coordinates": [
     145.72539073,
     -38.62967889
    ]
   },
   "properties": {
    "name": "1 MARION COURT INVERLOCH 3996",
    "locID": "LOC000016991772",
    "tech": "FTTN",
    "upgrade": "FTTP_SA",
    "gnaf_pid": "GAVIC411594360",
    "tech_change_status": "Eligible To Order",
    "program_type": "On-Demand N2P SDU/MDU Simple",
    "target_eligibility_quarter": "NA"
   }
  },
  {
   "type": "Feature",
   "geometry": {
    "type": "Point",
    "coordinates": [
     145.7245673,
     -38.62830223
    ]
   },
   "properties": {
    "name": "14 MARION COURT INVERLOCH 3996",
    "locID": "LOC000008708065",
    "tech": "FTTN",
    "upgrade": "FTTP_SA",
    "gnaf_pid": "GAVIC411594361",
    "tech_change_status": "Eligible To Order",
    "program_type": "On-Demand N2P SDU/MDU Simple",
    "target_eligibility_quarter": "NA"
   }
  },
  {
   "type": "Feature",
   "geometry": {
    "type": "Point",
    "coordinates": [
     145.72100136,
     -38.6367954
    ]
   },
   "properties": {
    "name": "1 FREDA STREET INVERLOCH 3996",
    "locID": "LOC000114486072",
    "tech": "FTTN",
    "upgrade": "FTTP_NA",
    "gnaf_pid": "GAVIC411595221",
    "tech_change_status": "Committed",
    "program_type": "On-Demand N2P SDU/MDU Simple",
    "target_eligibility_quarter": "Dec 2024"
   }
  },
  {
   "type": "Feature",
   "geometry": {
    "type": "Point",
    "coordinates": [
     145.73319303,
     -38.63435709
    ]
   },
   "properties": {
    "name": "30 HOPETOUN STREET INVERLOCH 3996",
    "locID": "LOC000055119234",
    "tech": "FTTP",
    "upgrade": "FTTP_NA",
    "gnaf_pid": "GAVIC411595226",
    "tech_change_status": "Previous Tech Disconnected",
    "program_type": "On-Demand N2P SDU/MDU Simple",
    "target_eligibility_quarter": "NA"
   }
  },
  {
   "type": "Feature",
   "geometry": {
    "type": "Point",
    "coordinates": [
     145.74273547,
     -38.63194937
    ]
   },
   "properties": {
    "name": "4 LINDSEY CLOSE INVERLOCH 3996",
    "locID": "LOC000114703432",
    "tech": "FTTN",
    "upgrade": "FTTP_SA",
    "gnaf_pid": "GAVIC411595234",
    "tech_change_status": "Eligible To Order",
    "program_type": "On-Demand N2P SDU/MDU Simple",
    "target_eligibility_quarter": "NA"
   }
  },
  {
   "type": "Feature",
   "geometry": {
    "type": "Point",
    "coordinates": [
     145.70412998,
     -38.63803088
    ]
   },
   "properties": {
    "name": "25 TAMARA CRESCENT INVERLOCH 3996",
    "locID": "LOC000114360424",
    "tech": "FTTN",
    "upgrade": "FTTP_NA",
    "gnaf_pid": "GAVIC411596095",
    "tech_change_status": "Committed",
    "program_type": "On-Demand N2P SDU/MDU Simple",
    "target_eligibility_quarter": "Dec 2024"
   }
  },
  {
   "type": "Feature",
   "geometry": {
    "type": "Point",
    "coordinates": [
     145.71015273,
     -38.64006413
    ]
   },
   "properties": {
    "name": "29 NORMAN ROAD INVERLOCH 3996",
    "locID": "LOC000059674226",
    "tech": "FTTN",
    "upgrade": "FTTP_NA",
    "gnaf_pid": "GAVIC411597834",
    "tech_change_status": "Committed",
    "program_type": "On-Demand N2P SDU/MDU Simple",
    "target_eligibility_quarter": "Dec 2024"
   }
  },
  {
   "type": "Feature",
   "geometry": {
    "type": "Point",
    "coordinates": [
     145.71231166,
     -38.64170599
    ]
   },
   "properties": {
    "name": "2 OVERLOOK DRIVE INVERLOCH 3996",
    "locID": "LOC000125906141",
    "tech": "FTTN",
    "upgrade": "FTTP_NA",
    "gnaf_pid": "GAVIC411597902",
    "tech_change_status": "Committed",
    "program_type": "On-Demand N2P SDU/MDU Simple",
    "target_eligibility_quarter": "Dec 2024"
   }
  },
  {
   "type": "Feature",
   "geometry": {
    "type": "Point",
    "coordinates": [
     145.72443995,
     -38.62817177
    ]
   },
   "properties": {
    "name": "16 MARION COURT INVERLOCH 3996",
    "locID": "LOC000078977290",
    "tech": "FTTN",
    "upgrade": "FTTP_SA",
    "gnaf_pid": "GAVIC411597991",
    "tech_change_status": "Eligible To Order",
    "program_type": "On-Demand N2P SDU/MDU Simple",
    "target_eligibility_quarter": "NA"
   }
  },
  {
   "type": "Feature",
   "geometry": {
    "type": "Point",
    "coordinates": [
     145.7350668,
     -38.63104625
    ]
   },
   "properties": {
    "name": "23 GRANDVIEW GROVE INVERLOCH 3996",
    "locID": "LOC000114429653",
    "tech": "FTTN",
    "upgrade": "FTTP_SA",
    "gnaf_pid": "GAVIC411598012",
    "tech_change_status": "Eligible To Order",
    "program_type": "On-Demand N2P SDU/MDU Simple",
    "target_eligibility_quarter": "NA"
   }
  },
  {
   "type": "Feature",
   "geometry": {
    "type": "Point",
    "coordinates": [
     145.7425871,
     -38.6318066
    ]
   },
   "properties": {
    "name": "18A MEANDERRI DRIVE INVERLOCH 3996",
    "locID": "LOC000060379140",
    "tech": "FTTN",
    "upgrade": "FTTP_SA",
    "gnaf_pid": "GAVIC411600935",
    "tech_change_status": "Eligible To Order",
    "program_type": "On-Demand N2P SDU/MDU Simple",
    "target_eligibility_quarter": "NA"
   }
  },
  {
   "type": "Feature",
   "geometry": {
    "type": "Point",
    "coordinates": [
     145.72986733,
     -38.63316068
    ]
   },
   "properties": {
    "name": "2A HIGH STREET INVERLOCH 3996",
    "locID": "LOC000084753229",
    "tech": "FTTP",
    "upgrade": "NULL_NA",
    "gnaf_pid": "GAVIC411600938",
    "program_type": "On-Demand N2P SDU/MDU Simple",
    "target_eligibility_quarter": "NA"
   }
  },
  {
   "type": "Feature",
   "geometry": {
    "type": "Point",
    "coordinates": [
     145.73004967,
     -38.62770648
    ]
   },
   "properties": {
    "name": "UNIT 3, 1 STEWART AVENUE INVERLOCH 3996",
    "locID": "LOC000083073164",
    "tech": "FTTN",
    "upgrade": "FTTP_NA",
    "gnaf_pid": "GAVIC411600951",
    "tech_change_status": "MDU Complex Eligible To Apply",
    "program_type": "Customer-initiated N2P MDU Complex"
   }
  },
  {
   "type": "Feature",
   "geometry": {
    "type": "Point",
    "coordinates": [
     145.72354387,
     -38.6287398
    ]
   },
   "properties": {
    "name": "22 POWLETT STREET INVERLOCH 3996",
    "locID": "LOC000114220829",
    "tech": "FTTN",
    "upgrade": "FTTP_SA",
    "gnaf_pid": "GAVIC411600981",
    "tech_change_status": "Eligible To Order",
    "program_type": "On-Demand N2P SDU/MDU Simple",
    "target_eligibility_quarter": "NA"
   }
  },
  {
   "type": "Feature",
   "geometry": {
    "type": "Point",
    "coordinates": [
     145.73042897,
     -38.62820029
    ]
   },
   "properties": {
    "name": "UNIT 1, 23 WILSON AVENUE INVERLOCH 3996",
    "locID": "LOC000092082629",
    "tech": "FTTN",
    "upgrade": "FTTP_NA",
    "gnaf_pid": "GAVIC411600987",
    "tech_change_status": "MDU Complex Eligible To Apply",
    "program_type": "Customer-initiated N2P MDU Complex"
   }
  },
  {
   "type": "Feature",
   "geometry": {
    "type": "Point",
    "coordinates": [
     145.73042897,
     -38.62820029
    ]
   },
   "properties": {
    "name": "UNIT 7, 23 WILSON AVENUE INVERLOCH 3996",
    "locID": "LOC000091937086",
    "tech": "FTTN",
    "upgrade": "FTTP_NA",
    "gnaf_pid": "GAVIC411600991",
    "tech_change_status": "MDU Complex Eligible To Apply",
    "program_type": "Customer-initiated N2P MDU Complex"
   }
  },
  {
   "type": "Feature",
   "geometry": {
    "type": "Point",
    "coordinates": [
     145.72461508,
     -38.63498769
    ]
   },
   "properties": {
    "name": "23A SANDY MOUNT AVENUE INVERLOCH 3996",
    "locID": "LOC000105615489",
    "tech": "FTTN",
    "upgrade": "FTTP_NA",
    "gnaf_pid": "GAVIC411602205",
    "tech_change_status": "Committed",
    "program_type": "On-Demand N2P SDU/MDU Simple",
    "target_eligibility_quarter": "Dec 2024"
   }
  },
  {
   "type": "Feature",
   "geometry": {
    "type": "Point",
    "coordinates": [
     145.73004967,
     -38.62770648
    ]
   },
   "properties": {
    "name": "UNIT 4, 1 STEWART AVENUE INVERLOCH 3996",
    "locID": "LOC000083367124",
    "tech": "FTTN",
    "upgrade": "FTTP_NA",
    "gnaf_pid": "GAVIC411603892",
    "tech_change_status": "MDU Complex Eligible To Apply",
    "program_type": "Customer-initiated N2P MDU Complex"
   }
  },
  {
   "type": "Feature",
   "geometry": {
    "type": "Point",
    "coordinates": [
     145.73004967,
     -38.62770648
    ]
   },
   "properties": {
    "name": "UNIT 11, 1 STEWART AVENUE INVERLOCH 3996",
    "locID": "LOC000083321481",
    "tech": "FTTN",
    "upgrade": "FTTP_NA",
    "gnaf_pid": "GAVIC411603904",
    "tech_change_status": "MDU Complex Eligible To Apply",
    "program_type": "Customer-initiated N2P MDU Complex"
   }
  },
  {
   "type": "Feature",
   "geometry": {
    "type": "Point",
    "coordinates": [
     145.71312169,
     -38.64252587
    ]
   },
   "properties": {
    "name": "48 SURF PARADE INVERLOCH 3996",
    "locID": "LOC000013481088",
    "tech": "FTTN",
    "upgrade": "FTTP_NA",
    "gnaf_pid": "GAVIC411608324",
    "tech_change_status": "Committed",
    "program_type": "On-Demand N2P SDU/MDU Simple",
    "target_eligibility_quarter": "Dec 2025"
   }
  },
  {
   "type": "Feature",
   "geometry": {
    "type": "Point",
    "coordinates": [
     145.70815959,
     -38.63802206
    ]
   },
   "properties": {
    "name": "3 SMYTHE PLACE INVERLOCH 3996",
    "locID": "LOC000071713115",
    "tech": "FTTN",
    "upgrade": "FTTP_NA",
    "gnaf_pid": "GAVIC411608328",
    "tech_change_status": "Committed",
    "program_type": "On-Demand N2P SDU/MDU Simple",
    "target_eligibility_quarter": "Dec 2024"
   }
  },
  {
   "type": "Feature",
   "geometry": {
    "type": "Point",
    "coordinates": [
     145.78649955,
     -38.60636494
    ]
   },
   "properties": {
    "name": "120 WALLIS ROAD INVERLOCH 3996",
    "locID": "LOC000056877470",
    "tech": "SATELLITE",
    "upgrade": "NULL_NA",
    "gnaf_pid": "GAVIC411608519",
    "tech_change_status": "Not Planned"
   }
  },
  {
   "type": "Feature",
   "geometry": {
    "type": "Point",
    "coordinates": [
     145.72483469,
     -38.62910698
    ]
   },
   "properties": {
    "name": "9 MARION COURT INVERLOCH 3996",
    "locID": "LOC000016916205",
    "tech": "FTTP",
    "upgrade": "FTTP_NA",
    "gnaf_pid": "GAVIC411608915",
    "tech_change_status": "Previous Tech Disconnected",
    "program_type": "On-Demand N2P SDU/MDU Simple",
    "target_eligibility_quarter": "NA"
   }
  },
  {
   "type": "Feature",
   "geometry": {
    "type": "Point",
    "coordinates": [
     145.7210866,
     -38.63626541
    ]
   },
   "properties": {
    "name": "7 FREDA STREET INVERLOCH 3996",
    "locID": "LOC000113063927",
    "tech": "FTTN",
    "upgrade": "FTTP_NA",
    "gnaf_pid": "GAVIC411608970",
    "tech_change_status": "Committed",
    "program_type": "On-Demand N2P SDU/MDU Simple",
    "target_eligibility_quarter": "Dec 2024"
   }
  },
  {
   "type": "Feature",
   "geometry": {
    "type": "Point",
    "coordinates": [
     145.73004967,
     -38.62770648
    ]
   },
   "properties": {
    "name": "UNIT 6, 1 STEWART AVENUE INVERLOCH 3996",
    "locID": "LOC000083557504",
    "tech": "FTTN",
    "upgrade": "FTTP_NA",
    "gnaf_pid": "GAVIC411609035",
    "tech_change_status": "MDU Complex Eligible To Apply",
    "program_type": "Customer-initiated N2P MDU Complex"
   }
  },
  {
   "type": "Feature",
   "geometry": {
    "type": "Point",
    "coordinates": [
     145.73004967,
     -38.62770648
    ]
   },
   "properties": {
    "name": "UNIT 19, 1 STEWART AVENUE INVERLOCH 3996",
    "locID": "LOC000083200497",
    "tech": "FTTN",
    "upgrade": "FTTP_NA",
    "gnaf_pid": "GAVIC411609039",
    "tech_change_status": "MDU Complex Eligible To Apply",
    "program_type": "Customer-initiated N2P MDU Complex"
   }
  },
  {
   "type": "Feature",
   "geometry": {
    "type": "Point",
    "coordinates": [
     145.72508664,
     -38.62883421
    ]
   },
   "properties": {
    "name": "6 MARION COURT INVERLOCH 3996",
    "locID": "LOC000031099905",
    "tech": "FTTN",
    "upgrade": "FTTP_SA",
    "gnaf_pid": "GAVIC411609059",
    "tech_change_status": "Eligible To Order",
    "program_type": "On-Demand N2P SDU/MDU Simple",
    "target_eligibility_quarter": "NA"
   }
  },
  {
   "type": "Feature",
   "geometry": {
    "type": "Point",
    "coordinates": [
     145.72585429,
     -38.63461074
    ]
   },
   "properties": {
    "name": "UNIT 1, 7 SCARBOROUGH STREET INVERLOCH 3996",
    "locID": "LOC000066153450",
    "tech": "FTTN",
    "upgrade": "FTTP_NA",
    "gnaf_pid": "GAVIC411609061",
    "tech_change_status": "Committed",
    "program_type": "On-Demand N2P SDU/MDU Simple",
    "target_eligibility_quarter": "Dec 2024"
   }
  },
  {
   "type": "Feature",
   "geometry": {
    "type": "Point",
    "coordinates": [
     145.72524326,
     -38.6295384
    ]
   },
   "properties": {
    "name": "3 MARION COURT INVERLOCH 3996",
    "locID": "LOC000042275179",
    "tech": "FTTN",
    "upgrade": "FTTP_SA",
    "gnaf_pid": "GAVIC411609679",
    "tech_change_status": "Eligible To Order",
    "program_type": "On-Demand N2P SDU/MDU Simple",
    "target_eligibility_quarter": "NA"
   }
  },
  {
   "type": "Feature",
   "geometry": {
    "type": "Point",
    "coordinates": [
     145.72319451,
     -38.62704583
    ]
   },
   "properties": {
    "name": "75 WONTHAGGI ROAD INVERLOCH 3996",
    "locID": "LOC000155166247",
    "tech": "FTTN",
    "upgrade": "FTTP_NA",
    "gnaf_pid": "GAVIC411609680",
    "tech_change_status": "MDU Complex Eligible To Apply",
    "program_type": "Customer-initiated N2P MDU Complex"
   }
  },
  {
   "type": "Feature",
   "geometry": {
    "type": "Point",
    "coordinates": [
     145.72580393,
     -38.63535209
    ]
   },
   "properties": {
    "name": "UNIT 3, 7 ST KILDA STREET INVERLOCH 3996",
    "locID": "LOC000016952571",
    "tech": "FTTN",
    "upgrade": "FTTP_NA",
    "gnaf_pid": "GAVIC411609681",
    "tech_change_status": "Committed",
    "program_type": "Customer-initiated N2P MDU Complex",
    "target_eligibility_quarter": "Dec 2024"
   }
  },
  {
   "type": "Feature",
   "geometry": {
    "type": "Point",
    "coordinates": [
     145.72497511,
     -38.62925096
    ]
   },
   "properties": {
    "name": "7 MARION COURT INVERLOCH 3996",
    "locID": "LOC000015882087",
    "tech": "FTTP",
    "upgrade": "FTTP_NA",
    "gnaf_pid": "GAVIC411609685",
    "tech_change_status": "Previous Tech Disconnected",
    "program_type": "On-Demand N2P SDU/MDU Simple",
    "target_eligibility_quarter": "NA"
   }
  },
  {
   "type": "Feature",
   "geometry": {
    "type": "Point",
    "coordinates": [
     145.7109484,
     -38.64293525
    ]
   },
   "properties": {
    "name": "17 VERONICA STREET INVERLOCH 3996",
    "locID": "LOC000114134848",
    "tech": "FTTN",
    "upgrade": "FTTP_NA",
    "gnaf_pid": "GAVIC411609714",
    "tech_change_status": "Committed",
    "program_type": "On-Demand N2P SDU/MDU Simple",
    "target_eligibility_quarter": "Dec 2024"
   }
  },
  {
   "type": "Feature",
   "geometry": {
    "type": "Point",
    "coordinates": [
     145.71200838,
     -38.64081688
    ]
   },
   "properties": {
    "name": "7 NORMAN ROAD INVERLOCH 3996",
    "locID": "LOC000115011155",
    "tech": "FTTN",
    "upgrade": "FTTP_NA",
    "gnaf_pid": "GAVIC411609882",
    "tech_change_status": "Committed",
    "program_type": "On-Demand N2P SDU/MDU Simple",
    "target_eligibility_quarter": "Dec 2024"
   }
  },
  {
   "type": "Feature",
   "geometry": {
    "type": "Point",
    "coordinates": [
     145.73116535,
     -38.63146529
    ]
   },
   "properties": {
    "name": "39 BAYVIEW AVENUE INVERLOCH 3996",
    "locID": "LOC000075054576",
    "tech": "FTTN",
    "upgrade": "FTTP_SA",
    "gnaf_pid": "GAVIC411609906",
    "tech_change_status": "Eligible To Order",
    "program_type": "On-Demand N2P SDU/MDU Simple",
    "target_eligibility_quarter": "NA"
   }
  },
  {
   "type": "Feature",
   "geometry": {
    "type": "Point",
    "coordinates": [
     145.71668803,
     -38.63524317
    ]
   },
   "properties": {
    "name": "42 HALFORD STREET INVERLOCH 3996",
    "locID": "LOC000047477893",
    "tech": "FTTN",
    "upgrade": "FTTP_NA",
    "gnaf_pid": "GAVIC411609926",
    "tech_change_status": "Committed",
    "program_type": "On-Demand N2P SDU/MDU Simple",
    "target_eligibility_quarter": "Dec 2025"
   }
  },
  {
   "type": "Feature",
   "geometry": {
    "type": "Point",
    "coordinates": [
     145.72452559,
     -38.62881596
    ]
   },
   "properties": {
    "name": "13 MARION COURT INVERLOCH 3996",
    "locID": "LOC000104356267",
    "tech": "FTTP",
    "upgrade": "FTTP_NA",
    "gnaf_pid": "GAVIC411609930",
    "tech_change_status": "Previous Tech Disconnected",
    "program_type": "On-Demand N2P SDU/MDU Simple",
    "target_eligibility_quarter": "NA"
   }
  },
  {
   "type": "Feature",
   "geometry": {
    "type": "Point",
    "coordinates": [
     145.73348533,
     -38.63278889
    ]
   },
   "properties": {
    "name": "7 PIER ROAD INVERLOCH 3996",
    "locID": "LOC000028373137",
    "tech": "FTTN",
    "upgrade": "FTTP_SA",
    "gnaf_pid": "GAVIC411609941",
    "tech_change_status": "Eligible To Order",
    "program_type": "On-Demand N2P SDU/MDU Simple",
    "target_eligibility_quarter": "NA"
   }
  },
  {
   "type": "Feature",
   "geometry": {
    "type": "Point",
    "coordinates": [
     145.73372577,
     -38.62749574
    ]
   },
   "properties": {
    "name": "18 TOWER STREET INVERLOCH 3996",
    "locID": "LOC000030997453",
    "tech": "FTTP",
    "upgrade": "FTTP_NA",
    "gnaf_pid": "GAVIC411610571",
    "tech_change_status": "Previous Tech Disconnected",
    "program_type": "On-Demand N2P SDU/MDU Simple",
    "target_eligibility_quarter": "NA"
   }
  },
  {
   "type": "Feature",
   "geometry": {
    "type": "Point",
    "coordinates": [
     145.73064616,
     -38.62934009
    ]
   },
   "properties": {
    "name": "UNIT 2, 64 WILLIAMS STREET INVERLOCH 3996",
    "locID": "LOC000021964241",
    "tech": "FTTP",
    "upgrade": "FTTP_NA",
    "gnaf_pid": "GAVIC411610578",
    "tech_change_status": "Previous Tech Disconnected",
    "program_type": "On-Demand N2P SDU/MDU Simple",
    "target_eligibility_quarter": "NA"
   }
  },
  {
   "type": "Feature",
   "geometry": {
    "type": "Point",
    "coordinates": [
     145.73004967,
     -38.62770648
    ]
   },
   "properties": {
    "name": "UNIT 5, 1 STEWART AVENUE INVERLOCH 3996",
    "locID": "LOC000082991396",
    "tech": "FTTN",
    "upgrade": "FTTP_NA",
    "gnaf_pid": "GAVIC411610583",
    "tech_change_status": "MDU Complex Eligible To Apply",
    "program_type": "Customer-initiated N2P MDU Complex"
   }
  },
  {
   "type": "Feature",
   "geometry": {
    "type": "Point",
    "coordinates": [
     145.70901181,
     -38.64118772
    ]
   },
   "properties": {
    "name": "74 VERONICA STREET INVERLOCH 3996",
    "locID": "LOC000019621334",
    "tech": "FTTN",
    "upgrade": "FTTP_NA",
    "gnaf_pid": "GAVIC411613299",
    "tech_change_status": "Committed",
    "program_type": "On-Demand N2P SDU/MDU Simple",
    "target_eligibility_quarter": "Dec 2024"
   }
  },
  {
   "type": "Feature",
   "geometry": {
    "type": "Point",
    "coordinates": [
     145.70649277,
     -38.64391502
    ]
   },
   "properties": {
    "name": "4 SYLVIA COURT INVERLOCH 3996",
    "locID": "LOC000056295153",
    "tech": "FTTN",
    "upgrade": "FTTP_SA",
    "gnaf_pid": "GAVIC411613303",
    "tech_change_status": "Eligible To Order",
    "program_type": "On-Demand N2P SDU/MDU Simple",
    "target_eligibility_quarter": "NA"
   }
  },
  {
   "type": "Feature",
   "geometry": {
    "type": "Point",
    "coordinates": [
     145.73355875,
     -38.63376145
    ]
   },
   "properties": {
    "name": "3 PIER ROAD INVERLOCH 3996",
    "locID": "LOC000125875161",
    "tech": "FTTP",
    "upgrade": "FTTP_NA",
    "gnaf_pid": "GAVIC411613332",
    "tech_change_status": "Previous Tech Disconnected",
    "program_type": "On-Demand N2P SDU/MDU Simple",
    "target_eligibility_quarter": "NA"
   }
  },
  {
   "type": "Feature",
   "geometry": {
    "type": "Point",
    "coordinates": [
     145.72431175,
     -38.62804044
    ]
   },
   "properties": {
    "name": "18 MARION COURT INVERLOCH 3996",
    "locID": "LOC000070009760",
    "tech": "FTTN",
    "upgrade": "FTTP",
    "gnaf_pid": "GAVIC411613356",
    "tech_change_status": "Eligible To Order",
    "program_type": "On-Demand N2P SDU/MDU Simple",
    "target_eligibility_quarter": "NA"
   }
  },
  {
   "type": "Feature",
   "geometry": {
    "type": "Point",
    "coordinates": [
     145.72382049,
     -38.62810456
    ]
   },
   "properties": {
    "name": "23 MARION COURT INVERLOCH 3996",
    "locID": "LOC000007002462",
    "tech": "FTTN",
    "upgrade": "FTTP_SA",
    "gnaf_pid": "GAVIC411613358",
    "tech_change_status": "Eligible To Order",
    "program_type": "On-Demand N2P SDU/MDU Simple",
    "target_eligibility_quarter": "NA"
   }
  },
  {
   "type": "Feature",
   "geometry": {
    "type": "Point",
    "coordinates": [
     145.72469594,
     -38.62843399
    ]
   },
   "properties": {
    "name": "12 MARION COURT INVERLOCH 3996",
    "locID": "LOC000029646060",
    "tech": "FTTN",
    "upgrade": "FTTP_SA",
    "gnaf_pid": "GAVIC411613360",
    "tech_change_status": "Eligible To Order",
    "program_type": "On-Demand N2P SDU/MDU Simple",
    "target_eligibility_quarter": "NA"
   }
  },
  {
   "type": "Feature",
   "geometry": {
    "type": "Point",
    "coordinates": [
     145.73392197,
     -38.62723068
    ]
   },
   "properties": {
    "name": "15 TOWER STREET INVERLOCH 3996",
    "locID": "LOC000088794582",
    "tech": "FTTN",
    "upgrade": "FTTP",
    "gnaf_pid": "GAVIC411614200",
    "tech_change_status": "Eligible To Order",
    "program_type": "On-Demand N2P SDU/MDU Simple",
    "target_eligibility_quarter": "NA"
   }
  },
  {
   "type": "Feature",
   "geometry": {
    "type": "Point",
    "coordinates": [
     145.72762538,
     -38.62763163
    ]
   },
   "properties": {
    "name": "11 WILSON AVENUE INVERLOCH 3996",
    "locID": "LOC000152463970",
    "tech": "FTTN",
    "upgrade": "FTTP_SA",
    "gnaf_pid": "GAVIC411614302",
    "tech_change_status": "Eligible To Order",
    "program_type": "On-Demand N2P SDU/MDU Simple",
    "target_eligibility_quarter": "NA"
   }
  },
  {
   "type": "Feature",
   "geometry": {
    "type": "Point",
    "coordinates": [
     145.72439605,
     -38.62866976
    ]
   },
   "properties": {
    "name": "15 MARION COURT INVERLOCH 3996",
    "locID": "LOC000102571782",
    "tech": "FTTN",
    "upgrade": "FTTP_SA",
    "gnaf_pid": "GAVIC411615043",
    "tech_change_status": "Eligible To Order",
    "program_type": "On-Demand N2P SDU/MDU Simple",
    "target_eligibility_quarter": "NA"
   }
  },
  {
   "type": "Feature",
   "geometry": {
    "type": "Point",
    "coordinates": [
     145.72580393,
     -38.63535209
    ]
   },
   "properties": {
    "name": "UNIT 2, 7 ST KILDA STREET INVERLOCH 3996",
    "locID": "LOC000016782117",
    "tech": "FTTN",
    "upgrade": "FTTP_NA",
    "gnaf_pid": "GAVIC411615046",
    "tech_change_status": "Committed",
    "program_type": "Customer-initiated N2P MDU Complex",
    "target_eligibility_quarter": "Dec 2024"
   }
  },
  {
   "type": "Feature",
   "geometry": {
    "type": "Point",
    "coordinates": [
     145.70863625,
     -38.63627114
    ]
   },
   "properties": {
    "name": "84 TOORAK ROAD INVERLOCH 3996",
    "locID": "LOC000113265014",
    "tech": "FTTP",
    "upgrade": "FTTP_NA",
    "gnaf_pid": "GAVIC411615079",
    "tech_change_status": "Previous Tech Disconnected",
    "program_type": "On-Demand N2P SDU/MDU Simple",
    "target_eligibility_quarter": "NA"
   }
  },
  {
   "type": "Feature",
   "geometry": {
    "type": "Point",
    "coordinates": [
     145.72080456,
     -38.63851508
    ]
   },
   "properties": {
    "name": "8 WESTERN STREET INVERLOCH 3996",
    "locID": "LOC000062647987",
    "tech": "FTTN",
    "upgrade": "FTTP_NA",
    "gnaf_pid": "GAVIC411615084",
    "tech_change_status": "Committed",
    "program_type": "On-Demand N2P SDU/MDU Simple",
    "target_eligibility_quarter": "Dec 2024"
   }
  },
  {
   "type": "Feature",
   "geometry": {
    "type": "Point",
    "coordinates": [
     145.71100724,
     -38.64040956
    ]
   },
   "properties": {
    "name": "21 NORMAN ROAD INVERLOCH 3996",
    "locID": "LOC000038117499",
    "tech": "FTTN",
    "upgrade": "FTTP_NA",
    "gnaf_pid": "GAVIC411615085",
    "tech_change_status": "Committed",
    "program_type": "On-Demand N2P SDU/MDU Simple",
    "target_eligibility_quarter": "Dec 2024"
   }
  },
  {
   "type": "Feature",
   "geometry": {
    "type": "Point",
    "coordinates": [
     145.72521586,
     -38.62896656
    ]
   },
   "properties": {
    "name": "4 MARION COURT INVERLOCH 3996",
    "locID": "LOC000016092643",
    "tech": "FTTN",
    "upgrade": "FTTP_SA",
    "gnaf_pid": "GAVIC411615796",
    "tech_change_status": "Eligible To Order",
    "program_type": "On-Demand N2P SDU/MDU Simple",
    "target_eligibility_quarter": "NA"
   }
  },
  {
   "type": "Feature",
   "geometry": {
    "type": "Point",
    "coordinates": [
     145.72580393,
     -38.63535209
    ]
   },
   "properties": {
    "name": "UNIT 4, 7 ST KILDA STREET INVERLOCH 3996",
    "locID": "LOC000016952571",
    "tech": "FTTN",
    "upgrade": "FTTP_NA",
    "gnaf_pid": "GAVIC411615903",
    "tech_change_status": "Committed",
    "program_type": "Customer-initiated N2P MDU Complex",
    "target_eligibility_quarter": "Dec 2024"
   }
  },
  {
   "type": "Feature",
   "geometry": {
    "type": "Point",
    "coordinates": [
     145.72495595,
     -38.62870035
    ]
   },
   "properties": {
    "name": "8 MARION COURT INVERLOCH 3996",
    "locID": "LOC000085298412",
    "tech": "FTTN",
    "upgrade": "FTTP",
    "gnaf_pid": "GAVIC411616120",
    "tech_change_status": "Eligible To Order",
    "program_type": "On-Demand N2P SDU/MDU Simple",
    "target_eligibility_quarter": "NA"
   }
  },
  {
   "type": "Feature",
   "geometry": {
    "type": "Point",
    "coordinates": [
     145.73130819,
     -38.62562111
    ]
   },
   "properties": {
    "name": "5 WONTHAGGI ROAD INVERLOCH 3996",
    "locID": "LOC000020270310",
    "tech": "FTTP",
    "upgrade": "FTTP_NA",
    "gnaf_pid": "GAVIC411616928",
    "tech_change_status": "Previous Tech Disconnected",
    "program_type": "On-Demand N2P SDU/MDU Simple",
    "target_eligibility_quarter": "NA"
   }
  },
  {
   "type": "Feature",
   "geometry": {
    "type": "Point",
    "coordinates": [
     145.73480443,
     -38.63260517
    ]
   },
   "properties": {
    "name": "UNIT 1, 15 GRANDVIEW GROVE INVERLOCH 3996",
    "locID": "LOC000065721603",
    "tech": "FTTN",
    "upgrade": "FTTP_SA",
    "gnaf_pid": "GAVIC411616930",
    "tech_change_status": "Eligible To Order",
    "program_type": "On-Demand N2P SDU/MDU Simple",
    "target_eligibility_quarter": "NA"
   }
  },
  {
   "type": "Feature",
   "geometry": {
    "type": "Point",
    "coordinates": [
     145.7073563,
     -38.63695774
    ]
   },
   "properties": {
    "name": "44 TAMARA CRESCENT INVERLOCH 3996",
    "locID": "LOC000011015878",
    "tech": "FTTN",
    "upgrade": "FTTP_NA",
    "gnaf_pid": "GAVIC411617508",
    "tech_change_status": "Committed",
    "program_type": "On-Demand N2P SDU/MDU Simple",
    "target_eligibility_quarter": "Dec 2024"
   }
  },
  {
   "type": "Feature",
   "geometry": {
    "type": "Point",
    "coordinates": [
     145.73925099,
     -38.62859275
    ]
   },
   "properties": {
    "name": "43 INVERLOCH PARADE INVERLOCH 3996",
    "locID": "LOC000114851215",
    "tech": "FTTN",
    "upgrade": "FTTP_SA",
    "gnaf_pid": "GAVIC411617869",
    "tech_change_status": "Eligible To Order",
    "program_type": "On-Demand N2P SDU/MDU Simple",
    "target_eligibility_quarter": "NA"
   }
  },
  {
   "type": "Feature",
   "geometry": {
    "type": "Point",
    "coordinates": [
     145.71765217,
     -38.63753187
    ]
   },
   "properties": {
    "name": "7 TOORAK ROAD INVERLOCH 3996",
    "locID": "LOC000085267153",
    "tech": "FTTN",
    "upgrade": "FTTP_NA",
    "gnaf_pid": "GAVIC411617890",
    "tech_change_status": "Committed",
    "program_type": "On-Demand N2P SDU/MDU Simple",
    "target_eligibility_quarter": "Dec 2024"
   }
  },
  {
   "type": "Feature",
   "geometry": {
    "type": "Point",
    "coordinates": [
     145.71515708,
     -38.63481679
    ]
   },
   "properties": {
    "name": "68 ROYAL PARADE INVERLOCH 3996",
    "locID": "LOC000114617005",
    "tech": "FTTN",
    "upgrade": "FTTP_SA",
    "gnaf_pid": "GAVIC411617902",
    "tech_change_status": "Eligible To Order",
    "program_type": "On-Demand N2P SDU/MDU Simple",
    "target_eligibility_quarter": "NA"
   }
  },
  {
   "type": "Feature",
   "geometry": {
    "type": "Point",
    "coordinates": [
     145.72459521,
     -38.63510988
    ]
   },
   "properties": {
    "name": "23 SANDY MOUNT AVENUE INVERLOCH 3996",
    "locID": "LOC000105963541",
    "tech": "FTTN",
    "upgrade": "FTTP_NA",
    "gnaf_pid": "GAVIC411617949",
    "tech_change_status": "Committed",
    "program_type": "On-Demand N2P SDU/MDU Simple",
    "target_eligibility_quarter": "Dec 2024"
   }
  },
  {
   "type": "Feature",
   "geometry": {
    "type": "Point",
    "coordinates": [
     145.72544614,
     -38.63453366
    ]
   },
   "properties": {
    "name": "3 SCARBOROUGH STREET INVERLOCH 3996",
    "locID": "LOC000086474292",
    "tech": "FTTN",
    "upgrade": "FTTP_NA",
    "gnaf_pid": "GAVIC411617973",
    "tech_change_status": "Committed",
    "program_type": "On-Demand N2P SDU/MDU Simple",
    "target_eligibility_quarter": "Dec 2024"
   }
  },
  {
   "type": "Feature",
   "geometry": {
    "type": "Point",
    "coordinates": [
     145.73004967,
     -38.62770648
    ]
   },
   "properties": {
    "name": "UNIT 18, 1 STEWART AVENUE INVERLOCH 3996",
    "locID": "LOC000082976160",
    "tech": "FTTN",
    "upgrade": "FTTP_NA",
    "gnaf_pid": "GAVIC411619445",
    "tech_change_status": "MDU Complex Eligible To Apply",
    "program_type": "Customer-initiated N2P MDU Complex"
   }
  },
  {
   "type": "Feature",
   "geometry": {
    "type": "Point",
    "coordinates": [
     145.73004967,
     -38.62770648
    ]
   },
   "properties": {
    "name": "UNIT 8, 1 STEWART AVENUE INVERLOCH 3996",
    "locID": "LOC000083490367",
    "tech": "FTTN",
    "upgrade": "FTTP_NA",
    "gnaf_pid": "GAVIC411619447",
    "tech_change_status": "MDU Complex Eligible To Apply",
    "program_type": "Customer-initiated N2P MDU Complex"
   }
  },
  {
   "type": "Feature",
   "geometry": {
    "type": "Point",
    "coordinates": [
     145.73004967,
     -38.62770648
    ]
   },
   "properties": {
    "name": "UNIT 9, 1 STEWART AVENUE INVERLOCH 3996",
    "locID": "LOC000083330721",
    "tech": "FTTN",
    "upgrade": "FTTP_NA",
    "gnaf_pid": "GAVIC411619448",
    "tech_change_status": "MDU Complex Eligible To Apply",
    "program_type": "Customer-initiated N2P MDU Complex"
   }
  },
  {
   "type": "Feature",
   "geometry": {
    "type": "Point",
    "coordinates": [
     145.7301456,
     -38.6316961
    ]
   },
   "properties": {
    "name": "28 WILLIAMS STREET INVERLOCH 3996",
    "locID": "LOC000035273121",
    "tech": "FTTP",
    "upgrade": "FTTP_NA",
    "gnaf_pid": "GAVIC411619662",
    "tech_change_status": "Previous Tech Disconnected",
    "program_type": "On-Demand N2P SDU/MDU Simple",
    "target_eligibility_quarter": "NA"
   }
  },
  {
   "type": "Feature",
   "geometry": {
    "type": "Point",
    "coordinates": [
     145.70304284,
     -38.64590707
    ]
   },
   "properties": {
    "name": "156 SURF PARADE INVERLOCH 3996",
    "locID": "LOC000112878153",
    "tech": "FTTN",
    "upgrade": "FTTP",
    "gnaf_pid": "GAVIC411619785",
    "tech_change_status": "Eligible To Order",
    "program_type": "On-Demand N2P SDU/MDU Simple",
    "target_eligibility_quarter": "NA"
   }
  },
  {
   "type": "Feature",
   "geometry": {
    "type": "Point",
    "coordinates": [
     145.73987747,
     -38.63424307
    ]
   },
   "properties": {
    "name": "2 THE ESPLANADE INVERLOCH 3996",
    "locID": "LOC000152411231",
    "tech": "FTTN",
    "upgrade": "FTTP_SA",
    "gnaf_pid": "GAVIC411619816",
    "tech_change_status": "Eligible To Order",
    "program_type": "On-Demand N2P SDU/MDU Simple",
    "target_eligibility_quarter": "NA"
   }
  },
  {
   "type": "Feature",
   "geometry": {
    "type": "Point",
    "coordinates": [
     145.72840355,
     -38.63322004
    ]
   },
   "properties": {
    "name": "8 REILLY STREET INVERLOCH 3996",
    "locID": "LOC000020388069",
    "tech": "FTTN",
    "upgrade": "FTTP_SA",
    "gnaf_pid": "GAVIC411619829",
    "tech_change_status": "Eligible To Order",
    "program_type": "On-Demand N2P SDU/MDU Simple",
    "target_eligibility_quarter": "NA"
   }
  },
  {
   "type": "Feature",
   "geometry": {
    "type": "Point",
    "coordinates": [
     145.72552785,
     -38.63596658
    ]
   },
   "properties": {
    "name": "6 ST KILDA STREET INVERLOCH 3996",
    "locID": "LOC000114363216",
    "tech": "FTTN",
    "upgrade": "FTTP_NA",
    "gnaf_pid": "GAVIC411619856",
    "tech_change_status": "Committed",
    "program_type": "On-Demand N2P SDU/MDU Simple",
    "target_eligibility_quarter": "Dec 2024"
   }
  },
  {
   "type": "Feature",
   "geometry": {
    "type": "Point",
    "coordinates": [
     145.73064616,
     -38.62934009
    ]
   },
   "properties": {
    "name": "UNIT 1, 64 WILLIAMS STREET INVERLOCH 3996",
    "locID": "LOC000021949153",
    "tech": "FTTN",
    "upgrade": "FTTP_SA",
    "gnaf_pid": "GAVIC411619857",
    "tech_change_status": "Eligible To Order",
    "program_type": "On-Demand N2P SDU/MDU Simple",
    "target_eligibility_quarter": "NA"
   }
  },
  {
   "type": "Feature",
   "geometry": {
    "type": "Point",
    "coordinates": [
     145.7114696,
     -38.63501935
    ]
   },
   "properties": {
    "name": "83 HALFORD STREET INVERLOCH 3996",
    "locID": "LOC000086609614",
    "tech": "FTTP",
    "upgrade": "NULL_NA",
    "gnaf_pid": "GAVIC411620465",
    "program_type": "On-Demand N2P SDU/MDU Simple",
    "target_eligibility_quarter": "NA"
   }
  },
  {
   "type": "Feature",
   "geometry": {
    "type": "Point",
    "coordinates": [
     145.73004967,
     -38.62770648
    ]
   },
   "properties": {
    "name": "UNIT 7, 1 STEWART AVENUE INVERLOCH 3996",
    "locID": "LOC000082943753",
    "tech": "FTTN",
    "upgrade": "FTTP_NA",
    "gnaf_pid": "GAVIC411620518",
    "tech_change_status": "MDU Complex Eligible To Apply",
    "program_type": "Customer-initiated N2P MDU Complex"
   }
  },
  {
   "type": "Feature",
   "geometry": {
    "type": "Point",
    "coordinates": [
     145.73004967,
     -38.62770648
    ]
   },
   "properties": {
    "name": "UNIT 2, 1 STEWART AVENUE INVERLOCH 3996",
    "locID": "LOC000083381956",
    "tech": "FTTN",
    "upgrade": "FTTP_NA",
    "gnaf_pid": "GAVIC411620525",
    "tech_change_status": "MDU Complex Eligible To Apply",
    "program_type": "Customer-initiated N2P MDU Complex"
   }
  },
  {
   "type": "Feature",
   "geometry": {
    "type": "Point",
    "coordinates": [
     145.74288748,
     -38.62835187
    ]
   },
   "properties": {
    "name": "11 HEATHER GROVE INVERLOCH 3996",
    "locID": "LOC000031077256",
    "tech": "FTTN",
    "upgrade": "FTTP_SA",
    "gnaf_pid": "GAVIC411620546",
    "tech_change_status": "Eligible To Order",
    "program_type": "On-Demand N2P SDU/MDU Simple",
    "target_eligibility_quarter": "NA"
   }
  },
  {
   "type": "Feature",
   "geometry": {
    "type": "Point",
    "coordinates": [
     145.71231166,
     -38.64170599
    ]
   },
   "properties": {
    "name": "UNIT 2, 2 OVERLOOK DRIVE INVERLOCH 3996",
    "locID": "LOC000125906141",
    "tech": "FTTN",
    "upgrade": "FTTP_NA",
    "gnaf_pid": "GAVIC411621965",
    "tech_change_status": "Committed",
    "program_type": "On-Demand N2P SDU/MDU Simple",
    "target_eligibility_quarter": "Dec 2024"
   }
  },
  {
   "type": "Feature",
   "geometry": {
    "type": "Point",
    "coordinates": [
     145.70509096,
     -38.64504235
    ]
   },
   "properties": {
    "name": "99 LOHR AVENUE INVERLOCH 3996",
    "locID": "LOC000114744152",
    "tech": "FTTP",
    "upgrade": "FTTP_NA",
    "gnaf_pid": "GAVIC411623083",
    "tech_change_status": "Previous Tech Disconnected",
    "program_type": "On-Demand N2P SDU/MDU Simple",
    "target_eligibility_quarter": "NA"
   }
  },
  {
   "type": "Feature",
   "geometry": {
    "type": "Point",
    "coordinates": [
     145.7188758,
     -38.6371425
    ]
   },
   "properties": {
    "name": "1 VENUS STREET INVERLOCH 3996",
    "locID": "LOC000114563735",
    "tech": "FTTN",
    "upgrade": "FTTP_NA",
    "gnaf_pid": "GAVIC411623094",
    "tech_change_status": "Committed",
    "program_type": "On-Demand N2P SDU/MDU Simple",
    "target_eligibility_quarter": "Dec 2024"
   }
  },
  {
   "type": "Feature",
   "geometry": {
    "type": "Point",
    "coordinates": [
     145.72424465,
     -38.63722824
    ]
   },
   "properties": {
    "name": "3 SANDY MOUNT AVENUE INVERLOCH 3996",
    "locID": "LOC000114638954",
    "tech": "FTTN",
    "upgrade": "FTTP_NA",
    "gnaf_pid": "GAVIC411623107",
    "tech_change_status": "Committed",
    "program_type": "On-Demand N2P SDU/MDU Simple",
    "target_eligibility_quarter": "Dec 2024"
   }
  },
  {
   "type": "Feature",
   "geometry": {
    "type": "Point",
    "coordinates": [
     145.72397791,
     -38.62824456
    ]
   },
   "properties": {
    "name": "21 MARION COURT INVERLOCH 3996",
    "locID": "LOC000101395723",
    "tech": "FTTP",
    "upgrade": "FTTP_NA",
    "gnaf_pid": "GAVIC411623129",
    "tech_change_status": "Previous Tech Disconnected",
    "program_type": "On-Demand N2P SDU/MDU Simple",
    "target_eligibility_quarter": "NA"
   }
  },
  {
   "type": "Feature",
   "geometry": {
    "type": "Point",
    "coordinates": [
     145.72963665,
     -38.63419598
    ]
   },
   "properties": {
    "name": "4 WILLIAMS STREET INVERLOCH 3996",
    "locID": "LOC000056087283",
    "tech": "FTTN",
    "upgrade": "FTTP_NA",
    "gnaf_pid": "GAVIC411623142",
    "tech_change_status": "MDU Complex Eligible To Apply",
    "program_type": "Customer-initiated N2P MDU Complex"
   }
  },
  {
   "type": "Feature",
   "geometry": {
    "type": "Point",
    "coordinates": [
     145.71740943,
     -38.63653145
    ]
   },
   "properties": {
    "name": "11 VIEW STREET INVERLOCH 3996",
    "locID": "LOC000114125505",
    "tech": "FTTN",
    "upgrade": "FTTP_NA",
    "gnaf_pid": "GAVIC411623172",
    "tech_change_status": "Committed",
    "program_type": "On-Demand N2P SDU/MDU Simple",
    "target_eligibility_quarter": "Dec 2024"
   }
  },
  {
   "type": "Feature",
   "geometry": {
    "type": "Point",
    "coordinates": [
     145.71078139,
     -38.64492947
    ]
   },
   "properties": {
    "name": "80 SURF PARADE INVERLOCH 3996",
    "locID": "LOC000045236166",
    "tech": "WIRELESS",
    "upgrade": "NULL_NA",
    "gnaf_pid": "GAVIC411623233",
    "tech_change_status": "Not Planned",
    "program_type": "Fixed Wireless and Satellite Upgrade Program",
    "target_eligibility_quarter": "NA"
   }
  },
  {
   "type": "Feature",
   "geometry": {
    "type": "Point",
    "coordinates": [
     145.72482643,
     -38.62856767
    ]
   },
   "properties": {
    "name": "10 MARION COURT INVERLOCH 3996",
    "locID": "LOC000079041300",
    "tech": "FTTN",
    "upgrade": "FTTP_SA",
    "gnaf_pid": "GAVIC411623245",
    "tech_change_status": "Eligible To Order",
    "program_type": "On-Demand N2P SDU/MDU Simple",
    "target_eligibility_quarter": "NA"
   }
  },
  {
   "type": "Feature",
   "geometry": {
    "type": "Point",
    "coordinates": [
     145.73004967,
     -38.62770648
    ]
   },
   "properties": {
    "name": "UNIT 17, 1 STEWART AVENUE INVERLOCH 3996",
    "locID": "LOC000083402353",
    "tech": "FTTN",
    "upgrade": "FTTP_NA",
    "gnaf_pid": "GAVIC411623256",
    "tech_change_status": "MDU Complex Eligible To Apply",
    "program_type": "Customer-initiated N2P MDU Complex"
   }
  },
  {
   "type": "Feature",
   "geometry": {
    "type": "Point",
    "coordinates": [
     145.72533981,
     -38.63056193
    ]
   },
   "properties": {
    "name": "UNIT 1, 57 SANDY MOUNT AVENUE INVERLOCH 3996",
    "locID": "LOC000061930837",
    "tech": "FTTN",
    "upgrade": "FTTP_SA",
    "gnaf_pid": "GAVIC411623258",
    "tech_change_status": "Eligible To Order",
    "program_type": "On-Demand N2P SDU/MDU Simple",
    "target_eligibility_quarter": "NA"
   }
  },
  {
   "type": "Feature",
   "geometry": {
    "type": "Point",
    "coordinates": [
     145.72993332,
     -38.62821959
    ]
   },
   "properties": {
    "name": "UNIT 13, 23 WILSON AVENUE INVERLOCH 3996",
    "locID": "LOC000092162734",
    "tech": "FTTN",
    "upgrade": "FTTP_NA",
    "gnaf_pid": "GAVIC411624766",
    "tech_change_status": "MDU Complex Eligible To Apply",
    "program_type": "Customer-initiated N2P MDU Complex"
   }
  },
  {
   "type": "Feature",
   "geometry": {
    "type": "Point",
    "coordinates": [
     145.73017682,
     -38.63452547
    ]
   },
   "properties": {
    "name": "3 THE ESPLANADE INVERLOCH 3996",
    "locID": "LOC000125910127",
    "tech": "FTTN",
    "upgrade": "FTTP_SA",
    "gnaf_pid": "GAVIC411624769",
    "tech_change_status": "Eligible To Order",
    "program_type": "On-Demand N2P SDU/MDU Simple",
    "target_eligibility_quarter": "NA"
   }
  },
  {
   "type": "Feature",
   "geometry": {
    "type": "Point",
    "coordinates": [
     145.73004967,
     -38.62770648
    ]
   },
   "properties": {
    "name": "UNIT 14, 1 STEWART AVENUE INVERLOCH 3996",
    "locID": "LOC000083355581",
    "tech": "FTTN",
    "upgrade": "FTTP_NA",
    "gnaf_pid": "GAVIC411624771",
    "tech_change_status": "MDU Complex Eligible To Apply",
    "program_type": "Customer-initiated N2P MDU Complex"
   }
  },
  {
   "type": "Feature",
   "geometry": {
    "type": "Point",
    "coordinates": [
     145.72113382,
     -38.63318388
    ]
   },
   "properties": {
    "name": "2 LAVINGTON STREET INVERLOCH 3996",
    "locID": "LOC000088681156",
    "tech": "FTTN",
    "upgrade": "FTTP_NA",
    "gnaf_pid": "GAVIC411624795",
    "tech_change_status": "Committed",
    "program_type": "On-Demand N2P SDU/MDU Simple",
    "target_eligibility_quarter": "Dec 2025"
   }
  },
  {
   "type": "Feature",
   "geometry": {
    "type": "Point",
    "coordinates": [
     145.74210991,
     -38.62837782
    ]
   },
   "properties": {
    "name": "4 STANLEY COURT INVERLOCH 3996",
    "locID": "LOC000088457246",
    "tech": "FTTN",
    "upgrade": "FTTP_SA",
    "gnaf_pid": "GAVIC411624799",
    "tech_change_status": "Eligible To Order",
    "program_type": "On-Demand N2P SDU/MDU Simple",
    "target_eligibility_quarter": "NA"
   }
  },
  {
   "type": "Feature",
   "geometry": {
    "type": "Point",
    "coordinates": [
     145.72534501,
     -38.62909881
    ]
   },
   "properties": {
    "name": "2 MARION COURT INVERLOCH 3996",
    "locID": "LOC000042482467",
    "tech": "FTTN",
    "upgrade": "FTTP_SA",
    "gnaf_pid": "GAVIC411626038",
    "tech_change_status": "Eligible To Order",
    "program_type": "On-Demand N2P SDU/MDU Simple",
    "target_eligibility_quarter": "NA"
   }
  },
  {
   "type": "Feature",
   "geometry": {
    "type": "Point",
    "coordinates": [
     145.70994697,
     -38.64122325
    ]
   },
   "properties": {
    "name": "10 FLORIDA AVENUE INVERLOCH 3996",
    "locID": "LOC000115080112",
    "tech": "FTTN",
    "upgrade": "FTTP_NA",
    "gnaf_pid": "GAVIC411626515",
    "tech_change_status": "Committed",
    "program_type": "On-Demand N2P SDU/MDU Simple",
    "target_eligibility_quarter": "Dec 2024"
   }
  },
  {
   "type": "Feature",
   "geometry": {
    "type": "Point",
    "coordinates": [
     145.74376788,
     -38.63245094
    ]
   },
   "properties": {
    "name": "12 LINDSEY CLOSE INVERLOCH 3996",
    "locID": "LOC000114343604",
    "tech": "FTTN",
    "upgrade": "FTTP_SA",
    "gnaf_pid": "GAVIC411627631",
    "tech_change_status": "Eligible To Order",
    "program_type": "On-Demand N2P SDU/MDU Simple",
    "target_eligibility_quarter": "NA"
   }
  },
  {
   "type": "Feature",
   "geometry": {
    "type": "Point",
    "coordinates": [
     145.73292998,
     -38.63197498
    ]
   },
   "properties": {
    "name": "22 BAYVIEW AVENUE INVERLOCH 3996",
    "locID": "LOC000113136239",
    "tech": "FTTN",
    "upgrade": "FTTP_SA",
    "gnaf_pid": "GAVIC411627637",
    "tech_change_status": "Eligible To Order",
    "program_type": "On-Demand N2P SDU/MDU Simple",
    "target_eligibility_quarter": "NA"
   }
  },
  {
   "type": "Feature",
   "geometry": {
    "type": "Point",
    "coordinates": [
     145.71198428,
     -38.63567359
    ]
   },
   "properties": {
    "name": "14 BIRD STREET INVERLOCH 3996",
    "locID": "LOC000114570215",
    "tech": "FTTP",
    "upgrade": "FTTP_NA",
    "gnaf_pid": "GAVIC411627801",
    "tech_change_status": "Previous Tech Disconnected",
    "program_type": "On-Demand N2P SDU/MDU Simple",
    "target_eligibility_quarter": "NA"
   }
  },
  {
   "type": "Feature",
   "geometry": {
    "type": "Point",
    "coordinates": [
     145.73004967,
     -38.62770648
    ]
   },
   "properties": {
    "name": "UNIT 15, 1 STEWART AVENUE INVERLOCH 3996",
    "locID": "LOC000083216583",
    "tech": "FTTN",
    "upgrade": "FTTP_NA",
    "gnaf_pid": "GAVIC411628517",
    "tech_change_status": "MDU Complex Eligible To Apply",
    "program_type": "Customer-initiated N2P MDU Complex"
   }
  },
  {
   "type": "Feature",
   "geometry": {
    "type": "Point",
    "coordinates": [
     145.72580393,
     -38.63535209
    ]
   },
   "properties": {
    "name": "UNIT 1, 7 ST KILDA STREET INVERLOCH 3996",
    "locID": "LOC000016983712",
    "tech": "FTTN",
    "upgrade": "FTTP_NA",
    "gnaf_pid": "GAVIC411628526",
    "tech_change_status": "Committed",
    "program_type": "Customer-initiated N2P MDU Complex",
    "target_eligibility_quarter": "Dec 2024"
   }
  },
  {
   "type": "Feature",
   "geometry": {
    "type": "Point",
    "coordinates": [
     145.73042897,
     -38.62820029
    ]
   },
   "properties": {
    "name": "UNIT 6, 23 WILSON AVENUE INVERLOCH 3996",
    "locID": "LOC000092315143",
    "tech": "FTTN",
    "upgrade": "FTTP_NA",
    "gnaf_pid": "GAVIC411628534",
    "tech_change_status": "MDU Complex Eligible To Apply",
    "program_type": "Customer-initiated N2P MDU Complex"
   }
  },
  {
   "type": "Feature",
   "geometry": {
    "type": "Point",
    "coordinates": [
     145.73004967,
     -38.62770648
    ]
   },
   "properties": {
    "name": "UNIT 16, 1 STEWART AVENUE INVERLOCH 3996",
    "locID": "LOC000083073867",
    "tech": "FTTN",
    "upgrade": "FTTP_NA",
    "gnaf_pid": "GAVIC411628538",
    "tech_change_status": "MDU Complex Eligible To Apply",
    "program_type": "Customer-initiated N2P MDU Complex"
   }
  },
  {
   "type": "Feature",
   "geometry": {
    "type": "Point",
    "coordinates": [
     145.72372164,
     -38.6328497
    ]
   },
   "properties": {
    "name": "11 DIXON STREET INVERLOCH 3996",
    "locID": "LOC000042456091",
    "tech": "FTTN",
    "upgrade": "FTTP_NA",
    "gnaf_pid": "GAVIC411629246",
    "tech_change_status": "Committed",
    "program_type": "On-Demand N2P SDU/MDU Simple",
    "target_eligibility_quarter": "Dec 2024"
   }
  },
  {
   "type": "Feature",
   "geometry": {
    "type": "Point",
    "coordinates": [
     145.71157234,
     -38.64173313
    ]
   },
   "properties": {
    "name": "3 OVERLOOK DRIVE INVERLOCH 3996",
    "locID": "LOC000114037290",
    "tech": "FTTN",
    "upgrade": "FTTP_NA",
    "gnaf_pid": "GAVIC411630121",
    "tech_change_status": "Committed",
    "program_type": "On-Demand N2P SDU/MDU Simple",
    "target_eligibility_quarter": "Dec 2024"
   }
  },
  {
   "type": "Feature",
   "geometry": {
    "type": "Point",
    "coordinates": [
     145.73004967,
     -38.62770648
    ]
   },
   "properties": {
    "name": "UNIT 13, 1 STEWART AVENUE INVERLOCH 3996",
    "locID": "LOC000083241975",
    "tech": "FTTN",
    "upgrade": "FTTP_NA",
    "gnaf_pid": "GAVIC411630216",
    "tech_change_status": "MDU Complex Eligible To Apply",
    "program_type": "Customer-initiated N2P MDU Complex"
   }
  },
  {
   "type": "Feature",
   "geometry": {
    "type": "Point",
    "coordinates": [
     145.71231166,
     -38.64170599
    ]
   },
   "properties": {
    "name": "UNIT 1, 2 OVERLOOK DRIVE INVERLOCH 3996",
    "locID": "LOC000125906141",
    "tech": "FTTN",
    "upgrade": "FTTP_NA",
    "gnaf_pid": "GAVIC411631244",
    "tech_change_status": "Committed",
    "program_type": "On-Demand N2P SDU/MDU Simple",
    "target_eligibility_quarter": "Dec 2024"
   }
  },
  {
   "type": "Feature",
   "geometry": {
    "type": "Point",
    "coordinates": [
     145.71195318,
     -38.64155929
    ]
   },
   "properties": {
    "name": "UNIT 1, 6 OVERLOOK DRIVE INVERLOCH 3996",
    "locID": "LOC000058184297",
    "tech": "FTTN",
    "upgrade": "FTTP_NA",
    "gnaf_pid": "GAVIC411631368",
    "tech_change_status": "Committed",
    "program_type": "On-Demand N2P SDU/MDU Simple",
    "target_eligibility_quarter": "Dec 2025"
   }
  },
  {
   "type": "Feature",
   "geometry": {
    "type": "Point",
    "coordinates": [
     145.7327862,
     -38.63431517
    ]
   },
   "properties": {
    "name": "26 HOPETOUN STREET INVERLOCH 3996",
    "locID": "LOC000058046412",
    "tech": "FTTN",
    "upgrade": "FTTP_NA",
    "gnaf_pid": "GAVIC411632975",
    "tech_change_status": "MDU Complex Eligible To Apply",
    "program_type": "Customer-initiated N2P MDU Complex"
   }
  },
  {
   "type": "Feature",
   "geometry": {
    "type": "Point",
    "coordinates": [
     145.73966524,
     -38.61580155
    ]
   },
   "properties": {
    "name": "2 MURRAYS ROAD INVERLOCH 3996",
    "locID": "LOC100072049084",
    "tech": "WIRELESS",
    "upgrade": "NULL_NA",
    "gnaf_pid": "GAVIC411633624",
    "tech_change_status": "Not Planned",
    "program_type": "Fixed Wireless and Satellite Upgrade Program",
    "target_eligibility_quarter": "NA"
   }
  },
  {
   "type": "Feature",
   "geometry": {
    "type": "Point",
    "coordinates": [
     145.71028348,
     -38.63410614
    ]
   },
   "properties": {
    "name": "6 THE MEWS INVERLOCH 3996",
    "locID": "LOC000029265437",
    "tech": "FTTN",
    "upgrade": "FTTP_SA",
    "gnaf_pid": "GAVIC411633628",
    "tech_change_status": "Eligible To Order",
    "program_type": "On-Demand N2P SDU/MDU Simple",
    "target_eligibility_quarter": "NA"
   }
  },
  {
   "type": "Feature",
   "geometry": {
    "type": "Point",
    "coordinates": [
     145.72533981,
     -38.63056193
    ]
   },
   "properties": {
    "name": "UNIT 2, 57 SANDY MOUNT AVENUE INVERLOCH 3996",
    "locID": "LOC000061826974",
    "tech": "FTTN",
    "upgrade": "FTTP_SA",
    "gnaf_pid": "GAVIC411633743",
    "tech_change_status": "Eligible To Order",
    "program_type": "On-Demand N2P SDU/MDU Simple",
    "target_eligibility_quarter": "NA"
   }
  },
  {
   "type": "Feature",
   "geometry": {
    "type": "Point",
    "coordinates": [
     145.72021395,
     -38.63309184
    ]
   },
   "properties": {
    "name": "12 LAVINGTON STREET INVERLOCH 3996",
    "locID": "LOC000108679019",
    "tech": "FTTN",
    "upgrade": "FTTP_NA",
    "gnaf_pid": "GAVIC411633747",
    "tech_change_status": "Committed",
    "program_type": "On-Demand N2P SDU/MDU Simple",
    "target_eligibility_quarter": "Dec 2025"
   }
  },
  {
   "type": "Feature",
   "geometry": {
    "type": "Point",
    "coordinates": [
     145.71148379,
     -38.64136978
    ]
   },
   "properties": {
    "name": "12 OVERLOOK DRIVE INVERLOCH 3996",
    "locID": "LOC000114505503",
    "tech": "FTTN",
    "upgrade": "FTTP_NA",
    "gnaf_pid": "GAVIC411633888",
    "tech_change_status": "Committed",
    "program_type": "On-Demand N2P SDU/MDU Simple",
    "target_eligibility_quarter": "Dec 2024"
   }
  },
  {
   "type": "Feature",
   "geometry": {
    "type": "Point",
    "coordinates": [
     145.71928349,
     -38.63718549
    ]
   },
   "properties": {
    "name": "5 VENUS STREET INVERLOCH 3996",
    "locID": "LOC000113254282",
    "tech": "FTTN",
    "upgrade": "FTTP_NA",
    "gnaf_pid": "GAVIC411633920",
    "tech_change_status": "Committed",
    "program_type": "On-Demand N2P SDU/MDU Simple",
    "target_eligibility_quarter": "Dec 2024"
   }
  },
  {
   "type": "Feature",
   "geometry": {
    "type": "Point",
    "coordinates": [
     145.72467087,
     -38.62895604
    ]
   },
   "properties": {
    "name": "11 MARION COURT INVERLOCH 3996",
    "locID": "LOC000006019697",
    "tech": "FTTP",
    "upgrade": "FTTP_NA",
    "gnaf_pid": "GAVIC411633922",
    "tech_change_status": "Previous Tech Disconnected",
    "program_type": "On-Demand N2P SDU/MDU Simple",
    "target_eligibility_quarter": "NA"
   }
  },
  {
   "type": "Feature",
   "geometry": {
    "type": "Point",
    "coordinates": [
     145.73042897,
     -38.62820029
    ]
   },
   "properties": {
    "name": "UNIT 2, 23 WILSON AVENUE INVERLOCH 3996",
    "locID": "LOC000092330676",
    "tech": "FTTN",
    "upgrade": "FTTP_NA",
    "gnaf_pid": "GAVIC411633925",
    "tech_change_status": "MDU Complex Eligible To Apply",
    "program_type": "Customer-initiated N2P MDU Complex"
   }
  },
  {
   "type": "Feature",
   "geometry": {
    "type": "Point",
    "coordinates": [
     145.73004967,
     -38.62770648
    ]
   },
   "properties": {
    "name": "UNIT 10, 1 STEWART AVENUE INVERLOCH 3996",
    "locID": "LOC000083383182",
    "tech": "FTTN",
    "upgrade": "FTTP_NA",
    "gnaf_pid": "GAVIC411634640",
    "tech_change_status": "MDU Complex Eligible To Apply",
    "program_type": "Customer-initiated N2P MDU Complex"
   }
  },
  {
   "type": "Feature",
   "geometry": {
    "type": "Point",
    "coordinates": [
     145.73042897,
     -38.62820029
    ]
   },
   "properties": {
    "name": "UNIT 3, 23 WILSON AVENUE INVERLOCH 3996",
    "locID": "LOC000092330757",
    "tech": "FTTN",
    "upgrade": "FTTP_NA",
    "gnaf_pid": "GAVIC411634642",
    "tech_change_status": "MDU Complex Eligible To Apply",
    "program_type": "Customer-initiated N2P MDU Complex"
   }
  },
  {
   "type": "Feature",
   "geometry": {
    "type": "Point",
    "coordinates": [
     145.73004967,
     -38.62770648
    ]
   },
   "properties": {
    "name": "UNIT 12, 1 STEWART AVENUE INVERLOCH 3996",
    "locID": "LOC000083726766",
    "tech": "FTTN",
    "upgrade": "FTTP_NA",
    "gnaf_pid": "GAVIC411635870",
    "tech_change_status": "MDU Complex Eligible To Apply",
    "program_type": "Customer-initiated N2P MDU Complex"
   }
  },
  {
   "type": "Feature",
   "geometry": {
    "type": "Point",
    "coordinates": [
     145.73042897,
     -38.62820029
    ]
   },
   "properties": {
    "name": "UNIT 9, 23 WILSON AVENUE INVERLOCH 3996",
    "locID": "LOC000091997138",
    "tech": "FTTN",
    "upgrade": "FTTP_NA",
    "gnaf_pid": "GAVIC411635874",
    "tech_change_status": "MDU Complex Eligible To Apply",
    "program_type": "Customer-initiated N2P MDU Complex"
   }
  },
  {
   "type": "Feature",
   "geometry": {
    "type": "Point",
    "coordinates": [
     145.72494578,
     -38.63554582
    ]
   },
   "properties": {
    "name": "8 SANDY MOUNT AVENUE INVERLOCH 3996",
    "locID": "LOC000114779675",
    "tech": "FTTN",
    "upgrade": "FTTP_NA",
    "gnaf_pid": "GAVIC411635885",
    "tech_change_status": "Committed",
    "program_type": "On-Demand N2P SDU/MDU Simple",
    "target_eligibility_quarter": "Dec 2024"
   }
  },
  {
   "type": "Feature",
   "geometry": {
    "type": "Point",
    "coordinates": [
     145.72428902,
     -38.62854743
    ]
   },
   "properties": {
    "name": "17 MARION COURT INVERLOCH 3996",
    "locID": "LOC000075523230",
    "tech": "FTTN",
    "upgrade": "FTTP_SA",
    "gnaf_pid": "GAVIC411635897",
    "tech_change_status": "Eligible To Order",
    "program_type": "On-Demand N2P SDU/MDU Simple",
    "target_eligibility_quarter": "NA"
   }
  },
  {
   "type": "Feature",
   "geometry": {
    "type": "Point",
    "coordinates": [
     145.71630197,
     -38.6319956
    ]
   },
   "properties": {
    "name": "69 CASHIN STREET INVERLOCH 3996",
    "locID": "LOC000187222604",
    "tech": "FTTN",
    "upgrade": "FTTP_SA",
    "gnaf_pid": "GAVIC411636320",
    "tech_change_status": "Eligible To Order",
    "program_type": "On-Demand N2P SDU/MDU Simple",
    "target_eligibility_quarter": "NA"
   }
  },
  {
   "type": "Feature",
   "geometry": {
    "type": "Point",
    "coordinates": [
     145.63212663,
     -38.62643308
    ]
   },
   "properties": {
    "name": "LOT 3 BOUNDARY ROAD INVERLOCH 3996",
    "locID": "LOC000079337878",
    "tech": "WIRELESS",
    "upgrade": "NULL_NA",
    "gnaf_pid": "GAVIC412667991",
    "tech_change_status": "Not Planned",
    "program_type": "Fixed Wireless and Satellite Upgrade Program",
    "target_eligibility_quarter": "NA"
   }
  },
  {
   "type": "Feature",
   "geometry": {
    "type": "Point",
    "coordinates": [
     145.68784698,
     -38.62432593
    ]
   },
   "properties": {
    "name": "LOT 4 BAMBROOK ROAD INVERLOCH 3996",
    "locID": "LOC000125918287",
    "tech": "WIRELESS",
    "upgrade": "NULL_NA",
    "gnaf_pid": "GAVIC412699433",
    "tech_change_status": "Not Planned",
    "program_type": "Fixed Wireless and Satellite Upgrade Program",
    "target_eligibility_quarter": "NA"
   }
  },
  {
   "type": "Feature",
   "geometry": {
    "type": "Point",
    "coordinates": [
     145.68784698,
     -38.62432593
    ]
   },
   "properties": {
    "name": "LOT 3 BAMBROOK ROAD INVERLOCH 3996",
    "locID": "LOC000125918287",
    "tech": "WIRELESS",
    "upgrade": "NULL_NA",
    "gnaf_pid": "GAVIC412699435",
    "tech_change_status": "Not Planned",
    "program_type": "Fixed Wireless and Satellite Upgrade Program",
    "target_eligibility_quarter": "NA"
   }
  },
  {
   "type": "Feature",
   "geometry": {
    "type": "Point",
    "coordinates": [
     145.68784698,
     -38.62432593
    ]
   },
   "properties": {
    "name": "LOT 1 BAMBROOK ROAD INVERLOCH 3996",
    "locID": "LOC000074138060",
    "tech": "WIRELESS",
    "upgrade": "NULL_NA",
    "gnaf_pid": "GAVIC412699465",
    "tech_change_status": "Not Planned",
    "program_type": "Fixed Wireless and Satellite Upgrade Program",
    "target_eligibility_quarter": "NA"
   }
  },
  {
   "type": "Feature",
   "geometry": {
    "type": "Point",
    "coordinates": [
     145.72154199,
     -38.63571072
    ]
   },
   "properties": {
    "name": "10 FREDA STREET INVERLOCH 3996",
    "locID": "LOC000113063666",
    "tech": "FTTN",
    "upgrade": "FTTP_NA",
    "gnaf_pid": "GAVIC414820772",
    "tech_change_status": "Committed",
    "program_type": "On-Demand N2P SDU/MDU Simple",
    "target_eligibility_quarter": "Dec 2024"
   }
  },
  {
   "type": "Feature",
   "geometry": {
    "type": "Point",
    "coordinates": [
     145.72505604,
     -38.6322857
    ]
   },
   "properties": {
    "name": "43 SANDY MOUNT AVENUE INVERLOCH 3996",
    "locID": "LOC000065985766",
    "tech": "FTTN",
    "upgrade": "FTTP_SA",
    "gnaf_pid": "GAVIC414820814",
    "tech_change_status": "Eligible To Order",
    "program_type": "On-Demand N2P SDU/MDU Simple",
    "target_eligibility_quarter": "NA"
   }
  },
  {
   "type": "Feature",
   "geometry": {
    "type": "Point",
    "coordinates": [
     145.71660055,
     -38.63272963
    ]
   },
   "properties": {
    "name": "36 CASHIN STREET INVERLOCH 3996",
    "locID": "LOC000019429410",
    "tech": "FTTN",
    "upgrade": "FTTP_NA",
    "gnaf_pid": "GAVIC414821197",
    "tech_change_status": "Committed",
    "program_type": "On-Demand N2P SDU/MDU Simple",
    "target_eligibility_quarter": "Dec 2024"
   }
  },
  {
   "type": "Feature",
   "geometry": {
    "type": "Point",
    "coordinates": [
     145.71038156,
     -38.64421632
    ]
   },
   "properties": {
    "name": "152 LOHR AVENUE INVERLOCH 3996",
    "locID": "LOC000071438386",
    "tech": "FTTP",
    "upgrade": "NULL_NA",
    "gnaf_pid": "GAVIC414825012",
    "program_type": "On-Demand N2P SDU/MDU Simple",
    "target_eligibility_quarter": "NA"
   }
  },
  {
   "type": "Feature",
   "geometry": {
    "type": "Point",
    "coordinates": [
     145.72511505,
     -38.62939446
    ]
   },
   "properties": {
    "name": "5 MARION COURT INVERLOCH 3996",
    "locID": "LOC000037518818",
    "tech": "FTTP",
    "upgrade": "FTTP_NA",
    "gnaf_pid": "GAVIC414825025",
    "tech_change_status": "Previous Tech Disconnected",
    "program_type": "On-Demand N2P SDU/MDU Simple",
    "target_eligibility_quarter": "NA"
   }
  },
  {
   "type": "Feature",
   "geometry": {
    "type": "Point",
    "coordinates": [
     145.73525575,
     -38.62818135
    ]
   },
   "properties": {
    "name": "3 INVERLOCH PARADE INVERLOCH 3996",
    "locID": "LOC000112971983",
    "tech": "FTTP",
    "upgrade": "FTTP_NA",
    "gnaf_pid": "GAVIC414825130",
    "tech_change_status": "Previous Tech Disconnected",
    "program_type": "On-Demand N2P SDU/MDU Simple",
    "target_eligibility_quarter": "NA"
   }
  },
  {
   "type": "Feature",
   "geometry": {
    "type": "Point",
    "coordinates": [
     145.7107874,
     -38.64032121
    ]
   },
   "properties": {
    "name": "23 NORMAN ROAD INVERLOCH 3996",
    "locID": "LOC000192136243",
    "tech": "FTTN",
    "upgrade": "FTTP_NA",
    "gnaf_pid": "GAVIC414832087",
    "tech_change_status": "Committed",
    "program_type": "On-Demand N2P SDU/MDU Simple",
    "target_eligibility_quarter": "Dec 2024"
   }
  },
  {
   "type": "Feature",
   "geometry": {
    "type": "Point",
    "coordinates": [
     145.71302493,
     -38.6412319
    ]
   },
   "properties": {
    "name": "1 NORMAN ROAD INVERLOCH 3996",
    "locID": "LOC000112919325",
    "tech": "FTTN",
    "upgrade": "FTTP_NA",
    "gnaf_pid": "GAVIC414832094",
    "tech_change_status": "Committed",
    "program_type": "On-Demand N2P SDU/MDU Simple",
    "target_eligibility_quarter": "Dec 2024"
   }
  },
  {
   "type": "Feature",
   "geometry": {
    "type": "Point",
    "coordinates": [
     145.69121142,
     -38.64132964
    ]
   },
   "properties": {
    "name": "1 DROWLEYS ROAD INVERLOCH 3996",
    "locID": "LOC000103064873",
    "tech": "FTTN",
    "upgrade": "FTTP_NA",
    "gnaf_pid": "GAVIC414835455",
    "tech_change_status": "Committed",
    "program_type": "On-Demand N2P SDU/MDU Simple",
    "target_eligibility_quarter": "Dec 2024"
   }
  },
  {
   "type": "Feature",
   "geometry": {
    "type": "Point",
    "coordinates": [
     145.71930453,
     -38.62777136
    ]
   },
   "properties": {
    "name": "83 WONTHAGGI ROAD INVERLOCH 3996",
    "locID": "LOC000125930543",
    "tech": "FTTN",
    "upgrade": "FTTP_SA",
    "gnaf_pid": "GAVIC414842620",
    "tech_change_status": "Eligible To Order",
    "program_type": "On-Demand N2P SDU/MDU Simple",
    "target_eligibility_quarter": "NA"
   }
  },
  {
   "type": "Feature",
   "geometry": {
    "type": "Point",
    "coordinates": [
     145.72508265,
     -38.62644341
    ]
   },
   "properties": {
    "name": "10 WONTHAGGI ROAD INVERLOCH 3996",
    "locID": "LOC000054377120",
    "tech": "FTTN",
    "upgrade": "FTTP_NA",
    "gnaf_pid": "GAVIC414842635",
    "tech_change_status": "MDU Complex Eligible To Apply",
    "program_type": "Customer-initiated N2P MDU Complex"
   }
  },
  {
   "type": "Feature",
   "geometry": {
    "type": "Point",
    "coordinates": [
     145.7333667,
     -38.6340498
    ]
   },
   "properties": {
    "name": "31 HOPETOUN STREET INVERLOCH 3996",
    "locID": "LOC000013503139",
    "tech": "FTTP",
    "upgrade": "FTTP_NA",
    "gnaf_pid": "GAVIC414842950",
    "tech_change_status": "Previous Tech Disconnected",
    "program_type": "On-Demand N2P SDU/MDU Simple",
    "target_eligibility_quarter": "NA"
   }
  },
  {
   "type": "Feature",
   "geometry": {
    "type": "Point",
    "coordinates": [
     145.73332652,
     -38.63437
    ]
   },
   "properties": {
    "name": "32 HOPETOUN STREET INVERLOCH 3996",
    "locID": "LOC000107656686",
    "tech": "FTTP",
    "upgrade": "FTTP_NA",
    "gnaf_pid": "GAVIC414842951",
    "tech_change_status": "Previous Tech Disconnected",
    "program_type": "On-Demand N2P SDU/MDU Simple",
    "target_eligibility_quarter": "NA"
   }
  },
  {
   "type": "Feature",
   "geometry": {
    "type": "Point",
    "coordinates": [
     145.71476159,
     -38.63754581
    ]
   },
   "properties": {
    "name": "25 TOORAK ROAD INVERLOCH 3996",
    "locID": "LOC000184641691",
    "tech": "FTTP",
    "upgrade": "FTTP_NA",
    "gnaf_pid": "GAVIC414843032",
    "tech_change_status": "Previous Tech Disconnected",
    "program_type": "On-Demand N2P SDU/MDU Simple",
    "target_eligibility_quarter": "NA"
   }
  },
  {
   "type": "Feature",
   "geometry": {
    "type": "Point",
    "coordinates": [
     145.71411576,
     -38.63682555
    ]
   },
   "properties": {
    "name": "34 TOORAK ROAD INVERLOCH 3996",
    "locID": "LOC000091434493",
    "tech": "FTTN",
    "upgrade": "FTTP_SA",
    "gnaf_pid": "GAVIC414843036",
    "tech_change_status": "Eligible To Order",
    "program_type": "On-Demand N2P SDU/MDU Simple",
    "target_eligibility_quarter": "NA"
   }
  },
  {
   "type": "Feature",
   "geometry": {
    "type": "Point",
    "coordinates": [
     145.71580148,
     -38.63882262
    ]
   },
   "properties": {
    "name": "10 BEACH AVENUE INVERLOCH 3996",
    "locID": "LOC000152899682",
    "tech": "FTTN",
    "upgrade": "FTTP_SA",
    "gnaf_pid": "GAVIC414846953",
    "tech_change_status": "Eligible To Order",
    "program_type": "On-Demand N2P SDU/MDU Simple",
    "target_eligibility_quarter": "NA"
   }
  },
  {
   "type": "Feature",
   "geometry": {
    "type": "Point",
    "coordinates": [
     145.72993476,
     -38.63278103
    ]
   },
   "properties": {
    "name": "16A WILLIAMS STREET INVERLOCH 3996",
    "locID": "LOC000023038862",
    "tech": "FTTN",
    "upgrade": "FTTP_NA",
    "gnaf_pid": "GAVIC414850305",
    "tech_change_status": "MDU Complex Eligible To Apply",
    "program_type": "Customer-initiated N2P MDU Complex"
   }
  },
  {
   "type": "Feature",
   "geometry": {
    "type": "Point",
    "coordinates": [
     145.72946521,
     -38.63266097
    ]
   },
   "properties": {
    "name": "11 WILLIAMS STREET INVERLOCH 3996",
    "locID": "LOC000042835717",
    "tech": "FTTN",
    "upgrade": "FTTP_SA",
    "gnaf_pid": "GAVIC414850312",
    "tech_change_status": "Eligible To Order",
    "program_type": "On-Demand N2P SDU/MDU Simple",
    "target_eligibility_quarter": "NA"
   }
  },
  {
   "type": "Feature",
   "geometry": {
    "type": "Point",
    "coordinates": [
     145.71058389,
     -38.64023878
    ]
   },
   "properties": {
    "name": "25 NORMAN ROAD INVERLOCH 3996",
    "locID": "LOC000114264537",
    "tech": "FTTN",
    "upgrade": "FTTP_NA",
    "gnaf_pid": "GAVIC414853645",
    "tech_change_status": "Committed",
    "program_type": "On-Demand N2P SDU/MDU Simple",
    "target_eligibility_quarter": "Dec 2024"
   }
  },
  {
   "type": "Feature",
   "geometry": {
    "type": "Point",
    "coordinates": [
     145.71035019,
     -38.64014414
    ]
   },
   "properties": {
    "name": "27 NORMAN ROAD INVERLOCH 3996",
    "locID": "LOC000108656996",
    "tech": "FTTN",
    "upgrade": "FTTP_NA",
    "gnaf_pid": "GAVIC414853646",
    "tech_change_status": "Committed",
    "program_type": "On-Demand N2P SDU/MDU Simple",
    "target_eligibility_quarter": "Dec 2024"
   }
  },
  {
   "type": "Feature",
   "geometry": {
    "type": "Point",
    "coordinates": [
     145.71881807,
     -38.63773496
    ]
   },
   "properties": {
    "name": "20 ABBOTT STREET INVERLOCH 3996",
    "locID": "LOC000114813227",
    "tech": "FTTN",
    "upgrade": "FTTP_NA",
    "gnaf_pid": "GAVIC414854171",
    "tech_change_status": "Committed",
    "program_type": "On-Demand N2P SDU/MDU Simple",
    "target_eligibility_quarter": "Dec 2024"
   }
  },
  {
   "type": "Feature",
   "geometry": {
    "type": "Point",
    "coordinates": [
     145.72269047,
     -38.62757966
    ]
   },
   "properties": {
    "name": "36 POWLETT STREET INVERLOCH 3996",
    "locID": "LOC000001974075",
    "tech": "FTTN",
    "upgrade": "FTTP_NA",
    "gnaf_pid": "GAVIC414857656",
    "tech_change_status": "MDU Complex Eligible To Apply",
    "program_type": "Customer-initiated N2P MDU Complex"
   }
  },
  {
   "type": "Feature",
   "geometry": {
    "type": "Point",
    "coordinates": [
     145.72486449,
     -38.63012509
    ]
   },
   "properties": {
    "name": "2 POWLETT STREET INVERLOCH 3996",
    "locID": "LOC000106362699",
    "tech": "FTTN",
    "upgrade": "FTTP_NA",
    "gnaf_pid": "GAVIC414857661",
    "tech_change_status": "MDU Complex Eligible To Apply",
    "program_type": "Customer-initiated N2P MDU Complex"
   }
  },
  {
   "type": "Feature",
   "geometry": {
    "type": "Point",
    "coordinates": [
     145.72639271,
     -38.63606319
    ]
   },
   "properties": {
    "name": "16 ST KILDA STREET INVERLOCH 3996",
    "locID": "LOC000042995243",
    "tech": "FTTN",
    "upgrade": "FTTP_NA",
    "gnaf_pid": "GAVIC414860228",
    "tech_change_status": "Committed",
    "program_type": "On-Demand N2P SDU/MDU Simple",
    "target_eligibility_quarter": "Dec 2024"
   }
  },
  {
   "type": "Feature",
   "geometry": {
    "type": "Point",
    "coordinates": [
     145.7269992,
     -38.63609875
    ]
   },
   "properties": {
    "name": "18 ST KILDA STREET INVERLOCH 3996",
    "locID": "LOC000114389864",
    "tech": "FTTN",
    "upgrade": "FTTP_NA",
    "gnaf_pid": "GAVIC414860229",
    "tech_change_status": "Committed",
    "program_type": "Customer-initiated N2P MDU Complex",
    "target_eligibility_quarter": "Dec 2024"
   }
  },
  {
   "type": "Feature",
   "geometry": {
    "type": "Point",
    "coordinates": [
     145.74208487,
     -38.62853334
    ]
   },
   "properties": {
    "name": "2 STANLEY COURT INVERLOCH 3996",
    "locID": "LOC000098310807",
    "tech": "FTTN",
    "upgrade": "FTTP_SA",
    "gnaf_pid": "GAVIC414860230",
    "tech_change_status": "Eligible To Order",
    "program_type": "On-Demand N2P SDU/MDU Simple",
    "target_eligibility_quarter": "NA"
   }
  },
  {
   "type": "Feature",
   "geometry": {
    "type": "Point",
    "coordinates": [
     145.7376835,
     -38.63125453
    ]
   },
   "properties": {
    "name": "12 NAUTILUS ROAD INVERLOCH 3996",
    "locID": "LOC000048627087",
    "tech": "FTTP",
    "upgrade": "NULL_NA",
    "gnaf_pid": "GAVIC414860960",
    "program_type": "On-Demand N2P SDU/MDU Simple",
    "target_eligibility_quarter": "NA"
   }
  },
  {
   "type": "Feature",
   "geometry": {
    "type": "Point",
    "coordinates": [
     145.72440266,
     -38.62689059
    ]
   },
   "properties": {
    "name": "16 NATION COURT INVERLOCH 3996",
    "locID": "LOC000075218946",
    "tech": "FTTN",
    "upgrade": "FTTP_SA",
    "gnaf_pid": "GAVIC414864118",
    "tech_change_status": "Eligible To Order",
    "program_type": "On-Demand N2P SDU/MDU Simple",
    "target_eligibility_quarter": "NA"
   }
  },
  {
   "type": "Feature",
   "geometry": {
    "type": "Point",
    "coordinates": [
     145.71870485,
     -38.63573468
    ]
   },
   "properties": {
    "name": "23 HALFORD STREET INVERLOCH 3996",
    "locID": "LOC000042279659",
    "tech": "FTTN",
    "upgrade": "FTTP_NA",
    "gnaf_pid": "GAVIC414864763",
    "tech_change_status": "Committed",
    "program_type": "On-Demand N2P SDU/MDU Simple",
    "target_eligibility_quarter": "Dec 2024"
   }
  },
  {
   "type": "Feature",
   "geometry": {
    "type": "Point",
    "coordinates": [
     145.72383698,
     -38.63315391
    ]
   },
   "properties": {
    "name": "1 GOLF STREET INVERLOCH 3996",
    "locID": "LOC000114632251",
    "tech": "FTTN",
    "upgrade": "FTTP_NA",
    "gnaf_pid": "GAVIC414864829",
    "tech_change_status": "Committed",
    "program_type": "On-Demand N2P SDU/MDU Simple",
    "target_eligibility_quarter": "Dec 2024"
   }
  },
  {
   "type": "Feature",
   "geometry": {
    "type": "Point",
    "coordinates": [
     145.72993476,
     -38.63278103
    ]
   },
   "properties": {
    "name": "14A WILLIAMS STREET INVERLOCH 3996",
    "locID": "LOC000106634344",
    "tech": "FTTN",
    "upgrade": "FTTP_NA",
    "gnaf_pid": "GAVIC414868492",
    "tech_change_status": "MDU Complex Eligible To Apply",
    "program_type": "Customer-initiated N2P MDU Complex"
   }
  },
  {
   "type": "Feature",
   "geometry": {
    "type": "Point",
    "coordinates": [
     145.73471435,
     -38.62786555
    ]
   },
   "properties": {
    "name": "58 PIER ROAD INVERLOCH 3996",
    "locID": "LOC000114043838",
    "tech": "FTTN",
    "upgrade": "FTTP",
    "gnaf_pid": "GAVIC414868576",
    "tech_change_status": "Eligible To Order",
    "program_type": "On-Demand N2P SDU/MDU Simple",
    "target_eligibility_quarter": "NA"
   }
  },
  {
   "type": "Feature",
   "geometry": {
    "type": "Point",
    "coordinates": [
     145.71750731,
     -38.63929793
    ]
   },
   "properties": {
    "name": "122 RAMSEY BOULEVARD INVERLOCH 3996",
    "locID": "LOC000067105832",
    "tech": "FTTN",
    "upgrade": "FTTP_NA",
    "gnaf_pid": "GAVIC414868598",
    "tech_change_status": "Committed",
    "program_type": "On-Demand N2P SDU/MDU Simple",
    "target_eligibility_quarter": "Dec 2024"
   }
  },
  {
   "type": "Feature",
   "geometry": {
    "type": "Point",
    "coordinates": [
     145.7168372,
     -38.63943428
    ]
   },
   "properties": {
    "name": "128 RAMSEY BOULEVARD INVERLOCH 3996",
    "locID": "LOC000036080262",
    "tech": "FTTN",
    "upgrade": "FTTP_NA",
    "gnaf_pid": "GAVIC414868605",
    "tech_change_status": "Committed",
    "program_type": "On-Demand N2P SDU/MDU Simple",
    "target_eligibility_quarter": "Dec 2024"
   }
  },
  {
   "type": "Feature",
   "geometry": {
    "type": "Point",
    "coordinates": [
     145.72862547,
     -38.6321128
    ]
   },
   "properties": {
    "name": "22 REILLY STREET INVERLOCH 3996",
    "locID": "LOC000039678751",
    "tech": "FTTN",
    "upgrade": "FTTP_SA",
    "gnaf_pid": "GAVIC414868614",
    "tech_change_status": "Eligible To Order",
    "program_type": "On-Demand N2P SDU/MDU Simple",
    "target_eligibility_quarter": "NA"
   }
  },
  {
   "type": "Feature",
   "geometry": {
    "type": "Point",
    "coordinates": [
     145.72825474,
     -38.63371969
    ]
   },
   "properties": {
    "name": "12 ABECKETT STREET INVERLOCH 3996",
    "locID": "LOC000003581333",
    "tech": "FTTN",
    "upgrade": "FTTP_NA",
    "gnaf_pid": "GAVIC414872272",
    "tech_change_status": "MDU Complex Eligible To Apply",
    "program_type": "Customer-initiated N2P MDU Complex"
   }
  },
  {
   "type": "Feature",
   "geometry": {
    "type": "Point",
    "coordinates": [
     145.72440366,
     -38.63256301
    ]
   },
   "properties": {
    "name": "3 DIXON STREET INVERLOCH 3996",
    "locID": "LOC000181268576",
    "tech": "FTTN",
    "upgrade": "FTTP_NA",
    "gnaf_pid": "GAVIC414875153",
    "tech_change_status": "Committed",
    "program_type": "On-Demand N2P SDU/MDU Simple",
    "target_eligibility_quarter": "Dec 2024"
   }
  },
  {
   "type": "Feature",
   "geometry": {
    "type": "Point",
    "coordinates": [
     145.72346166,
     -38.63246638
    ]
   },
   "properties": {
    "name": "15 DIXON STREET INVERLOCH 3996",
    "locID": "LOC000034392384",
    "tech": "FTTN",
    "upgrade": "FTTP_NA",
    "gnaf_pid": "GAVIC414875162",
    "tech_change_status": "Committed",
    "program_type": "On-Demand N2P SDU/MDU Simple",
    "target_eligibility_quarter": "Dec 2024"
   }
  },
  {
   "type": "Feature",
   "geometry": {
    "type": "Point",
    "coordinates": [
     145.72330945,
     -38.63245073
    ]
   },
   "properties": {
    "name": "17 DIXON STREET INVERLOCH 3996",
    "locID": "LOC000086315854",
    "tech": "FTTN",
    "upgrade": "FTTP_NA",
    "gnaf_pid": "GAVIC414875163",
    "tech_change_status": "Committed",
    "program_type": "On-Demand N2P SDU/MDU Simple",
    "target_eligibility_quarter": "Dec 2024"
   }
  },
  {
   "type": "Feature",
   "geometry": {
    "type": "Point",
    "coordinates": [
     145.72315285,
     -38.63243466
    ]
   },
   "properties": {
    "name": "19 DIXON STREET INVERLOCH 3996",
    "locID": "LOC000071941084",
    "tech": "FTTN",
    "upgrade": "FTTP_NA",
    "gnaf_pid": "GAVIC414875164",
    "tech_change_status": "Committed",
    "program_type": "On-Demand N2P SDU/MDU Simple",
    "target_eligibility_quarter": "Dec 2024"
   }
  },
  {
   "type": "Feature",
   "geometry": {
    "type": "Point",
    "coordinates": [
     145.72253647,
     -38.63237003
    ]
   },
   "properties": {
    "name": "27 DIXON STREET INVERLOCH 3996",
    "locID": "LOC000181277352",
    "tech": "FTTN",
    "upgrade": "FTTP_NA",
    "gnaf_pid": "GAVIC414875168",
    "tech_change_status": "Committed",
    "program_type": "On-Demand N2P SDU/MDU Simple",
    "target_eligibility_quarter": "Dec 2024"
   }
  },
  {
   "type": "Feature",
   "geometry": {
    "type": "Point",
    "coordinates": [
     145.6960632,
     -38.64606146
    ]
   },
   "properties": {
    "name": "1 LOHR AVENUE INVERLOCH 3996",
    "locID": "LOC000114721652",
    "tech": "FTTN",
    "upgrade": "FTTP_NA",
    "gnaf_pid": "GAVIC414876942",
    "tech_change_status": "Committed",
    "program_type": "On-Demand N2P SDU/MDU Simple",
    "target_eligibility_quarter": "Dec 2025"
   }
  },
  {
   "type": "Feature",
   "geometry": {
    "type": "Point",
    "coordinates": [
     145.73017682,
     -38.63452547
    ]
   },
   "properties": {
    "name": "5 THE ESPLANADE INVERLOCH 3996",
    "locID": "LOC000022629252",
    "tech": "FTTN",
    "upgrade": "FTTP_NA",
    "gnaf_pid": "GAVIC414877940",
    "tech_change_status": "MDU Complex Eligible To Apply",
    "program_type": "Customer-initiated N2P MDU Complex"
   }
  },
  {
   "type": "Feature",
   "geometry": {
    "type": "Point",
    "coordinates": [
     145.7121568,
     -38.6358428
    ]
   },
   "properties": {
    "name": "1 BIRD STREET INVERLOCH 3996",
    "locID": "LOC000075328697",
    "tech": "FTTP",
    "upgrade": "FTTP_NA",
    "gnaf_pid": "GAVIC414880003",
    "tech_change_status": "Previous Tech Disconnected",
    "program_type": "On-Demand N2P SDU/MDU Simple",
    "target_eligibility_quarter": "NA"
   }
  },
  {
   "type": "Feature",
   "geometry": {
    "type": "Point",
    "coordinates": [
     145.72147874,
     -38.63774071
    ]
   },
   "properties": {
    "name": "18 VENUS STREET INVERLOCH 3996",
    "locID": "LOC000046631379",
    "tech": "FTTN",
    "upgrade": "FTTP_NA",
    "gnaf_pid": "GAVIC414880715",
    "tech_change_status": "Committed",
    "program_type": "On-Demand N2P SDU/MDU Simple",
    "target_eligibility_quarter": "Dec 2025"
   }
  },
  {
   "type": "Feature",
   "geometry": {
    "type": "Point",
    "coordinates": [
     145.71135543,
     -38.64456442
    ]
   },
   "properties": {
    "name": "76 SURF PARADE INVERLOCH 3996",
    "locID": "LOC000114858978",
    "tech": "FTTN",
    "upgrade": "FTTP_NA",
    "gnaf_pid": "GAVIC414880746",
    "tech_change_status": "Committed",
    "program_type": "On-Demand N2P SDU/MDU Simple",
    "target_eligibility_quarter": "Dec 2024"
   }
  },
  {
   "type": "Feature",
   "geometry": {
    "type": "Point",
    "coordinates": [
     145.70972754,
     -38.63638682
    ]
   },
   "properties": {
    "name": "74 TOORAK ROAD INVERLOCH 3996",
    "locID": "LOC000115007675",
    "tech": "FTTP",
    "upgrade": "FTTP_NA",
    "gnaf_pid": "GAVIC414882002",
    "tech_change_status": "Previous Tech Disconnected",
    "program_type": "On-Demand N2P SDU/MDU Simple",
    "target_eligibility_quarter": "NA"
   }
  },
  {
   "type": "Feature",
   "geometry": {
    "type": "Point",
    "coordinates": [
     145.7364813,
     -38.63001643
    ]
   },
   "properties": {
    "name": "35 PYMBLE AVENUE INVERLOCH 3996",
    "locID": "LOC000112996103",
    "tech": "FTTN",
    "upgrade": "FTTP_SA",
    "gnaf_pid": "GAVIC414882849",
    "tech_change_status": "Eligible To Order",
    "program_type": "On-Demand N2P SDU/MDU Simple",
    "target_eligibility_quarter": "NA"
   }
  },
  {
   "type": "Feature",
   "geometry": {
    "type": "Point",
    "coordinates": [
     145.69907183,
     -38.64178145
    ]
   },
   "properties": {
    "name": "190 TOORAK ROAD INVERLOCH 3996",
    "locID": "LOC000045786908",
    "tech": "WIRELESS",
    "upgrade": "NULL_NA",
    "gnaf_pid": "GAVIC414883313",
    "tech_change_status": "Not Planned",
    "program_type": "Fixed Wireless and Satellite Upgrade Program",
    "target_eligibility_quarter": "NA"
   }
  },
  {
   "type": "Feature",
   "geometry": {
    "type": "Point",
    "coordinates": [
     145.72798601,
     -38.63424318
    ]
   },
   "properties": {
    "name": "7 ABECKETT STREET INVERLOCH 3996",
    "locID": "LOC000026016952",
    "tech": "FTTN",
    "upgrade": "FTTP_NA",
    "gnaf_pid": "GAVIC414883410",
    "tech_change_status": "MDU Complex Eligible To Apply",
    "program_type": "Customer-initiated N2P MDU Complex"
   }
  },
  {
   "type": "Feature",
   "geometry": {
    "type": "Point",
    "coordinates": [
     145.7263717,
     -38.62681185
    ]
   },
   "properties": {
    "name": "60 SANDY MOUNT AVENUE INVERLOCH 3996",
    "locID": "LOC000114598857",
    "tech": "FTTP",
    "upgrade": "FTTP_NA",
    "gnaf_pid": "GAVIC414883951",
    "tech_change_status": "Previous Tech Disconnected",
    "program_type": "On-Demand N2P SDU/MDU Simple",
    "target_eligibility_quarter": "NA"
   }
  },
  {
   "type": "Feature",
   "geometry": {
    "type": "Point",
    "coordinates": [
     145.70467322,
     -38.63982757
    ]
   },
   "properties": {
    "name": "12 MARINER PLACE INVERLOCH 3996",
    "locID": "LOC000058329442",
    "tech": "FTTN",
    "upgrade": "FTTP_NA",
    "gnaf_pid": "GAVIC419537491",
    "tech_change_status": "Committed",
    "program_type": "On-Demand N2P SDU/MDU Simple",
    "target_eligibility_quarter": "Dec 2024"
   }
  },
  {
   "type": "Feature",
   "geometry": {
    "type": "Point",
    "coordinates": [
     145.72846798,
     -38.63284709
    ]
   },
   "properties": {
    "name": "10-12 REILLY STREET INVERLOCH 3996",
    "locID": "LOC000071526351",
    "tech": "FTTN",
    "upgrade": "FTTP_SA",
    "gnaf_pid": "GAVIC419537573",
    "tech_change_status": "Eligible To Order",
    "program_type": "On-Demand N2P SDU/MDU Simple",
    "target_eligibility_quarter": "NA"
   }
  },
  {
   "type": "Feature",
   "geometry": {
    "type": "Point",
    "coordinates": [
     145.71073058,
     -38.6335158
    ]
   },
   "properties": {
    "name": "19 ROYAL PARADE INVERLOCH 3996",
    "locID": "LOC000023914148",
    "tech": "FTTN",
    "upgrade": "FTTP_SA",
    "gnaf_pid": "GAVIC419537582",
    "tech_change_status": "Eligible To Order",
    "program_type": "On-Demand N2P SDU/MDU Simple",
    "target_eligibility_quarter": "NA"
   }
  },
  {
   "type": "Feature",
   "geometry": {
    "type": "Point",
    "coordinates": [
     145.7107413,
     -38.63382958
    ]
   },
   "properties": {
    "name": "24 ROYAL PARADE INVERLOCH 3996",
    "locID": "LOC000051844208",
    "tech": "FTTP",
    "upgrade": "NULL_NA",
    "gnaf_pid": "GAVIC419537583",
    "program_type": "On-Demand N2P SDU/MDU Simple",
    "target_eligibility_quarter": "NA"
   }
  },
  {
   "type": "Feature",
   "geometry": {
    "type": "Point",
    "coordinates": [
     145.71024625,
     -38.63438972
    ]
   },
   "properties": {
    "name": "10 THE MEWS INVERLOCH 3996",
    "locID": "LOC000080692426",
    "tech": "FTTN",
    "upgrade": "FTTP_SA",
    "gnaf_pid": "GAVIC419537584",
    "tech_change_status": "Eligible To Order",
    "program_type": "On-Demand N2P SDU/MDU Simple",
    "target_eligibility_quarter": "NA"
   }
  },
  {
   "type": "Feature",
   "geometry": {
    "type": "Point",
    "coordinates": [
     145.73498404,
     -38.63372865
    ]
   },
   "properties": {
    "name": "2B GRANDVIEW GROVE INVERLOCH 3996",
    "locID": "LOC000029299949",
    "tech": "FTTP",
    "upgrade": "FTTP_NA",
    "gnaf_pid": "GAVIC419537835",
    "tech_change_status": "Previous Tech Disconnected",
    "program_type": "On-Demand N2P SDU/MDU Simple",
    "target_eligibility_quarter": "NA"
   }
  },
  {
   "type": "Feature",
   "geometry": {
    "type": "Point",
    "coordinates": [
     145.70635998,
     -38.6393941
    ]
   },
   "properties": {
    "name": "36 MARINER PLACE INVERLOCH 3996",
    "locID": "LOC000066102598",
    "tech": "FTTN",
    "upgrade": "FTTP_NA",
    "gnaf_pid": "GAVIC419538003",
    "tech_change_status": "Committed",
    "program_type": "On-Demand N2P SDU/MDU Simple",
    "target_eligibility_quarter": "Dec 2024"
   }
  },
  {
   "type": "Feature",
   "geometry": {
    "type": "Point",
    "coordinates": [
     145.70616292,
     -38.6401542
    ]
   },
   "properties": {
    "name": "26 MARINER PLACE INVERLOCH 3996",
    "locID": "LOC000107855490",
    "tech": "FTTN",
    "upgrade": "FTTP_NA",
    "gnaf_pid": "GAVIC419538004",
    "tech_change_status": "Committed",
    "program_type": "On-Demand N2P SDU/MDU Simple",
    "target_eligibility_quarter": "Dec 2024"
   }
  },
  {
   "type": "Feature",
   "geometry": {
    "type": "Point",
    "coordinates": [
     145.71397207,
     -38.63530046
    ]
   },
   "properties": {
    "name": "16 SHORT STREET INVERLOCH 3996",
    "locID": "LOC000072082916",
    "tech": "FTTP",
    "upgrade": "FTTP_NA",
    "gnaf_pid": "GAVIC419538518",
    "tech_change_status": "Previous Tech Disconnected",
    "program_type": "On-Demand N2P SDU/MDU Simple",
    "target_eligibility_quarter": "NA"
   }
  },
  {
   "type": "Feature",
   "geometry": {
    "type": "Point",
    "coordinates": [
     145.71224807,
     -38.63382191
    ]
   },
   "properties": {
    "name": "31 ROYAL PARADE INVERLOCH 3996",
    "locID": "LOC000070801024",
    "tech": "FTTN",
    "upgrade": "FTTP_SA",
    "gnaf_pid": "GAVIC419538574",
    "tech_change_status": "Eligible To Order",
    "program_type": "On-Demand N2P SDU/MDU Simple",
    "target_eligibility_quarter": "NA"
   }
  },
  {
   "type": "Feature",
   "geometry": {
    "type": "Point",
    "coordinates": [
     145.70961258,
     -38.6337078
    ]
   },
   "properties": {
    "name": "16 ROYAL PARADE INVERLOCH 3996",
    "locID": "LOC000060756536",
    "tech": "FTTP",
    "upgrade": "FTTP_NA",
    "gnaf_pid": "GAVIC419540070",
    "tech_change_status": "Previous Tech Disconnected",
    "program_type": "On-Demand N2P SDU/MDU Simple",
    "target_eligibility_quarter": "NA"
   }
  },
  {
   "type": "Feature",
   "geometry": {
    "type": "Point",
    "coordinates": [
     145.72180061,
     -38.62821579
    ]
   },
   "properties": {
    "name": "UNIT 3, 33 POWLETT STREET INVERLOCH 3996",
    "locID": "LOC000025199461",
    "tech": "FTTN",
    "upgrade": "FTTP_NA",
    "gnaf_pid": "GAVIC419540180",
    "tech_change_status": "MDU Complex Eligible To Apply",
    "program_type": "Customer-initiated N2P MDU Complex"
   }
  },
  {
   "type": "Feature",
   "geometry": {
    "type": "Point",
    "coordinates": [
     145.74376788,
     -38.63245094
    ]
   },
   "properties": {
    "name": "14 LINDSEY CLOSE INVERLOCH 3996",
    "locID": "LOC000112825033",
    "tech": "FTTP",
    "upgrade": "FTTP_NA",
    "gnaf_pid": "GAVIC419666244",
    "tech_change_status": "Previous Tech Disconnected",
    "program_type": "On-Demand N2P SDU/MDU Simple",
    "target_eligibility_quarter": "NA"
   }
  },
  {
   "type": "Feature",
   "geometry": {
    "type": "Point",
    "coordinates": [
     145.7396475,
     -38.6141196
    ]
   },
   "properties": {
    "name": "45 MURRAYS ROAD INVERLOCH 3996",
    "locID": "LOC000107909377",
    "tech": "WIRELESS",
    "upgrade": "NULL_NA",
    "gnaf_pid": "GAVIC419666245",
    "tech_change_status": "Not Planned",
    "program_type": "Fixed Wireless and Satellite Upgrade Program",
    "target_eligibility_quarter": "NA"
   }
  },
  {
   "type": "Feature",
   "geometry": {
    "type": "Point",
    "coordinates": [
     145.7422582,
     -38.63220065
    ]
   },
   "properties": {
    "name": "11 EVAN PLACE INVERLOCH 3996",
    "locID": "LOC000056287080",
    "tech": "FTTN",
    "upgrade": "FTTP_SA",
    "gnaf_pid": "GAVIC419666246",
    "tech_change_status": "Eligible To Order",
    "program_type": "On-Demand N2P SDU/MDU Simple",
    "target_eligibility_quarter": "NA"
   }
  },
  {
   "type": "Feature",
   "geometry": {
    "type": "Point",
    "coordinates": [
     145.71522746,
     -38.63728809
    ]
   },
   "properties": {
    "name": "23A TOORAK ROAD INVERLOCH 3996",
    "locID": "LOC000032808094",
    "tech": "FTTP",
    "upgrade": "FTTP_NA",
    "gnaf_pid": "GAVIC419668029",
    "tech_change_status": "Previous Tech Disconnected",
    "program_type": "On-Demand N2P SDU/MDU Simple",
    "target_eligibility_quarter": "NA"
   }
  },
  {
   "type": "Feature",
   "geometry": {
    "type": "Point",
    "coordinates": [
     145.71522746,
     -38.63728809
    ]
   },
   "properties": {
    "name": "23 TOORAK ROAD INVERLOCH 3996",
    "locID": "LOC000032686308",
    "tech": "FTTN",
    "upgrade": "FTTP_SA",
    "gnaf_pid": "GAVIC419668030",
    "tech_change_status": "Eligible To Order",
    "program_type": "On-Demand N2P SDU/MDU Simple",
    "target_eligibility_quarter": "NA"
   }
  },
  {
   "type": "Feature",
   "geometry": {
    "type": "Point",
    "coordinates": [
     145.74253166,
     -38.63255085
    ]
   },
   "properties": {
    "name": "4 EVAN PLACE INVERLOCH 3996",
    "locID": "LOC000020503189",
    "tech": "FTTP",
    "upgrade": "NULL_NA",
    "gnaf_pid": "GAVIC419669828",
    "program_type": "On-Demand N2P SDU/MDU Simple",
    "target_eligibility_quarter": "NA"
   }
  },
  {
   "type": "Feature",
   "geometry": {
    "type": "Point",
    "coordinates": [
     145.73465585,
     -38.6336319
    ]
   },
   "properties": {
    "name": "1 GRANDVIEW GROVE INVERLOCH 3996",
    "locID": "LOC000094133305",
    "tech": "FTTN",
    "upgrade": "FTTP_SA",
    "gnaf_pid": "GAVIC419670706",
    "tech_change_status": "Eligible To Order",
    "program_type": "On-Demand N2P SDU/MDU Simple",
    "target_eligibility_quarter": "NA"
   }
  },
  {
   "type": "Feature",
   "geometry": {
    "type": "Point",
    "coordinates": [
     145.72589741,
     -38.63346365
    ]
   },
   "properties": {
    "name": "28 ABECKETT STREET INVERLOCH 3996",
    "locID": "LOC000077964349",
    "tech": "FTTN",
    "upgrade": "FTTP_SA",
    "gnaf_pid": "GAVIC419675492",
    "tech_change_status": "Eligible To Order",
    "program_type": "On-Demand N2P SDU/MDU Simple",
    "target_eligibility_quarter": "NA"
   }
  },
  {
   "type": "Feature",
   "geometry": {
    "type": "Point",
    "coordinates": [
     145.70722537,
     -38.64437883
    ]
   },
   "properties": {
    "name": "56 RIPPLE DRIVE INVERLOCH 3996",
    "locID": "LOC000036062779",
    "tech": "FTTN",
    "upgrade": "FTTP_SA",
    "gnaf_pid": "GAVIC419690792",
    "tech_change_status": "Eligible To Order",
    "program_type": "On-Demand N2P SDU/MDU Simple",
    "target_eligibility_quarter": "NA"
   }
  },
  {
   "type": "Feature",
   "geometry": {
    "type": "Point",
    "coordinates": [
     145.71535779,
     -38.63358673
    ]
   },
   "properties": {
    "name": "17 CHELSEA SQUARE INVERLOCH 3996",
    "locID": "LOC000019310751",
    "tech": "FTTN",
    "upgrade": "FTTP_SA",
    "gnaf_pid": "GAVIC419708678",
    "tech_change_status": "Eligible To Order",
    "program_type": "On-Demand N2P SDU/MDU Simple",
    "target_eligibility_quarter": "NA"
   }
  },
  {
   "type": "Feature",
   "geometry": {
    "type": "Point",
    "coordinates": [
     145.73042866,
     -38.63465574
    ]
   },
   "properties": {
    "name": "UNIT 1, 7-9 THE ESPLANADE INVERLOCH 3996",
    "locID": "LOC000022603070",
    "tech": "FTTN",
    "upgrade": "FTTP_NA",
    "gnaf_pid": "GAVIC419712946",
    "tech_change_status": "MDU Complex Eligible To Apply",
    "program_type": "Customer-initiated N2P MDU Complex"
   }
  },
  {
   "type": "Feature",
   "geometry": {
    "type": "Point",
    "coordinates": [
     145.73058757,
     -38.6344272
    ]
   },
   "properties": {
    "name": "UNIT 7, 7-9 THE ESPLANADE INVERLOCH 3996",
    "locID": "LOC000022936922",
    "tech": "FTTN",
    "upgrade": "FTTP_NA",
    "gnaf_pid": "GAVIC419712947",
    "tech_change_status": "MDU Complex Eligible To Apply",
    "program_type": "Customer-initiated N2P MDU Complex"
   }
  },
  {
   "type": "Feature",
   "geometry": {
    "type": "Point",
    "coordinates": [
     145.7154505,
     -38.63301971
    ]
   },
   "properties": {
    "name": "13 CHELSEA SQUARE INVERLOCH 3996",
    "locID": "LOC000047531750",
    "tech": "FTTN",
    "upgrade": "FTTP_SA",
    "gnaf_pid": "GAVIC419717496",
    "tech_change_status": "Eligible To Order",
    "program_type": "On-Demand N2P SDU/MDU Simple",
    "target_eligibility_quarter": "NA"
   }
  },
  {
   "type": "Feature",
   "geometry": {
    "type": "Point",
    "coordinates": [
     145.72992304,
     -38.63062605
    ]
   },
   "properties": {
    "name": "29 WILLIAMS STREET INVERLOCH 3996",
    "locID": "LOC000096818216",
    "tech": "FTTP",
    "upgrade": "FTTP_NA",
    "gnaf_pid": "GAVIC419718008",
    "tech_change_status": "Previous Tech Disconnected",
    "program_type": "On-Demand N2P SDU/MDU Simple",
    "target_eligibility_quarter": "NA"
   }
  },
  {
   "type": "Feature",
   "geometry": {
    "type": "Point",
    "coordinates": [
     145.70725026,
     -38.64338358
    ]
   },
   "properties": {
    "name": "4 MUNROE COURT INVERLOCH 3996",
    "locID": "LOC000060258352",
    "tech": "FTTN",
    "upgrade": "FTTP_SA",
    "gnaf_pid": "GAVIC419723502",
    "tech_change_status": "Eligible To Order",
    "program_type": "On-Demand N2P SDU/MDU Simple",
    "target_eligibility_quarter": "NA"
   }
  },
  {
   "type": "Feature",
   "geometry": {
    "type": "Point",
    "coordinates": [
     145.70765025,
     -38.64315954
    ]
   },