{
 "type": "FeatureCollection",
 "generated": "2023-09-26T21:40:45.241123",
 "suburb": "INVERLOCH",
 "features": [
  {
   "type": "Feature",
   "geometry": {
    "type": "Point",
    "coordinates": [
     145.71352195,
     -38.63542084
    ]
   },
   "properties": {
    "name": "9 SHORT STREET INVERLOCH 3996",
    "locID": "LOC000109544472",
    "tech": "FTTN",
    "upgrade": "FTTP_SA",
    "gnaf_pid": "GAVIC411593464"
   }
  },
  {
   "type": "Feature",
   "geometry": {
    "type": "Point",
    "coordinates": [
     145.7104585,
     -38.63815395
    ]
   },
   "properties": {
    "name": "21A VICTORIA STREET INVERLOCH 3996",
    "locID": "LOC000100567414",
    "tech": "FTTN",
    "upgrade": "NULL_NA",
    "gnaf_pid": "GAVIC411593485"
   }
  },
  {
   "type": "Feature",
   "geometry": {
    "type": "Point",
    "coordinates": [
     145.7359936,
     -38.63297756
    ]
   },
   "properties": {
    "name": "5 PYMBLE AVENUE INVERLOCH 3996",
    "locID": "LOC000114552319",
    "tech": "FTTN",
    "upgrade": "FTTP_SA",
    "gnaf_pid": "GAVIC411594215"
   }
  },
  {
   "type": "Feature",
   "geometry": {
    "type": "Point",
    "coordinates": [
     145.73041059,
     -38.62818409
    ]
   },
   "properties": {
    "name": "UNIT 4, 23 WILSON AVENUE INVERLOCH 3996",
    "locID": "LOC000092238914",
    "tech": "FTTN",
    "upgrade": "NULL_NA",
    "gnaf_pid": "GAVIC411594249"
   }
  },
  {
   "type": "Feature",
   "geometry": {
    "type": "Point",
    "coordinates": [
     145.73056351,
     -38.62748073
    ]
   },
   "properties": {
    "name": "51 WILLIAMS STREET INVERLOCH 3996",
    "locID": "LOC000115065537",
    "tech": "FTTN",
    "upgrade": "FTTP_SA",
    "gnaf_pid": "GAVIC411594254"
   }
  },
  {
   "type": "Feature",
   "geometry": {
    "type": "Point",
    "coordinates": [
     145.72384209,
     -38.63483921
    ]
   },
   "properties": {
    "name": "2 CLERK CRESCENT INVERLOCH 3996",
    "locID": "LOC000092044226",
    "tech": "FTTN",
    "upgrade": "NULL_NA",
    "gnaf_pid": "GAVIC411594259"
   }
  },
  {
   "type": "Feature",
   "geometry": {
    "type": "Point",
    "coordinates": [
     145.72580393,
     -38.63535209
    ]
   },
   "properties": {
    "name": "UNIT 5, 7 ST KILDA STREET INVERLOCH 3996",
    "locID": "LOC000016892415",
    "tech": "FTTN",
    "upgrade": "NULL_NA",
    "gnaf_pid": "GAVIC411594263"
   }
  },
  {
   "type": "Feature",
   "geometry": {
    "type": "Point",
    "coordinates": [
     145.72416296,
     -38.6279041
    ]
   },
   "properties": {
    "name": "20 MARION COURT INVERLOCH 3996",
    "locID": "LOC000106959673",
    "tech": "FTTN",
    "upgrade": "FTTP_SA",
    "gnaf_pid": "GAVIC411594264"
   }
  },
  {
   "type": "Feature",
   "geometry": {
    "type": "Point",
    "coordinates": [
     145.72411765,
     -38.62839505
    ]
   },
   "properties": {
    "name": "19 MARION COURT INVERLOCH 3996",
    "locID": "LOC000101578801",
    "tech": "FTTN",
    "upgrade": "FTTP_SA",
    "gnaf_pid": "GAVIC411594271"
   }
  },
  {
   "type": "Feature",
   "geometry": {
    "type": "Point",
    "coordinates": [
     145.70925147,
     -38.63633194
    ]
   },
   "properties": {
    "name": "78 TOORAK ROAD INVERLOCH 3996",
    "locID": "LOC000114994854",
    "tech": "FTTN",
    "upgrade": "FTTP_SA",
    "gnaf_pid": "GAVIC411594305"
   }
  },
  {
   "type": "Feature",
   "geometry": {
    "type": "Point",
    "coordinates": [
     145.72490733,
     -38.63683973
    ]
   },
   "properties": {
    "name": "2 HILLSIDE AVENUE INVERLOCH 3996",
    "locID": "LOC000125897782",
    "tech": "FTTN",
    "upgrade": "NULL_NA",
    "gnaf_pid": "GAVIC411594336"
   }
  },
  {
   "type": "Feature",
   "geometry": {
    "type": "Point",
    "coordinates": [
     145.73816738,
     -38.62847613
    ]
   },
   "properties": {
    "name": "33 INVERLOCH PARADE INVERLOCH 3996",
    "locID": "LOC000114575103",
    "tech": "FTTP",
    "upgrade": "NULL_NA",
    "gnaf_pid": "GAVIC411594345"
   }
  },
  {
   "type": "Feature",
   "geometry": {
    "type": "Point",
    "coordinates": [
     145.72539181,
     -38.62970466
    ]
   },
   "properties": {
    "name": "1 MARION COURT INVERLOCH 3996",
    "locID": "LOC000016991772",
    "tech": "FTTN",
    "upgrade": "FTTP_SA",
    "gnaf_pid": "GAVIC411594360"
   }
  },
  {
   "type": "Feature",
   "geometry": {
    "type": "Point",
    "coordinates": [
     145.72454975,
     -38.62830159
    ]
   },
   "properties": {
    "name": "14 MARION COURT INVERLOCH 3996",
    "locID": "LOC000008708065",
    "tech": "FTTN",
    "upgrade": "FTTP_SA",
    "gnaf_pid": "GAVIC411594361"
   }
  },
  {
   "type": "Feature",
   "geometry": {
    "type": "Point",
    "coordinates": [
     145.72099991,
     -38.63681081
    ]
   },
   "properties": {
    "name": "1 FREDA STREET INVERLOCH 3996",
    "locID": "LOC000114486072",
    "tech": "FTTN",
    "upgrade": "NULL_NA",
    "gnaf_pid": "GAVIC411595221"
   }
  },
  {
   "type": "Feature",
   "geometry": {
    "type": "Point",
    "coordinates": [
     145.73321374,
     -38.63437218
    ]
   },
   "properties": {
    "name": "30 HOPETOUN STREET INVERLOCH 3996",
    "locID": "LOC000055119234",
    "tech": "FTTP",
    "upgrade": "NULL_NA",
    "gnaf_pid": "GAVIC411595226"
   }
  },
  {
   "type": "Feature",
   "geometry": {
    "type": "Point",
    "coordinates": [
     145.74273547,
     -38.63194937
    ]
   },
   "properties": {
    "name": "4 LINDSEY CLOSE INVERLOCH 3996",
    "locID": "LOC000114703432",
    "tech": "FTTN",
    "upgrade": "FTTP_SA",
    "gnaf_pid": "GAVIC411595234"
   }
  },
  {
   "type": "Feature",
   "geometry": {
    "type": "Point",
    "coordinates": [
     145.72219705,
     -38.63804378
    ]
   },
   "properties": {
    "name": "9 HOLT COURT INVERLOCH 3996",
    "locID": "LOC000026894265",
    "tech": "FTTN",
    "upgrade": "NULL_NA",
    "gnaf_pid": "GAVIC411595274"
   }
  },
  {
   "type": "Feature",
   "geometry": {
    "type": "Point",
    "coordinates": [
     145.70412193,
     -38.63804192
    ]
   },
   "properties": {
    "name": "25 TAMARA CRESCENT INVERLOCH 3996",
    "locID": "LOC000114360424",
    "tech": "FTTN",
    "upgrade": "NULL_NA",
    "gnaf_pid": "GAVIC411596095"
   }
  },
  {
   "type": "Feature",
   "geometry": {
    "type": "Point",
    "coordinates": [
     145.71015273,
     -38.64006413
    ]
   },
   "properties": {
    "name": "29 NORMAN ROAD INVERLOCH 3996",
    "locID": "LOC000059674226",
    "tech": "FTTN",
    "upgrade": "NULL_NA",
    "gnaf_pid": "GAVIC411597834"
   }
  },
  {
   "type": "Feature",
   "geometry": {
    "type": "Point",
    "coordinates": [
     145.71229899,
     -38.64169885
    ]
   },
   "properties": {
    "name": "2 OVERLOOK DRIVE INVERLOCH 3996",
    "locID": "LOC000125906141",
    "tech": "FTTN",
    "upgrade": "NULL_NA",
    "gnaf_pid": "GAVIC411597902"
   }
  },
  {
   "type": "Feature",
   "geometry": {
    "type": "Point",
    "coordinates": [
     145.72442265,
     -38.62817095
    ]
   },
   "properties": {
    "name": "16 MARION COURT INVERLOCH 3996",
    "locID": "LOC000078977290",
    "tech": "FTTN",
    "upgrade": "FTTP_SA",
    "gnaf_pid": "GAVIC411597991"
   }
  },
  {
   "type": "Feature",
   "geometry": {
    "type": "Point",
    "coordinates": [
     145.73505599,
     -38.631079
    ]
   },
   "properties": {
    "name": "23 GRANDVIEW GROVE INVERLOCH 3996",
    "locID": "LOC000114429653",
    "tech": "FTTN",
    "upgrade": "FTTP_SA",
    "gnaf_pid": "GAVIC411598012"
   }
  },
  {
   "type": "Feature",
   "geometry": {
    "type": "Point",
    "coordinates": [
     145.7425871,
     -38.6318066
    ]
   },
   "properties": {
    "name": "18A MEANDERRI DRIVE INVERLOCH 3996",
    "locID": "LOC000060379140",
    "tech": "FTTN",
    "upgrade": "FTTP_SA",
    "gnaf_pid": "GAVIC411600935"
   }
  },
  {
   "type": "Feature",
   "geometry": {
    "type": "Point",
    "coordinates": [
     145.72986733,
     -38.63316068
    ]
   },
   "properties": {
    "name": "2A HIGH STREET INVERLOCH 3996",
    "locID": "LOC000084753229",
    "tech": "FTTP",
    "upgrade": "UNKNOWN",
    "gnaf_pid": "GAVIC411600938"
   }
  },
  {
   "type": "Feature",
   "geometry": {
    "type": "Point",
    "coordinates": [
     145.69591124,
     -38.6464988
    ]
   },
   "properties": {
    "name": "2A LOHR AVENUE INVERLOCH 3996",
    "locID": "ChIJ98QI7-0SKmsRAjVrMNGgTBo",
    "tech": "FTTN",
    "upgrade": "UNKNOWN",
    "gnaf_pid": "GAVIC411600948"
   }
  },
  {
   "type": "Feature",
   "geometry": {
    "type": "Point",
    "coordinates": [
     145.7300463,
     -38.6276937
    ]
   },
   "properties": {
    "name": "UNIT 3, 1 STEWART AVENUE INVERLOCH 3996",
    "locID": "LOC000083073164",
    "tech": "FTTN",
    "upgrade": "NULL_NA",
    "gnaf_pid": "GAVIC411600951"
   }
  },
  {
   "type": "Feature",
   "geometry": {
    "type": "Point",
    "coordinates": [
     145.72352688,
     -38.62874233
    ]
   },
   "properties": {
    "name": "22 POWLETT STREET INVERLOCH 3996",
    "locID": "LOC000114220829",
    "tech": "FTTN",
    "upgrade": "FTTP_SA",
    "gnaf_pid": "GAVIC411600981"
   }
  },
  {
   "type": "Feature",
   "geometry": {
    "type": "Point",
    "coordinates": [
     145.73041059,
     -38.62818409
    ]
   },
   "properties": {
    "name": "UNIT 1, 23 WILSON AVENUE INVERLOCH 3996",
    "locID": "LOC000092082629",
    "tech": "FTTN",
    "upgrade": "NULL_NA",
    "gnaf_pid": "GAVIC411600987"
   }
  },
  {
   "type": "Feature",
   "geometry": {
    "type": "Point",
    "coordinates": [
     145.73041059,
     -38.62818409
    ]
   },
   "properties": {
    "name": "UNIT 7, 23 WILSON AVENUE INVERLOCH 3996",
    "locID": "LOC000091937086",
    "tech": "FTTN",
    "upgrade": "NULL_NA",
    "gnaf_pid": "GAVIC411600991"
   }
  },
  {
   "type": "Feature",
   "geometry": {
    "type": "Point",
    "coordinates": [
     145.72461164,
     -38.63500188
    ]
   },
   "properties": {
    "name": "23A SANDY MOUNT AVENUE INVERLOCH 3996",
    "locID": "LOC000105615489",
    "tech": "FTTN",
    "upgrade": "NULL_NA",
    "gnaf_pid": "GAVIC411602205"
   }
  },
  {
   "type": "Feature",
   "geometry": {
    "type": "Point",
    "coordinates": [
     145.73064851,
     -38.63227154
    ]
   },
   "properties": {
    "name": "31 GARDEN CRESCENT INVERLOCH 3996",
    "locID": "ChIJ68c40L4TKmsRw1gxY-71Hgs",
    "tech": "FTTN",
    "upgrade": "UNKNOWN",
    "gnaf_pid": "GAVIC411602244"
   }
  },
  {
   "type": "Feature",
   "geometry": {
    "type": "Point",
    "coordinates": [
     145.73479715,
     -38.6327206
    ]
   },
   "properties": {
    "name": "13A GRANDVIEW GROVE INVERLOCH 3996",
    "locID": "ChIJvxtNzr8TKmsRBxnnV3OvPQM",
    "tech": "FTTN",
    "upgrade": "UNKNOWN",
    "gnaf_pid": "GAVIC411603886"
   }
  },
  {
   "type": "Feature",
   "geometry": {
    "type": "Point",
    "coordinates": [
     145.7300463,
     -38.6276937
    ]
   },
   "properties": {
    "name": "UNIT 4, 1 STEWART AVENUE INVERLOCH 3996",
    "locID": "LOC000083367124",
    "tech": "FTTN",
    "upgrade": "NULL_NA",
    "gnaf_pid": "GAVIC411603892"
   }
  },
  {
   "type": "Feature",
   "geometry": {
    "type": "Point",
    "coordinates": [
     145.7300463,
     -38.6276937
    ]
   },
   "properties": {
    "name": "UNIT 11, 1 STEWART AVENUE INVERLOCH 3996",
    "locID": "LOC000083321481",
    "tech": "FTTN",
    "upgrade": "NULL_NA",
    "gnaf_pid": "GAVIC411603904"
   }
  },
  {
   "type": "Feature",
   "geometry": {
    "type": "Point",
    "coordinates": [
     145.71311858,
     -38.64253725
    ]
   },
   "properties": {
    "name": "48 SURF PARADE INVERLOCH 3996",
    "locID": "LOC000013481088",
    "tech": "FTTN",
    "upgrade": "NULL_NA",
    "gnaf_pid": "GAVIC411608324"
   }
  },
  {
   "type": "Feature",
   "geometry": {
    "type": "Point",
    "coordinates": [
     145.70815959,
     -38.63802206
    ]
   },
   "properties": {
    "name": "3 SMYTHE PLACE INVERLOCH 3996",
    "locID": "LOC000071713115",
    "tech": "FTTN",
    "upgrade": "NULL_NA",
    "gnaf_pid": "GAVIC411608328"
   }
  },
  {
   "type": "Feature",
   "geometry": {
    "type": "Point",
    "coordinates": [
     145.78649955,
     -38.60636494
    ]
   },
   "properties": {
    "name": "120 WALLIS ROAD INVERLOCH 3996",
    "locID": "LOC000056877470",
    "tech": "SATELLITE",
    "upgrade": "NULL_NA",
    "gnaf_pid": "GAVIC411608519"
   }
  },
  {
   "type": "Feature",
   "geometry": {
    "type": "Point",
    "coordinates": [
     145.7248261,
     -38.62912101
    ]
   },
   "properties": {
    "name": "9 MARION COURT INVERLOCH 3996",
    "locID": "LOC000016916205",
    "tech": "FTTP",
    "upgrade": "NULL_NA",
    "gnaf_pid": "GAVIC411608915"
   }
  },
  {
   "type": "Feature",
   "geometry": {
    "type": "Point",
    "coordinates": [
     145.721086,
     -38.63627823
    ]
   },
   "properties": {
    "name": "7 FREDA STREET INVERLOCH 3996",
    "locID": "LOC000113063927",
    "tech": "FTTN",
    "upgrade": "NULL_NA",
    "gnaf_pid": "GAVIC411608970"
   }
  },
  {
   "type": "Feature",
   "geometry": {
    "type": "Point",
    "coordinates": [
     145.7300463,
     -38.6276937
    ]
   },
   "properties": {
    "name": "UNIT 6, 1 STEWART AVENUE INVERLOCH 3996",
    "locID": "LOC000083557504",
    "tech": "FTTN",
    "upgrade": "NULL_NA",
    "gnaf_pid": "GAVIC411609035"
   }
  },
  {
   "type": "Feature",
   "geometry": {
    "type": "Point",
    "coordinates": [
     145.7300463,
     -38.6276937
    ]
   },
   "properties": {
    "name": "UNIT 19, 1 STEWART AVENUE INVERLOCH 3996",
    "locID": "LOC000083200497",
    "tech": "FTTN",
    "upgrade": "NULL_NA",
    "gnaf_pid": "GAVIC411609039"
   }
  },
  {
   "type": "Feature",
   "geometry": {
    "type": "Point",
    "coordinates": [
     145.72507171,
     -38.62883798
    ]
   },
   "properties": {
    "name": "6 MARION COURT INVERLOCH 3996",
    "locID": "LOC000031099905",
    "tech": "FTTN",
    "upgrade": "FTTP_SA",
    "gnaf_pid": "GAVIC411609059"
   }
  },
  {
   "type": "Feature",
   "geometry": {
    "type": "Point",
    "coordinates": [
     145.72585429,
     -38.63461074
    ]
   },
   "properties": {
    "name": "UNIT 1, 7 SCARBOROUGH STREET INVERLOCH 3996",
    "locID": "LOC000066153450",
    "tech": "FTTN",
    "upgrade": "NULL_NA",
    "gnaf_pid": "GAVIC411609061"
   }
  },
  {
   "type": "Feature",
   "geometry": {
    "type": "Point",
    "coordinates": [
     145.7252453,
     -38.62956324
    ]
   },
   "properties": {
    "name": "3 MARION COURT INVERLOCH 3996",
    "locID": "LOC000042275179",
    "tech": "FTTN",
    "upgrade": "FTTP_SA",
    "gnaf_pid": "GAVIC411609679"
   }
  },
  {
   "type": "Feature",
   "geometry": {
    "type": "Point",
    "coordinates": [
     145.72350813,
     -38.62741675
    ]
   },
   "properties": {
    "name": "75 WONTHAGGI ROAD INVERLOCH 3996",
    "locID": "LOC000155166247",
    "tech": "FTTN",
    "upgrade": "NULL_NA",
    "gnaf_pid": "GAVIC411609680"
   }
  },
  {
   "type": "Feature",
   "geometry": {
    "type": "Point",
    "coordinates": [
     145.72580393,
     -38.63535209
    ]
   },
   "properties": {
    "name": "UNIT 3, 7 ST KILDA STREET INVERLOCH 3996",
    "locID": "LOC000016952571",
    "tech": "FTTN",
    "upgrade": "NULL_NA",
    "gnaf_pid": "GAVIC411609681"
   }
  },
  {
   "type": "Feature",
   "geometry": {
    "type": "Point",
    "coordinates": [
     145.72497309,
     -38.62927164
    ]
   },
   "properties": {
    "name": "7 MARION COURT INVERLOCH 3996",
    "locID": "LOC000015882087",
    "tech": "FTTP",
    "upgrade": "NULL_NA",
    "gnaf_pid": "GAVIC411609685"
   }
  },
  {
   "type": "Feature",
   "geometry": {
    "type": "Point",
    "coordinates": [
     145.7109484,
     -38.64293525
    ]
   },
   "properties": {
    "name": "17 VERONICA STREET INVERLOCH 3996",
    "locID": "LOC000114134848",
    "tech": "FTTN",
    "upgrade": "NULL_NA",
    "gnaf_pid": "GAVIC411609714"
   }
  },
  {
   "type": "Feature",
   "geometry": {
    "type": "Point",
    "coordinates": [
     145.73260726,
     -38.63008034
    ]
   },
   "properties": {
    "name": "19A BRUCE STREET INVERLOCH 3996",
    "locID": "ChIJ4SzagcATKmsRixd-p81xXas",
    "tech": "FTTN",
    "upgrade": "UNKNOWN",
    "gnaf_pid": "GAVIC411609738"
   }
  },
  {
   "type": "Feature",
   "geometry": {
    "type": "Point",
    "coordinates": [
     145.71203069,
     -38.64082493
    ]
   },
   "properties": {
    "name": "7 NORMAN ROAD INVERLOCH 3996",
    "locID": "LOC000115011155",
    "tech": "FTTN",
    "upgrade": "NULL_NA",
    "gnaf_pid": "GAVIC411609882"
   }
  },
  {
   "type": "Feature",
   "geometry": {
    "type": "Point",
    "coordinates": [
     145.73116535,
     -38.63146529
    ]
   },
   "properties": {
    "name": "39 BAYVIEW AVENUE INVERLOCH 3996",
    "locID": "LOC000075054576",
    "tech": "FTTN",
    "upgrade": "FTTP_SA",
    "gnaf_pid": "GAVIC411609906"
   }
  },
  {
   "type": "Feature",
   "geometry": {
    "type": "Point",
    "coordinates": [
     145.71666069,
     -38.63525736
    ]
   },
   "properties": {
    "name": "42 HALFORD STREET INVERLOCH 3996",
    "locID": "LOC000047477893",
    "tech": "FTTN",
    "upgrade": "NULL_NA",
    "gnaf_pid": "GAVIC411609926"
   }
  },
  {
   "type": "Feature",
   "geometry": {
    "type": "Point",
    "coordinates": [
     145.72450976,
     -38.6288231
    ]
   },
   "properties": {
    "name": "13 MARION COURT INVERLOCH 3996",
    "locID": "LOC000104356267",
    "tech": "FTTP",
    "upgrade": "NULL_NA",
    "gnaf_pid": "GAVIC411609930"
   }
  },
  {
   "type": "Feature",
   "geometry": {
    "type": "Point",
    "coordinates": [
     145.73348533,
     -38.63278889
    ]
   },
   "properties": {
    "name": "7 PIER ROAD INVERLOCH 3996",
    "locID": "LOC000028373137",
    "tech": "FTTN",
    "upgrade": "FTTP_SA",
    "gnaf_pid": "GAVIC411609941"
   }
  },
  {
   "type": "Feature",
   "geometry": {
    "type": "Point",
    "coordinates": [
     145.73371513,
     -38.62747803
    ]
   },
   "properties": {
    "name": "18 TOWER STREET INVERLOCH 3996",
    "locID": "LOC000030997453",
    "tech": "FTTP",
    "upgrade": "NULL_NA",
    "gnaf_pid": "GAVIC411610571"
   }
  },
  {
   "type": "Feature",
   "geometry": {
    "type": "Point",
    "coordinates": [
     145.73064616,
     -38.62934009
    ]
   },
   "properties": {
    "name": "UNIT 2, 64 WILLIAMS STREET INVERLOCH 3996",
    "locID": "LOC000021964241",
    "tech": "FTTP",
    "upgrade": "NULL_NA",
    "gnaf_pid": "GAVIC411610578"
   }
  },
  {
   "type": "Feature",
   "geometry": {
    "type": "Point",
    "coordinates": [
     145.7300463,
     -38.6276937
    ]
   },
   "properties": {
    "name": "UNIT 5, 1 STEWART AVENUE INVERLOCH 3996",
    "locID": "LOC000082991396",
    "tech": "FTTN",
    "upgrade": "NULL_NA",
    "gnaf_pid": "GAVIC411610583"
   }
  },
  {
   "type": "Feature",
   "geometry": {
    "type": "Point",
    "coordinates": [
     145.71619143,
     -38.63255875
    ]
   },
   "properties": {
    "name": "59 CASHIN STREET INVERLOCH 3996",
    "locID": "ChIJ5eGAX7ITKmsRaMtDVpBLAsc",
    "tech": "FTTN",
    "upgrade": "UNKNOWN",
    "gnaf_pid": "GAVIC411613288"
   }
  },
  {
   "type": "Feature",
   "geometry": {
    "type": "Point",
    "coordinates": [
     145.70651895,
     -38.6439372
    ]
   },
   "properties": {
    "name": "4 SYLVIA COURT INVERLOCH 3996",
    "locID": "LOC000056295153",
    "tech": "FTTN",
    "upgrade": "FTTP_SA",
    "gnaf_pid": "GAVIC411613303"
   }
  },
  {
   "type": "Feature",
   "geometry": {
    "type": "Point",
    "coordinates": [
     145.73355875,
     -38.63376145
    ]
   },
   "properties": {
    "name": "3 PIER ROAD INVERLOCH 3996",
    "locID": "LOC000125875161",
    "tech": "FTTP",
    "upgrade": "NULL_NA",
    "gnaf_pid": "GAVIC411613332"
   }
  },
  {
   "type": "Feature",
   "geometry": {
    "type": "Point",
    "coordinates": [
     145.72429719,
     -38.62804204
    ]
   },
   "properties": {
    "name": "18 MARION COURT INVERLOCH 3996",
    "locID": "LOC000070009760",
    "tech": "FTTN",
    "upgrade": "FTTP_SA",
    "gnaf_pid": "GAVIC411613356"
   }
  },
  {
   "type": "Feature",
   "geometry": {
    "type": "Point",
    "coordinates": [
     145.72379666,
     -38.62810599
    ]
   },
   "properties": {
    "name": "23 MARION COURT INVERLOCH 3996",
    "locID": "LOC000007002462",
    "tech": "FTTN",
    "upgrade": "FTTP_SA",
    "gnaf_pid": "GAVIC411613358"
   }
  },
  {
   "type": "Feature",
   "geometry": {
    "type": "Point",
    "coordinates": [
     145.72467921,
     -38.62843463
    ]
   },
   "properties": {
    "name": "12 MARION COURT INVERLOCH 3996",
    "locID": "LOC000029646060",
    "tech": "FTTN",
    "upgrade": "FTTP_SA",
    "gnaf_pid": "GAVIC411613360"
   }
  },
  {
   "type": "Feature",
   "geometry": {
    "type": "Point",
    "coordinates": [
     145.67367448,
     -38.66441002
    ]
   },
   "properties": {
    "name": "330 CAPE PATERSON-INVERLOCH ROAD INVERLOCH 3996",
    "locID": "ChIJgUw2cKsSKmsRIcB3oWYposI",
    "tech": "WIRELESS",
    "upgrade": "UNKNOWN",
    "gnaf_pid": "GAVIC411613773"
   }
  },
  {
   "type": "Feature",
   "geometry": {
    "type": "Point",
    "coordinates": [
     145.73386478,
     -38.62720696
    ]
   },
   "properties": {
    "name": "15 TOWER STREET INVERLOCH 3996",
    "locID": "LOC000088794582",
    "tech": "FTTN",
    "upgrade": "FTTP_SA",
    "gnaf_pid": "GAVIC411614200"
   }
  },
  {
   "type": "Feature",
   "geometry": {
    "type": "Point",
    "coordinates": [
     145.72747326,
     -38.6278998
    ]
   },
   "properties": {
    "name": "11 WILSON AVENUE INVERLOCH 3996",
    "locID": "LOC000152463970",
    "tech": "FTTN",
    "upgrade": "FTTP_SA",
    "gnaf_pid": "GAVIC411614302"
   }
  },
  {
   "type": "Feature",
   "geometry": {
    "type": "Point",
    "coordinates": [
     145.69652458,
     -38.64621199
    ]
   },
   "properties": {
    "name": "10A LOHR AVENUE INVERLOCH 3996",
    "locID": "ChIJo3KP_u0SKmsRI79hNc8FzeA",
    "tech": "FTTN",
    "upgrade": "UNKNOWN",
    "gnaf_pid": "GAVIC411614317"
   }
  },
  {
   "type": "Feature",
   "geometry": {
    "type": "Point",
    "coordinates": [
     145.69622318,
     -38.64635293
    ]
   },
   "properties": {
    "name": "6A LOHR AVENUE INVERLOCH 3996",
    "locID": "ChIJzZge--0SKmsRGRva9KehhUw",
    "tech": "FTTN",
    "upgrade": "UNKNOWN",
    "gnaf_pid": "GAVIC411614323"
   }
  },
  {
   "type": "Feature",
   "geometry": {
    "type": "Point",
    "coordinates": [
     145.7286831,
     -38.63163583
    ]
   },
   "properties": {
    "name": "28 REILLY STREET INVERLOCH 3996",
    "locID": "LOC000113254881",
    "tech": "FTTP",
    "upgrade": "NULL_NA",
    "gnaf_pid": "GAVIC411615037"
   }
  },
  {
   "type": "Feature",
   "geometry": {
    "type": "Point",
    "coordinates": [
     145.72437806,
     -38.62867463
    ]
   },
   "properties": {
    "name": "15 MARION COURT INVERLOCH 3996",
    "locID": "LOC000102571782",
    "tech": "FTTN",
    "upgrade": "FTTP_SA",
    "gnaf_pid": "GAVIC411615043"
   }
  },
  {
   "type": "Feature",
   "geometry": {
    "type": "Point",
    "coordinates": [
     145.72580393,
     -38.63535209
    ]
   },
   "properties": {
    "name": "UNIT 2, 7 ST KILDA STREET INVERLOCH 3996",
    "locID": "LOC000016782117",
    "tech": "FTTN",
    "upgrade": "NULL_NA",
    "gnaf_pid": "GAVIC411615046"
   }
  },
  {
   "type": "Feature",
   "geometry": {
    "type": "Point",
    "coordinates": [
     145.77061677,
     -38.63175598
    ]
   },
   "properties": {
    "name": "405B INVERLOCH-VENUS BAY ROAD INVERLOCH 3996",
    "locID": "ChIJmSK86BoUKmsRM31GM07UwlU",
    "tech": "SATELLITE",
    "upgrade": "UNKNOWN",
    "gnaf_pid": "GAVIC411615062"
   }
  },
  {
   "type": "Feature",
   "geometry": {
    "type": "Point",
    "coordinates": [
     145.7086225,
     -38.63626904
    ]
   },
   "properties": {
    "name": "84 TOORAK ROAD INVERLOCH 3996",
    "locID": "LOC000113265014",
    "tech": "FTTP",
    "upgrade": "NULL_NA",
    "gnaf_pid": "GAVIC411615079"
   }
  },
  {
   "type": "Feature",
   "geometry": {
    "type": "Point",
    "coordinates": [
     145.72080456,
     -38.63851508
    ]
   },
   "properties": {
    "name": "8 WESTERN STREET INVERLOCH 3996",
    "locID": "LOC000062647987",
    "tech": "FTTN",
    "upgrade": "NULL_NA",
    "gnaf_pid": "GAVIC411615084"
   }
  },
  {
   "type": "Feature",
   "geometry": {
    "type": "Point",
    "coordinates": [
     145.71094448,
     -38.64038485
    ]
   },
   "properties": {
    "name": "21 NORMAN ROAD INVERLOCH 3996",
    "locID": "LOC000038117499",
    "tech": "FTTN",
    "upgrade": "NULL_NA",
    "gnaf_pid": "GAVIC411615085"
   }
  },
  {
   "type": "Feature",
   "geometry": {
    "type": "Point",
    "coordinates": [
     145.72519731,
     -38.62896705
    ]
   },
   "properties": {
    "name": "4 MARION COURT INVERLOCH 3996",
    "locID": "LOC000016092643",
    "tech": "FTTN",
    "upgrade": "FTTP_SA",
    "gnaf_pid": "GAVIC411615796"
   }
  },
  {
   "type": "Feature",
   "geometry": {
    "type": "Point",
    "coordinates": [
     145.72580393,
     -38.63535209
    ]
   },
   "properties": {
    "name": "UNIT 4, 7 ST KILDA STREET INVERLOCH 3996",
    "locID": "LOC000016952571",
    "tech": "FTTN",
    "upgrade": "NULL_NA",
    "gnaf_pid": "GAVIC411615903"
   }
  },
  {
   "type": "Feature",
   "geometry": {
    "type": "Point",
    "coordinates": [
     145.7249407,
     -38.62870335
    ]
   },
   "properties": {
    "name": "8 MARION COURT INVERLOCH 3996",
    "locID": "LOC000085298412",
    "tech": "FTTN",
    "upgrade": "FTTP_SA",
    "gnaf_pid": "GAVIC411616120"
   }
  },
  {
   "type": "Feature",
   "geometry": {
    "type": "Point",
    "coordinates": [
     145.73135364,
     -38.6256118
    ]
   },
   "properties": {
    "name": "5 WONTHAGGI ROAD INVERLOCH 3996",
    "locID": "LOC000020270310",
    "tech": "FTTP",
    "upgrade": "NULL_NA",
    "gnaf_pid": "GAVIC411616928"
   }
  },
  {
   "type": "Feature",
   "geometry": {
    "type": "Point",
    "coordinates": [
     145.73480443,
     -38.63260517
    ]
   },
   "properties": {
    "name": "UNIT 1, 15 GRANDVIEW GROVE INVERLOCH 3996",
    "locID": "LOC000065721603",
    "tech": "FTTN",
    "upgrade": "FTTP_SA",
    "gnaf_pid": "GAVIC411616930"
   }
  },
  {
   "type": "Feature",
   "geometry": {
    "type": "Point",
    "coordinates": [
     145.7073563,
     -38.63695774
    ]
   },
   "properties": {
    "name": "44 TAMARA CRESCENT INVERLOCH 3996",
    "locID": "LOC000011015878",
    "tech": "FTTN",
    "upgrade": "NULL_NA",
    "gnaf_pid": "GAVIC411617508"
   }
  },
  {
   "type": "Feature",
   "geometry": {
    "type": "Point",
    "coordinates": [
     145.73923306,
     -38.62858674
    ]
   },
   "properties": {
    "name": "43 INVERLOCH PARADE INVERLOCH 3996",
    "locID": "LOC000114851215",
    "tech": "FTTN",
    "upgrade": "FTTP_SA",
    "gnaf_pid": "GAVIC411617869"
   }
  },
  {
   "type": "Feature",
   "geometry": {
    "type": "Point",
    "coordinates": [
     145.71763752,
     -38.63753195
    ]
   },
   "properties": {
    "name": "7 TOORAK ROAD INVERLOCH 3996",
    "locID": "LOC000085267153",
    "tech": "FTTN",
    "upgrade": "NULL_NA",
    "gnaf_pid": "GAVIC411617890"
   }
  },
  {
   "type": "Feature",
   "geometry": {
    "type": "Point",
    "coordinates": [
     145.71513942,
     -38.6348275
    ]
   },
   "properties": {
    "name": "68 ROYAL PARADE INVERLOCH 3996",
    "locID": "LOC000114617005",
    "tech": "FTTN",
    "upgrade": "FTTP_SA",
    "gnaf_pid": "GAVIC411617902"
   }
  },
  {
   "type": "Feature",
   "geometry": {
    "type": "Point",
    "coordinates": [
     145.71673174,
     -38.63176226
    ]
   },
   "properties": {
    "name": "50 CASHIN STREET INVERLOCH 3996",
    "locID": "Eis1MCBDYXNoaW4gU3QsIEludmVybG9jaCBWSUMgMzk5NiwgQXVzdHJhbGlhIjASLgoUChIJmTlgpLMTKmsR23vIn-lE2-cQMioUChIJQ42VWbITKmsRasz3lSG2T3I",
    "tech": "FTTN",
    "upgrade": "UNKNOWN",
    "gnaf_pid": "GAVIC411617904"
   }
  },
  {
   "type": "Feature",
   "geometry": {
    "type": "Point",
    "coordinates": [
     145.72459236,
     -38.63512415
    ]
   },
   "properties": {
    "name": "23 SANDY MOUNT AVENUE INVERLOCH 3996",
    "locID": "LOC000105963541",
    "tech": "FTTN",
    "upgrade": "NULL_NA",
    "gnaf_pid": "GAVIC411617949"
   }
  },
  {
   "type": "Feature",
   "geometry": {
    "type": "Point",
    "coordinates": [
     145.72544614,
     -38.63453366
    ]
   },
   "properties": {
    "name": "3 SCARBOROUGH STREET INVERLOCH 3996",
    "locID": "LOC000086474292",
    "tech": "FTTN",
    "upgrade": "NULL_NA",
    "gnaf_pid": "GAVIC411617973"
   }
  },
  {
   "type": "Feature",
   "geometry": {
    "type": "Point",
    "coordinates": [
     145.7154027,
     -38.63541473
    ]
   },
   "properties": {
    "name": "51 HALFORD STREET INVERLOCH 3996",
    "locID": "ChIJT6CHGq0TKmsRqGEkcFYxQkE",
    "tech": "FTTN",
    "upgrade": "UNKNOWN",
    "gnaf_pid": "GAVIC411618158"
   }
  },
  {
   "type": "Feature",
   "geometry": {
    "type": "Point",
    "coordinates": [
     145.7300463,
     -38.6276937
    ]
   },
   "properties": {
    "name": "UNIT 18, 1 STEWART AVENUE INVERLOCH 3996",
    "locID": "LOC000082976160",
    "tech": "FTTN",
    "upgrade": "NULL_NA",
    "gnaf_pid": "GAVIC411619445"
   }
  },
  {
   "type": "Feature",
   "geometry": {
    "type": "Point",
    "coordinates": [
     145.7300463,
     -38.6276937
    ]
   },
   "properties": {
    "name": "UNIT 8, 1 STEWART AVENUE INVERLOCH 3996",
    "locID": "LOC000083490367",
    "tech": "FTTN",
    "upgrade": "NULL_NA",
    "gnaf_pid": "GAVIC411619447"
   }
  },
  {
   "type": "Feature",
   "geometry": {
    "type": "Point",
    "coordinates": [
     145.7300463,
     -38.6276937
    ]
   },
   "properties": {
    "name": "UNIT 9, 1 STEWART AVENUE INVERLOCH 3996",
    "locID": "LOC000083330721",
    "tech": "FTTN",
    "upgrade": "NULL_NA",
    "gnaf_pid": "GAVIC411619448"
   }
  },
  {
   "type": "Feature",
   "geometry": {
    "type": "Point",
    "coordinates": [
     145.73552859,
     -38.63042934
    ]
   },
   "properties": {
    "name": "32 GRANDVIEW GROVE INVERLOCH 3996",
    "locID": "LOC000114368710",
    "tech": "FTTN",
    "upgrade": "FTTP_SA",
    "gnaf_pid": "GAVIC411619459"
   }
  },
  {
   "type": "Feature",
   "geometry": {
    "type": "Point",
    "coordinates": [
     145.7301456,
     -38.6316961
    ]
   },
   "properties": {
    "name": "28 WILLIAMS STREET INVERLOCH 3996",
    "locID": "LOC000035273121",
    "tech": "FTTP",
    "upgrade": "NULL_NA",
    "gnaf_pid": "GAVIC411619662"
   }
  },
  {
   "type": "Feature",
   "geometry": {
    "type": "Point",
    "coordinates": [
     145.70304042,
     -38.64594476
    ]
   },
   "properties": {
    "name": "156 SURF PARADE INVERLOCH 3996",
    "locID": "LOC000112878153",
    "tech": "FTTN",
    "upgrade": "FTTP_SA",
    "gnaf_pid": "GAVIC411619785"
   }
  },
  {
   "type": "Feature",
   "geometry": {
    "type": "Point",
    "coordinates": [
     145.73987747,
     -38.63424307
    ]
   },
   "properties": {
    "name": "2 THE ESPLANADE INVERLOCH 3996",
    "locID": "LOC000152411231",
    "tech": "FTTN",
    "upgrade": "FTTP_SA",
    "gnaf_pid": "GAVIC411619816"
   }
  },
  {
   "type": "Feature",
   "geometry": {
    "type": "Point",
    "coordinates": [
     145.7284224,
     -38.633225
    ]
   },
   "properties": {
    "name": "8 REILLY STREET INVERLOCH 3996",
    "locID": "LOC000020388069",
    "tech": "FTTN",
    "upgrade": "FTTP_SA",
    "gnaf_pid": "GAVIC411619829"
   }
  },
  {
   "type": "Feature",
   "geometry": {
    "type": "Point",
    "coordinates": [
     145.72547551,
     -38.6359681
    ]
   },
   "properties": {
    "name": "6 ST KILDA STREET INVERLOCH 3996",
    "locID": "LOC000114363216",
    "tech": "FTTN",
    "upgrade": "NULL_NA",
    "gnaf_pid": "GAVIC411619856"
   }
  },
  {
   "type": "Feature",
   "geometry": {
    "type": "Point",
    "coordinates": [
     145.73064616,
     -38.62934009
    ]
   },
   "properties": {
    "name": "UNIT 1, 64 WILLIAMS STREET INVERLOCH 3996",
    "locID": "LOC000021949153",
    "tech": "FTTN",
    "upgrade": "FTTP_SA",
    "gnaf_pid": "GAVIC411619857"
   }
  },
  {
   "type": "Feature",
   "geometry": {
    "type": "Point",
    "coordinates": [
     145.7114696,
     -38.63501935
    ]
   },
   "properties": {
    "name": "83 HALFORD STREET INVERLOCH 3996",
    "locID": "LOC000086609614",
    "tech": "FTTP",
    "upgrade": "UNKNOWN",
    "gnaf_pid": "GAVIC411620465"
   }
  },
  {
   "type": "Feature",
   "geometry": {
    "type": "Point",
    "coordinates": [
     145.7300463,
     -38.6276937
    ]
   },
   "properties": {
    "name": "UNIT 7, 1 STEWART AVENUE INVERLOCH 3996",
    "locID": "LOC000082943753",
    "tech": "FTTN",
    "upgrade": "NULL_NA",
    "gnaf_pid": "GAVIC411620518"
   }
  },
  {
   "type": "Feature",
   "geometry": {
    "type": "Point",
    "coordinates": [
     145.7300463,
     -38.6276937
    ]
   },
   "properties": {
    "name": "UNIT 2, 1 STEWART AVENUE INVERLOCH 3996",
    "locID": "LOC000083381956",
    "tech": "FTTN",
    "upgrade": "NULL_NA",
    "gnaf_pid": "GAVIC411620525"
   }
  },
  {
   "type": "Feature",
   "geometry": {
    "type": "Point",
    "coordinates": [
     145.73365097,
     -38.6317993
    ]
   },
   "properties": {
    "name": "15 PIER ROAD INVERLOCH 3996",
    "locID": "ChIJSdg7pb8TKmsRFPIex5XZw-E",
    "tech": "FTTN",
    "upgrade": "UNKNOWN",
    "gnaf_pid": "GAVIC411620540"
   }
  },
  {
   "type": "Feature",
   "geometry": {
    "type": "Point",
    "coordinates": [
     145.74288574,
     -38.6283341
    ]
   },
   "properties": {
    "name": "11 HEATHER GROVE INVERLOCH 3996",
    "locID": "LOC000031077256",
    "tech": "FTTN",
    "upgrade": "FTTP_SA",
    "gnaf_pid": "GAVIC411620546"
   }
  },
  {
   "type": "Feature",
   "geometry": {
    "type": "Point",
    "coordinates": [
     145.77061677,
     -38.63175598
    ]
   },
   "properties": {
    "name": "325 INVERLOCH-VENUS BAY ROAD INVERLOCH 3996",
    "locID": "ChIJmSK86BoUKmsRazaypYlhjLM",
    "tech": "SATELLITE",
    "upgrade": "UNKNOWN",
    "gnaf_pid": "GAVIC411621924"
   }
  },
  {
   "type": "Feature",
   "geometry": {
    "type": "Point",
    "coordinates": [
     145.71229899,
     -38.64169885
    ]
   },
   "properties": {
    "name": "UNIT 2, 2 OVERLOOK DRIVE INVERLOCH 3996",
    "locID": "LOC000125906141",
    "tech": "FTTN",
    "upgrade": "NULL_NA",
    "gnaf_pid": "GAVIC411621965"
   }
  },
  {
   "type": "Feature",
   "geometry": {
    "type": "Point",
    "coordinates": [
     145.70514889,
     -38.6450691
    ]
   },
   "properties": {
    "name": "99 LOHR AVENUE INVERLOCH 3996",
    "locID": "LOC000114744152",
    "tech": "FTTP",
    "upgrade": "NULL_NA",
    "gnaf_pid": "GAVIC411623083"
   }
  },
  {
   "type": "Feature",
   "geometry": {
    "type": "Point",
    "coordinates": [
     145.71886028,
     -38.63714903
    ]
   },
   "properties": {
    "name": "1 VENUS STREET INVERLOCH 3996",
    "locID": "LOC000114563735",
    "tech": "FTTN",
    "upgrade": "NULL_NA",
    "gnaf_pid": "GAVIC411623094"
   }
  },
  {
   "type": "Feature",
   "geometry": {
    "type": "Point",
    "coordinates": [
     145.72424865,
     -38.6372468
    ]
   },
   "properties": {
    "name": "3 SANDY MOUNT AVENUE INVERLOCH 3996",
    "locID": "LOC000114638954",
    "tech": "FTTN",
    "upgrade": "NULL_NA",
    "gnaf_pid": "GAVIC411623107"
   }
  },
  {
   "type": "Feature",
   "geometry": {
    "type": "Point",
    "coordinates": [
     145.72395794,
     -38.62824766
    ]
   },
   "properties": {
    "name": "21 MARION COURT INVERLOCH 3996",
    "locID": "LOC000101395723",
    "tech": "FTTP",
    "upgrade": "NULL_NA",
    "gnaf_pid": "GAVIC411623129"
   }
  },
  {
   "type": "Feature",
   "geometry": {
    "type": "Point",
    "coordinates": [
     145.72966628,
     -38.63402991
    ]
   },
   "properties": {
    "name": "4 WILLIAMS STREET INVERLOCH 3996",
    "locID": "LOC000056087283",
    "tech": "FTTN",
    "upgrade": "NULL_NA",
    "gnaf_pid": "GAVIC411623142"
   }
  },
  {
   "type": "Feature",
   "geometry": {
    "type": "Point",
    "coordinates": [
     145.71738274,
     -38.6365364
    ]
   },
   "properties": {
    "name": "11 VIEW STREET INVERLOCH 3996",
    "locID": "LOC000114125505",
    "tech": "FTTN",
    "upgrade": "NULL_NA",
    "gnaf_pid": "GAVIC411623172"
   }
  },
  {
   "type": "Feature",
   "geometry": {
    "type": "Point",
    "coordinates": [
     145.71077711,
     -38.6449504
    ]
   },
   "properties": {
    "name": "80 SURF PARADE INVERLOCH 3996",
    "locID": "LOC000045236166",
    "tech": "WIRELESS",
    "upgrade": "NULL_NA",
    "gnaf_pid": "GAVIC411623233"
   }
  },
  {
   "type": "Feature",
   "geometry": {
    "type": "Point",
    "coordinates": [
     145.72480875,
     -38.62856775
    ]
   },
   "properties": {
    "name": "10 MARION COURT INVERLOCH 3996",
    "locID": "LOC000079041300",
    "tech": "FTTN",
    "upgrade": "FTTP_SA",
    "gnaf_pid": "GAVIC411623245"
   }
  },
  {
   "type": "Feature",
   "geometry": {
    "type": "Point",
    "coordinates": [
     145.7300463,
     -38.6276937
    ]
   },
   "properties": {
    "name": "UNIT 17, 1 STEWART AVENUE INVERLOCH 3996",
    "locID": "LOC000083402353",
    "tech": "FTTN",
    "upgrade": "NULL_NA",
    "gnaf_pid": "GAVIC411623256"
   }
  },
  {
   "type": "Feature",
   "geometry": {
    "type": "Point",
    "coordinates": [
     145.72533535,
     -38.63059096
    ]
   },
   "properties": {
    "name": "UNIT 1, 57 SANDY MOUNT AVENUE INVERLOCH 3996",
    "locID": "LOC000061930837",
    "tech": "FTTN",
    "upgrade": "FTTP_SA",
    "gnaf_pid": "GAVIC411623258"
   }
  },
  {
   "type": "Feature",
   "geometry": {
    "type": "Point",
    "coordinates": [
     145.7300244,
     -38.63224885
    ]
   },
   "properties": {
    "name": "UNIT 1, 22 WILLIAMS STREET INVERLOCH 3996",
    "locID": "ChIJzSPIMrkTKmsRDaBoBkz4RgY",
    "tech": "FTTN",
    "upgrade": "UNKNOWN",
    "gnaf_pid": "GAVIC411623968"
   }
  },
  {
   "type": "Feature",
   "geometry": {
    "type": "Point",
    "coordinates": [
     145.73041059,
     -38.62818409
    ]
   },
   "properties": {
    "name": "UNIT 13, 23 WILSON AVENUE INVERLOCH 3996",
    "locID": "LOC000092162734",
    "tech": "FTTN",
    "upgrade": "NULL_NA",
    "gnaf_pid": "GAVIC411624766"
   }
  },
  {
   "type": "Feature",
   "geometry": {
    "type": "Point",
    "coordinates": [
     145.73013875,
     -38.63451675
    ]
   },
   "properties": {
    "name": "3 THE ESPLANADE INVERLOCH 3996",
    "locID": "LOC000125910127",
    "tech": "FTTN",
    "upgrade": "FTTP_SA",
    "gnaf_pid": "GAVIC411624769"
   }
  },
  {
   "type": "Feature",
   "geometry": {
    "type": "Point",
    "coordinates": [
     145.7300463,
     -38.6276937
    ]
   },
   "properties": {
    "name": "UNIT 14, 1 STEWART AVENUE INVERLOCH 3996",
    "locID": "LOC000083355581",
    "tech": "FTTN",
    "upgrade": "NULL_NA",
    "gnaf_pid": "GAVIC411624771"
   }
  },
  {
   "type": "Feature",
   "geometry": {
    "type": "Point",
    "coordinates": [
     145.72112115,
     -38.63319076
    ]
   },
   "properties": {
    "name": "2 LAVINGTON STREET INVERLOCH 3996",
    "locID": "LOC000088681156",
    "tech": "FTTN",
    "upgrade": "NULL_NA",
    "gnaf_pid": "GAVIC411624795"
   }
  },
  {
   "type": "Feature",
   "geometry": {
    "type": "Point",
    "coordinates": [
     145.7421088,
     -38.62835693
    ]
   },
   "properties": {
    "name": "4 STANLEY COURT INVERLOCH 3996",
    "locID": "LOC000088457246",
    "tech": "FTTN",
    "upgrade": "FTTP_SA",
    "gnaf_pid": "GAVIC411624799"
   }
  },
  {
   "type": "Feature",
   "geometry": {
    "type": "Point",
    "coordinates": [
     145.72532904,
     -38.6291024
    ]
   },
   "properties": {
    "name": "2 MARION COURT INVERLOCH 3996",
    "locID": "LOC000042482467",
    "tech": "FTTN",
    "upgrade": "FTTP_SA",
    "gnaf_pid": "GAVIC411626038"
   }
  },
  {
   "type": "Feature",
   "geometry": {
    "type": "Point",
    "coordinates": [
     145.70994697,
     -38.64122325
    ]
   },
   "properties": {
    "name": "10 FLORIDA AVENUE INVERLOCH 3996",
    "locID": "LOC000115080112",
    "tech": "FTTN",
    "upgrade": "NULL_NA",
    "gnaf_pid": "GAVIC411626515"
   }
  },
  {
   "type": "Feature",
   "geometry": {
    "type": "Point",
    "coordinates": [
     145.7300244,
     -38.63224885
    ]
   },
   "properties": {
    "name": "UNIT 2, 22 WILLIAMS STREET INVERLOCH 3996",
    "locID": "ChIJzSPIMrkTKmsRDaBoBkz4RgY",
    "tech": "FTTN",
    "upgrade": "UNKNOWN",
    "gnaf_pid": "GAVIC411627626"
   }
  },
  {
   "type": "Feature",
   "geometry": {
    "type": "Point",
    "coordinates": [
     145.74371718,
     -38.6324427
    ]
   },
   "properties": {
    "name": "12 LINDSEY CLOSE INVERLOCH 3996",
    "locID": "LOC000114343604",
    "tech": "FTTN",
    "upgrade": "FTTP_SA",
    "gnaf_pid": "GAVIC411627631"
   }
  },
  {
   "type": "Feature",
   "geometry": {
    "type": "Point",
    "coordinates": [
     145.73294085,
     -38.63198039
    ]
   },
   "properties": {
    "name": "22 BAYVIEW AVENUE INVERLOCH 3996",
    "locID": "LOC000113136239",
    "tech": "FTTN",
    "upgrade": "FTTP_SA",
    "gnaf_pid": "GAVIC411627637"
   }
  },
  {
   "type": "Feature",
   "geometry": {
    "type": "Point",
    "coordinates": [
     145.71198428,
     -38.63567359
    ]
   },
   "properties": {
    "name": "14 BIRD STREET INVERLOCH 3996",
    "locID": "LOC000114570215",
    "tech": "FTTP",
    "upgrade": "NULL_NA",
    "gnaf_pid": "GAVIC411627801"
   }
  },
  {
   "type": "Feature",
   "geometry": {
    "type": "Point",
    "coordinates": [
     145.7300463,
     -38.6276937
    ]
   },
   "properties": {
    "name": "UNIT 15, 1 STEWART AVENUE INVERLOCH 3996",
    "locID": "LOC000083216583",
    "tech": "FTTN",
    "upgrade": "NULL_NA",
    "gnaf_pid": "GAVIC411628517"
   }
  },
  {
   "type": "Feature",
   "geometry": {
    "type": "Point",
    "coordinates": [
     145.72580393,
     -38.63535209
    ]
   },
   "properties": {
    "name": "UNIT 1, 7 ST KILDA STREET INVERLOCH 3996",
    "locID": "LOC000016983712",
    "tech": "FTTN",
    "upgrade": "NULL_NA",
    "gnaf_pid": "GAVIC411628526"
   }
  },
  {
   "type": "Feature",
   "geometry": {
    "type": "Point",
    "coordinates": [
     145.73041059,
     -38.62818409
    ]
   },
   "properties": {
    "name": "UNIT 6, 23 WILSON AVENUE INVERLOCH 3996",
    "locID": "LOC000092315143",
    "tech": "FTTN",
    "upgrade": "NULL_NA",
    "gnaf_pid": "GAVIC411628534"
   }
  },
  {
   "type": "Feature",
   "geometry": {
    "type": "Point",
    "coordinates": [
     145.7300463,
     -38.6276937
    ]
   },
   "properties": {
    "name": "UNIT 16, 1 STEWART AVENUE INVERLOCH 3996",
    "locID": "LOC000083073867",
    "tech": "FTTN",
    "upgrade": "NULL_NA",
    "gnaf_pid": "GAVIC411628538"
   }
  },
  {
   "type": "Feature",
   "geometry": {
    "type": "Point",
    "coordinates": [
     145.72377919,
     -38.63249895
    ]
   },
   "properties": {
    "name": "11 DIXON STREET INVERLOCH 3996",
    "locID": "LOC000042456091",
    "tech": "FTTN",
    "upgrade": "NULL_NA",
    "gnaf_pid": "GAVIC411629246"
   }
  },
  {
   "type": "Feature",
   "geometry": {
    "type": "Point",
    "coordinates": [
     145.77061677,
     -38.63175598
    ]
   },
   "properties": {
    "name": "395 INVERLOCH-VENUS BAY ROAD INVERLOCH 3996",
    "locID": "ChIJmSK86BoUKmsRqIhXte56Sew",
    "tech": "SATELLITE",
    "upgrade": "UNKNOWN",
    "gnaf_pid": "GAVIC411630113"
   }
  },
  {
   "type": "Feature",
   "geometry": {
    "type": "Point",
    "coordinates": [
     145.71157234,
     -38.64173313
    ]
   },
   "properties": {
    "name": "3 OVERLOOK DRIVE INVERLOCH 3996",
    "locID": "LOC000114037290",
    "tech": "FTTN",
    "upgrade": "NULL_NA",
    "gnaf_pid": "GAVIC411630121"
   }
  },
  {
   "type": "Feature",
   "geometry": {
    "type": "Point",
    "coordinates": [
     145.7300463,
     -38.6276937
    ]
   },
   "properties": {
    "name": "UNIT 13, 1 STEWART AVENUE INVERLOCH 3996",
    "locID": "LOC000083241975",
    "tech": "FTTN",
    "upgrade": "NULL_NA",
    "gnaf_pid": "GAVIC411630216"
   }
  },
  {
   "type": "Feature",
   "geometry": {
    "type": "Point",
    "coordinates": [
     145.71229899,
     -38.64169885
    ]
   },
   "properties": {
    "name": "UNIT 1, 2 OVERLOOK DRIVE INVERLOCH 3996",
    "locID": "LOC000125906141",
    "tech": "FTTN",
    "upgrade": "NULL_NA",
    "gnaf_pid": "GAVIC411631244"
   }
  },
  {
   "type": "Feature",
   "geometry": {
    "type": "Point",
    "coordinates": [
     145.71195318,
     -38.64155929
    ]
   },
   "properties": {
    "name": "UNIT 1, 6 OVERLOOK DRIVE INVERLOCH 3996",
    "locID": "LOC000058184297",
    "tech": "FTTN",
    "upgrade": "NULL_NA",
    "gnaf_pid": "GAVIC411631368"
   }
  },
  {
   "type": "Feature",
   "geometry": {
    "type": "Point",
    "coordinates": [
     145.71567401,
     -38.63573028
    ]
   },
   "properties": {
    "name": "17 CASHIN STREET INVERLOCH 3996",
    "locID": "ChIJ2dxmBK0TKmsRPcKLyW0Okiw",
    "tech": "FTTN",
    "upgrade": "UNKNOWN",
    "gnaf_pid": "GAVIC411631865"
   }
  },
  {
   "type": "Feature",
   "geometry": {
    "type": "Point",
    "coordinates": [
     145.73279554,
     -38.63432854
    ]
   },
   "properties": {
    "name": "26 HOPETOUN STREET INVERLOCH 3996",
    "locID": "LOC000058046412",
    "tech": "FTTN",
    "upgrade": "NULL_NA",
    "gnaf_pid": "GAVIC411632975"
   }
  },
  {
   "type": "Feature",
   "geometry": {
    "type": "Point",
    "coordinates": [
     145.73966524,
     -38.61580155
    ]
   },
   "properties": {
    "name": "2 MURRAYS ROAD INVERLOCH 3996",
    "locID": "LOC100072049084",
    "tech": "WIRELESS",
    "upgrade": "NULL_NA",
    "gnaf_pid": "GAVIC411633624"
   }
  },
  {
   "type": "Feature",
   "geometry": {
    "type": "Point",
    "coordinates": [
     145.7102646,
     -38.63411368
    ]
   },
   "properties": {
    "name": "6 THE MEWS INVERLOCH 3996",
    "locID": "LOC000029265437",
    "tech": "FTTN",
    "upgrade": "FTTP_SA",
    "gnaf_pid": "GAVIC411633628"
   }
  },
  {
   "type": "Feature",
   "geometry": {
    "type": "Point",
    "coordinates": [
     145.72533535,
     -38.63059096
    ]
   },
   "properties": {
    "name": "UNIT 2, 57 SANDY MOUNT AVENUE INVERLOCH 3996",
    "locID": "LOC000061826974",
    "tech": "FTTN",
    "upgrade": "FTTP_SA",
    "gnaf_pid": "GAVIC411633743"
   }
  },
  {
   "type": "Feature",
   "geometry": {
    "type": "Point",
    "coordinates": [
     145.72031038,
     -38.63310563
    ]
   },
   "properties": {
    "name": "12 LAVINGTON STREET INVERLOCH 3996",
    "locID": "LOC000108679019",
    "tech": "FTTN",
    "upgrade": "NULL_NA",
    "gnaf_pid": "GAVIC411633747"
   }
  },
  {
   "type": "Feature",
   "geometry": {
    "type": "Point",
    "coordinates": [
     145.71148379,
     -38.64136978
    ]
   },
   "properties": {
    "name": "12 OVERLOOK DRIVE INVERLOCH 3996",
    "locID": "LOC000114505503",
    "tech": "FTTN",
    "upgrade": "NULL_NA",
    "gnaf_pid": "GAVIC411633888"
   }
  },
  {
   "type": "Feature",
   "geometry": {
    "type": "Point",
    "coordinates": [
     145.71921716,
     -38.63718595
    ]
   },
   "properties": {
    "name": "5 VENUS STREET INVERLOCH 3996",
    "locID": "LOC000113254282",
    "tech": "FTTN",
    "upgrade": "NULL_NA",
    "gnaf_pid": "GAVIC411633920"
   }
  },
  {
   "type": "Feature",
   "geometry": {
    "type": "Point",
    "coordinates": [
     145.72465665,
     -38.62896461
    ]
   },
   "properties": {
    "name": "11 MARION COURT INVERLOCH 3996",
    "locID": "LOC000006019697",
    "tech": "FTTP",
    "upgrade": "NULL_NA",
    "gnaf_pid": "GAVIC411633922"
   }
  },
  {
   "type": "Feature",
   "geometry": {
    "type": "Point",
    "coordinates": [
     145.73041059,
     -38.62818409
    ]
   },
   "properties": {
    "name": "UNIT 2, 23 WILSON AVENUE INVERLOCH 3996",
    "locID": "LOC000092330676",
    "tech": "FTTN",
    "upgrade": "NULL_NA",
    "gnaf_pid": "GAVIC411633925"
   }
  },
  {
   "type": "Feature",
   "geometry": {
    "type": "Point",
    "coordinates": [
     145.7300463,
     -38.6276937
    ]
   },
   "properties": {
    "name": "UNIT 10, 1 STEWART AVENUE INVERLOCH 3996",
    "locID": "LOC000083383182",
    "tech": "FTTN",
    "upgrade": "NULL_NA",
    "gnaf_pid": "GAVIC411634640"
   }
  },
  {
   "type": "Feature",
   "geometry": {
    "type": "Point",
    "coordinates": [
     145.73041059,
     -38.62818409
    ]
   },
   "properties": {
    "name": "UNIT 3, 23 WILSON AVENUE INVERLOCH 3996",
    "locID": "LOC000092330757",
    "tech": "FTTN",
    "upgrade": "NULL_NA",
    "gnaf_pid": "GAVIC411634642"
   }
  },
  {
   "type": "Feature",
   "geometry": {
    "type": "Point",
    "coordinates": [
     145.7300463,
     -38.6276937
    ]
   },
   "properties": {
    "name": "UNIT 12, 1 STEWART AVENUE INVERLOCH 3996",
    "locID": "LOC000083726766",
    "tech": "FTTN",
    "upgrade": "NULL_NA",
    "gnaf_pid": "GAVIC411635870"
   }
  },
  {
   "type": "Feature",
   "geometry": {
    "type": "Point",
    "coordinates": [
     145.73041059,
     -38.62818409
    ]
   },
   "properties": {
    "name": "UNIT 9, 23 WILSON AVENUE INVERLOCH 3996",
    "locID": "LOC000091997138",
    "tech": "FTTN",
    "upgrade": "NULL_NA",
    "gnaf_pid": "GAVIC411635874"
   }
  },
  {
   "type": "Feature",
   "geometry": {
    "type": "Point",
    "coordinates": [
     145.72494578,
     -38.63554582
    ]
   },
   "properties": {
    "name": "8 SANDY MOUNT AVENUE INVERLOCH 3996",
    "locID": "LOC000114779675",
    "tech": "FTTN",
    "upgrade": "NULL_NA",
    "gnaf_pid": "GAVIC411635885"
   }
  },
  {
   "type": "Feature",
   "geometry": {
    "type": "Point",
    "coordinates": [
     145.72427501,
     -38.62855636
    ]
   },
   "properties": {
    "name": "17 MARION COURT INVERLOCH 3996",
    "locID": "LOC000075523230",
    "tech": "FTTN",
    "upgrade": "FTTP_SA",
    "gnaf_pid": "GAVIC411635897"
   }
  },
  {
   "type": "Feature",
   "geometry": {
    "type": "Point",
    "coordinates": [
     145.72508265,
     -38.62644341
    ]
   },
   "properties": {
    "name": "872 WONTHAGGI ROAD INVERLOCH 3996",
    "locID": "ChIJu35h3ccTKmsR_WkspN02Qn8",
    "tech": "WIRELESS",
    "upgrade": "UNKNOWN",
    "gnaf_pid": "GAVIC411636300"
   }
  },
  {
   "type": "Feature",
   "geometry": {
    "type": "Point",
    "coordinates": [
     145.71628278,
     -38.63199822
    ]
   },
   "properties": {
    "name": "69 CASHIN STREET INVERLOCH 3996",
    "locID": "LOC000187222604",
    "tech": "FTTN",
    "upgrade": "FTTP_SA",
    "gnaf_pid": "GAVIC411636320"
   }
  },
  {
   "type": "Feature",
   "geometry": {
    "type": "Point",
    "coordinates": [
     145.63212663,
     -38.62643308
    ]
   },
   "properties": {
    "name": "LOT 3 BOUNDARY ROAD INVERLOCH 3996",
    "locID": "LOC000079337878",
    "tech": "WIRELESS",
    "upgrade": "NULL_NA",
    "gnaf_pid": "GAVIC412667991"
   }
  },
  {
   "type": "Feature",
   "geometry": {
    "type": "Point",
    "coordinates": [
     145.65392573,
     -38.62409568
    ]
   },
   "properties": {
    "name": "LOT 1 MARTYN LANE INVERLOCH 3996",
    "locID": "EipNYXJ0eW4gTGFuZSwgSW52ZXJsb2NoIFZJQyAzOTk2LCBBdXN0cmFsaWEiLiosChQKEgl_sg20dQ0qaxEP5NEyO9QsoRIUChIJ2zJDuFQRKmsREGGgMKR5BQQ",
    "tech": "WIRELESS",
    "upgrade": "UNKNOWN",
    "gnaf_pid": "GAVIC412697394"
   }
  },
  {
   "type": "Feature",
   "geometry": {
    "type": "Point",
    "coordinates": [
     145.68784698,
     -38.62432593
    ]
   },
   "properties": {
    "name": "LOT 4 BAMBROOK ROAD INVERLOCH 3996",
    "locID": "LOC000125918287",
    "tech": "WIRELESS",
    "upgrade": "NULL_NA",
    "gnaf_pid": "GAVIC412699433"
   }
  },
  {
   "type": "Feature",
   "geometry": {
    "type": "Point",
    "coordinates": [
     145.68784698,
     -38.62432593
    ]
   },
   "properties": {
    "name": "LOT 3 BAMBROOK ROAD INVERLOCH 3996",
    "locID": "LOC000125918287",
    "tech": "WIRELESS",
    "upgrade": "NULL_NA",
    "gnaf_pid": "GAVIC412699435"
   }
  },
  {
   "type": "Feature",
   "geometry": {
    "type": "Point",
    "coordinates": [
     145.68784698,
     -38.62432593
    ]
   },
   "properties": {
    "name": "LOT 1 BAMBROOK ROAD INVERLOCH 3996",
    "locID": "LOC000074138060",
    "tech": "WIRELESS",
    "upgrade": "NULL_NA",
    "gnaf_pid": "GAVIC412699465"
   }
  },
  {
   "type": "Feature",
   "geometry": {
    "type": "Point",
    "coordinates": [
     145.72153451,
     -38.63572295
    ]
   },
   "properties": {
    "name": "10 FREDA STREET INVERLOCH 3996",
    "locID": "LOC000113063666",
    "tech": "FTTN",
    "upgrade": "NULL_NA",
    "gnaf_pid": "GAVIC414820772"
   }
  },
  {
   "type": "Feature",
   "geometry": {
    "type": "Point",
    "coordinates": [
     145.72505604,
     -38.6322857
    ]
   },
   "properties": {
    "name": "43 SANDY MOUNT AVENUE INVERLOCH 3996",
    "locID": "LOC000065985766",
    "tech": "FTTN",
    "upgrade": "FTTP_SA",
    "gnaf_pid": "GAVIC414820814"
   }
  },
  {
   "type": "Feature",
   "geometry": {
    "type": "Point",
    "coordinates": [
     145.71657113,
     -38.63272881
    ]
   },
   "properties": {
    "name": "36 CASHIN STREET INVERLOCH 3996",
    "locID": "LOC000019429410",
    "tech": "FTTN",
    "upgrade": "NULL_NA",
    "gnaf_pid": "GAVIC414821197"
   }
  },
  {
   "type": "Feature",
   "geometry": {
    "type": "Point",
    "coordinates": [
     145.71668418,
     -38.63205341
    ]
   },
   "properties": {
    "name": "46 CASHIN STREET INVERLOCH 3996",
    "locID": "ChIJ2TBkUbITKmsRGq8sZ6aGeNU",
    "tech": "FTTN",
    "upgrade": "UNKNOWN",
    "gnaf_pid": "GAVIC414821202"
   }
  },
  {
   "type": "Feature",
   "geometry": {
    "type": "Point",
    "coordinates": [
     145.7167916,
     -38.62887253
    ]
   },
   "properties": {
    "name": "111 CASHIN STREET INVERLOCH 3996",
    "locID": "ChIJB5nyerQTKmsR5gW_qBTwQGM",
    "tech": "FTTN",
    "upgrade": "UNKNOWN",
    "gnaf_pid": "GAVIC414821214"
   }
  },
  {
   "type": "Feature",
   "geometry": {
    "type": "Point",
    "coordinates": [
     145.70617105,
     -38.64597269
    ]
   },
   "properties": {
    "name": "177 SURF PARADE INVERLOCH 3996",
    "locID": "ChIJWzWivvsSKmsRjsP26Fdp458",
    "tech": "FTTN",
    "upgrade": "UNKNOWN",
    "gnaf_pid": "GAVIC414824252"
   }
  },
  {
   "type": "Feature",
   "geometry": {
    "type": "Point",
    "coordinates": [
     145.71037833,
     -38.64423719
    ]
   },
   "properties": {
    "name": "152 LOHR AVENUE INVERLOCH 3996",
    "locID": "LOC000071438386",
    "tech": "FTTN",
    "upgrade": "FTTP_SA",
    "gnaf_pid": "GAVIC414825012"
   }
  },
  {
   "type": "Feature",
   "geometry": {
    "type": "Point",
    "coordinates": [
     145.72511539,
     -38.62941745
    ]
   },
   "properties": {
    "name": "5 MARION COURT INVERLOCH 3996",
    "locID": "LOC000037518818",
    "tech": "FTTP",
    "upgrade": "NULL_NA",
    "gnaf_pid": "GAVIC414825025"
   }
  },
  {
   "type": "Feature",
   "geometry": {
    "type": "Point",
    "coordinates": [
     145.73525575,
     -38.62818135
    ]
   },
   "properties": {
    "name": "3 INVERLOCH PARADE INVERLOCH 3996",
    "locID": "LOC000112971983",
    "tech": "FTTP",
    "upgrade": "NULL_NA",
    "gnaf_pid": "GAVIC414825130"
   }
  },
  {
   "type": "Feature",
   "geometry": {
    "type": "Point",
    "coordinates": [
     145.74278291,
     -38.63014989
    ]
   },
   "properties": {
    "name": "26 YOULL GROVE INVERLOCH 3996",
    "locID": "ChIJS1DiQOwTKmsRbMylW4ORxm0",
    "tech": "FTTN",
    "upgrade": "UNKNOWN",
    "gnaf_pid": "GAVIC414827557"
   }
  },
  {
   "type": "Feature",
   "geometry": {
    "type": "Point",
    "coordinates": [
     145.7107874,
     -38.64032121
    ]
   },
   "properties": {
    "name": "23 NORMAN ROAD INVERLOCH 3996",
    "locID": "LOC000192136243",
    "tech": "FTTN",
    "upgrade": "NULL_NA",
    "gnaf_pid": "GAVIC414832087"
   }
  },
  {
   "type": "Feature",
   "geometry": {
    "type": "Point",
    "coordinates": [
     145.71302493,
     -38.6412319
    ]
   },
   "properties": {
    "name": "1 NORMAN ROAD INVERLOCH 3996",
    "locID": "LOC000112919325",
    "tech": "FTTN",
    "upgrade": "NULL_NA",
    "gnaf_pid": "GAVIC414832094"
   }
  },
  {
   "type": "Feature",
   "geometry": {
    "type": "Point",
    "coordinates": [
     145.72765895,
     -38.63362806
    ]
   },
   "properties": {
    "name": "14-18 ABECKETT STREET INVERLOCH 3996",
    "locID": "ChIJj4Lx0bsTKmsRPdMJ6-LsrRo",
    "tech": "FTTN",
    "upgrade": "UNKNOWN",
    "gnaf_pid": "GAVIC414832308"
   }
  },
  {
   "type": "Feature",
   "geometry": {
    "type": "Point",
    "coordinates": [
     145.69121142,
     -38.64132964
    ]
   },
   "properties": {
    "name": "1 DROWLEYS ROAD INVERLOCH 3996",
    "locID": "LOC000103064873",
    "tech": "FTTN",
    "upgrade": "NULL_NA",
    "gnaf_pid": "GAVIC414835455"
   }
  },
  {
   "type": "Feature",
   "geometry": {
    "type": "Point",
    "coordinates": [
     145.71928207,
     -38.6277701
    ]
   },
   "properties": {
    "name": "83 WONTHAGGI ROAD INVERLOCH 3996",
    "locID": "LOC000125930543",
    "tech": "FTTN",
    "upgrade": "FTTP_SA",
    "gnaf_pid": "GAVIC414842620"
   }
  },
  {
   "type": "Feature",
   "geometry": {
    "type": "Point",
    "coordinates": [
     145.72508265,
     -38.62644341
    ]
   },
   "properties": {
    "name": "10 WONTHAGGI ROAD INVERLOCH 3996",
    "locID": "LOC000054377120",
    "tech": "FTTN",
    "upgrade": "NULL_NA",
    "gnaf_pid": "GAVIC414842635"
   }
  },
  {
   "type": "Feature",
   "geometry": {
    "type": "Point",
    "coordinates": [
     145.7333667,
     -38.6340498
    ]
   },
   "properties": {
    "name": "31 HOPETOUN STREET INVERLOCH 3996",
    "locID": "LOC000013503139",
    "tech": "FTTP",
    "upgrade": "NULL_NA",
    "gnaf_pid": "GAVIC414842950"
   }
  },
  {
   "type": "Feature",
   "geometry": {
    "type": "Point",
    "coordinates": [
     145.73334521,
     -38.63438591
    ]
   },
   "properties": {
    "name": "32 HOPETOUN STREET INVERLOCH 3996",
    "locID": "LOC000107656686",
    "tech": "FTTP",
    "upgrade": "NULL_NA",
    "gnaf_pid": "GAVIC414842951"
   }
  },
  {
   "type": "Feature",
   "geometry": {
    "type": "Point",
    "coordinates": [
     145.71474849,
     -38.63753718
    ]
   },
   "properties": {
    "name": "25 TOORAK ROAD INVERLOCH 3996",
    "locID": "LOC000184641691",
    "tech": "FTTP",
    "upgrade": "NULL_NA",
    "gnaf_pid": "GAVIC414843032"
   }
  },
  {
   "type": "Feature",
   "geometry": {
    "type": "Point",
    "coordinates": [
     145.71411576,
     -38.63682555
    ]
   },
   "properties": {
    "name": "34 TOORAK ROAD INVERLOCH 3996",
    "locID": "LOC000091434493",
    "tech": "FTTN",
    "upgrade": "FTTP_SA",
    "gnaf_pid": "GAVIC414843036"
   }
  },
  {
   "type": "Feature",
   "geometry": {
    "type": "Point",
    "coordinates": [
     145.71365598,
     -38.63677419
    ]
   },
   "properties": {
    "name": "40 TOORAK ROAD INVERLOCH 3996",
    "locID": "ChIJ_0Y_tKwTKmsROEb0llghyvM",
    "tech": "FTTN",
    "upgrade": "UNKNOWN",
    "gnaf_pid": "GAVIC414843038"
   }
  },
  {
   "type": "Feature",
   "geometry": {
    "type": "Point",
    "coordinates": [
     145.71344258,
     -38.63675227
    ]
   },
   "properties": {
    "name": "42 TOORAK ROAD INVERLOCH 3996",
    "locID": "ChIJt9q6tKwTKmsRrGQWaHAAmoA",
    "tech": "FTTN",
    "upgrade": "UNKNOWN",
    "gnaf_pid": "GAVIC414843039"
   }
  },
  {
   "type": "Feature",
   "geometry": {
    "type": "Point",
    "coordinates": [
     145.71578213,
     -38.63882446
    ]
   },
   "properties": {
    "name": "10 BEACH AVENUE INVERLOCH 3996",
    "locID": "LOC000152899682",
    "tech": "FTTN",
    "upgrade": "FTTP_SA",
    "gnaf_pid": "GAVIC414846953"
   }
  },
  {
   "type": "Feature",
   "geometry": {
    "type": "Point",
    "coordinates": [
     145.72993476,
     -38.63278103
    ]
   },
   "properties": {
    "name": "16A WILLIAMS STREET INVERLOCH 3996",
    "locID": "LOC000023038862",
    "tech": "FTTN",
    "upgrade": "NULL_NA",
    "gnaf_pid": "GAVIC414850305"
   }
  },
  {
   "type": "Feature",
   "geometry": {
    "type": "Point",
    "coordinates": [
     145.72946521,
     -38.63266097
    ]
   },
   "properties": {
    "name": "11 WILLIAMS STREET INVERLOCH 3996",
    "locID": "LOC000042835717",
    "tech": "FTTN",
    "upgrade": "FTTP_SA",
    "gnaf_pid": "GAVIC414850312"
   }
  },
  {
   "type": "Feature",
   "geometry": {
    "type": "Point",
    "coordinates": [
     145.72993476,
     -38.63278103
    ]
   },
   "properties": {
    "name": "14C WILLIAMS STREET INVERLOCH 3996",
    "locID": "ChIJf7ftSrkTKmsRctoInK0sq80",
    "tech": "FTTN",
    "upgrade": "UNKNOWN",
    "gnaf_pid": "GAVIC414850314"
   }
  },
  {
   "type": "Feature",
   "geometry": {
    "type": "Point",
    "coordinates": [
     145.69793456,
     -38.64555231
    ]
   },
   "properties": {
    "name": "26 LOHR AVENUE INVERLOCH 3996",
    "locID": "ChIJnf3U6_ESKmsRuO9msgkvcMM",
    "tech": "FTTN",
    "upgrade": "UNKNOWN",
    "gnaf_pid": "GAVIC414850464"
   }
  },
  {
   "type": "Feature",
   "geometry": {
    "type": "Point",
    "coordinates": [
     145.71058389,
     -38.64023878
    ]
   },
   "properties": {
    "name": "25 NORMAN ROAD INVERLOCH 3996",
    "locID": "LOC000114264537",
    "tech": "FTTN",
    "upgrade": "NULL_NA",
    "gnaf_pid": "GAVIC414853645"
   }
  },
  {
   "type": "Feature",
   "geometry": {
    "type": "Point",
    "coordinates": [
     145.71035019,
     -38.64014414
    ]
   },
   "properties": {
    "name": "27 NORMAN ROAD INVERLOCH 3996",
    "locID": "LOC000108656996",
    "tech": "FTTN",
    "upgrade": "NULL_NA",
    "gnaf_pid": "GAVIC414853646"
   }
  },
  {
   "type": "Feature",
   "geometry": {
    "type": "Point",
    "coordinates": [
     145.71881164,
     -38.63778056
    ]
   },
   "properties": {
    "name": "20 ABBOTT STREET INVERLOCH 3996",
    "locID": "LOC000114813227",
    "tech": "FTTN",
    "upgrade": "NULL_NA",
    "gnaf_pid": "GAVIC414854171"
   }
  },
  {
   "type": "Feature",
   "geometry": {
    "type": "Point",
    "coordinates": [
     145.7226673,
     -38.62756855
    ]
   },
   "properties": {
    "name": "36 POWLETT STREET INVERLOCH 3996",
    "locID": "LOC000001974075",
    "tech": "FTTN",
    "upgrade": "NULL_NA",
    "gnaf_pid": "GAVIC414857656"
   }
  },
  {
   "type": "Feature",
   "geometry": {
    "type": "Point",
    "coordinates": [
     145.72486449,
     -38.63012509
    ]
   },
   "properties": {
    "name": "2 POWLETT STREET INVERLOCH 3996",
    "locID": "LOC000106362699",
    "tech": "FTTN",
    "upgrade": "NULL_NA",
    "gnaf_pid": "GAVIC414857661"
   }
  },
  {
   "type": "Feature",
   "geometry": {
    "type": "Point",
    "coordinates": [
     145.72639271,
     -38.63606319
    ]
   },
   "properties": {
    "name": "16 ST KILDA STREET INVERLOCH 3996",
    "locID": "LOC000042995243",
    "tech": "FTTN",
    "upgrade": "NULL_NA",
    "gnaf_pid": "GAVIC414860228"
   }
  },
  {
   "type": "Feature",
   "geometry": {
    "type": "Point",
    "coordinates": [
     145.7269992,
     -38.63609875
    ]
   },
   "properties": {
    "name": "18 ST KILDA STREET INVERLOCH 3996",
    "locID": "LOC000114389864",
    "tech": "FTTN",
    "upgrade": "NULL_NA",
    "gnaf_pid": "GAVIC414860229"
   }
  },
  {
   "type": "Feature",
   "geometry": {
    "type": "Point",
    "coordinates": [
     145.7420828,
     -38.62851403
    ]
   },
   "properties": {
    "name": "2 STANLEY COURT INVERLOCH 3996",
    "locID": "LOC000098310807",
    "tech": "FTTN",
    "upgrade": "FTTP_SA",
    "gnaf_pid": "GAVIC414860230"
   }
  },
  {
   "type": "Feature",
   "geometry": {
    "type": "Point",
    "coordinates": [
     145.7157123,
     -38.63550443
    ]
   },
   "properties": {
    "name": "19 CASHIN STREET INVERLOCH 3996",
    "locID": "ChIJvdVjD60TKmsR2npUTM8TVPw",
    "tech": "FTTN",
    "upgrade": "UNKNOWN",
    "gnaf_pid": "GAVIC414860910"
   }
  },
  {
   "type": "Feature",
   "geometry": {
    "type": "Point",
    "coordinates": [
     145.7376835,
     -38.63125453
    ]
   },
   "properties": {
    "name": "12 NAUTILUS ROAD INVERLOCH 3996",
    "locID": "LOC000048627087",
    "tech": "FTTP",
    "upgrade": "UNKNOWN",
    "gnaf_pid": "GAVIC414860960"
   }
  },
  {
   "type": "Feature",
   "geometry": {
    "type": "Point",
    "coordinates": [
     145.74492803,
     -38.61494695
    ]
   },
   "properties": {
    "name": "87-89 BASS HIGHWAY INVERLOCH 3996",
    "locID": "ChIJIfxublgRKmsRooUAUZcz5e8",
    "tech": "WIRELESS",
    "upgrade": "UNKNOWN",
    "gnaf_pid": "GAVIC414861112"
   }
  },
  {
   "type": "Feature",
   "geometry": {
    "type": "Point",
    "coordinates": [
     145.72440266,
     -38.62689059
    ]
   },
   "properties": {
    "name": "16 NATION COURT INVERLOCH 3996",
    "locID": "LOC000075218946",
    "tech": "FTTN",
    "upgrade": "FTTP_SA",
    "gnaf_pid": "GAVIC414864118"
   }
  },
  {
   "type": "Feature",
   "geometry": {
    "type": "Point",
    "coordinates": [
     145.718682,
     -38.63574856
    ]
   },
   "properties": {
    "name": "23 HALFORD STREET INVERLOCH 3996",
    "locID": "LOC000042279659",
    "tech": "FTTN",
    "upgrade": "NULL_NA",
    "gnaf_pid": "GAVIC414864763"
   }
  },
  {
   "type": "Feature",
   "geometry": {
    "type": "Point",
    "coordinates": [
     145.71666069,
     -38.63525736
    ]
   },
   "properties": {
    "name": "42A HALFORD STREET INVERLOCH 3996",
    "locID": "ChIJY-F4oq0TKmsR6HxsQAtoBSA",
    "tech": "FTTN",
    "upgrade": "UNKNOWN",
    "gnaf_pid": "GAVIC414864774"
   }
  },
  {
   "type": "Feature",
   "geometry": {
    "type": "Point",
    "coordinates": [
     145.72383698,
     -38.63315391
    ]
   },
   "properties": {
    "name": "1 GOLF STREET INVERLOCH 3996",
    "locID": "LOC000114632251",
    "tech": "FTTN",
    "upgrade": "NULL_NA",
    "gnaf_pid": "GAVIC414864829"
   }
  },
  {
   "type": "Feature",
   "geometry": {
    "type": "Point",
    "coordinates": [
     145.72993476,
     -38.63278103
    ]
   },
   "properties": {
    "name": "14B WILLIAMS STREET INVERLOCH 3996",
    "locID": "ChIJf7ftSrkTKmsR8sW24jpEKgE",
    "tech": "FTTN",
    "upgrade": "UNKNOWN",
    "gnaf_pid": "GAVIC414868490"
   }
  },
  {
   "type": "Feature",
   "geometry": {
    "type": "Point",
    "coordinates": [
     145.72993476,
     -38.63278103
    ]
   },
   "properties": {
    "name": "14D WILLIAMS STREET INVERLOCH 3996",
    "locID": "ChIJf7ftSrkTKmsRMP9Gl9T3Dqs",
    "tech": "FTTN",
    "upgrade": "UNKNOWN",
    "gnaf_pid": "GAVIC414868491"
   }
  },
  {
   "type": "Feature",
   "geometry": {
    "type": "Point",
    "coordinates": [
     145.72993476,
     -38.63278103
    ]
   },
   "properties": {
    "name": "14A WILLIAMS STREET INVERLOCH 3996",
    "locID": "LOC000106634344",
    "tech": "FTTN",
    "upgrade": "NULL_NA",
    "gnaf_pid": "GAVIC414868492"
   }
  },
  {
   "type": "Feature",
   "geometry": {
    "type": "Point",
    "coordinates": [
     145.73471435,
     -38.62786555
    ]
   },
   "properties": {
    "name": "58 PIER ROAD INVERLOCH 3996",
    "locID": "LOC000114043838",
    "tech": "FTTN",
    "upgrade": "FTTP_SA",
    "gnaf_pid": "GAVIC414868576"
   }
  },
  {
   "type": "Feature",
   "geometry": {
    "type": "Point",
    "coordinates": [
     145.7174911,
     -38.63930715
    ]
   },
   "properties": {
    "name": "122 RAMSEY BOULEVARD INVERLOCH 3996",
    "locID": "LOC000067105832",
    "tech": "FTTN",
    "upgrade": "NULL_NA",
    "gnaf_pid": "GAVIC414868598"
   }
  },
  {
   "type": "Feature",
   "geometry": {
    "type": "Point",
    "coordinates": [
     145.72852961,
     -38.63466671
    ]
   },
   "properties": {
    "name": "6A RAMSEY BOULEVARD INVERLOCH 3996",
    "locID": "ChIJ7wJVvrsTKmsRvoN3dMhZLCE",
    "tech": "FTTN",
    "upgrade": "UNKNOWN",
    "gnaf_pid": "GAVIC414868601"
   }
  },
  {
   "type": "Feature",
   "geometry": {
    "type": "Point",
    "coordinates": [
     145.7289045,
     -38.63480926
    ]
   },
   "properties": {
    "name": "3B RAMSEY BOULEVARD INVERLOCH 3996",
    "locID": "ChIJG4X2lLsTKmsR2HvSdij16-g",
    "tech": "FTTN",
    "upgrade": "UNKNOWN",
    "gnaf_pid": "GAVIC414868602"
   }
  },
  {
   "type": "Feature",
   "geometry": {
    "type": "Point",
    "coordinates": [
     145.71681963,
     -38.63944041
    ]
   },
   "properties": {
    "name": "128 RAMSEY BOULEVARD INVERLOCH 3996",
    "locID": "LOC000036080262",
    "tech": "FTTN",
    "upgrade": "NULL_NA",
    "gnaf_pid": "GAVIC414868605"
   }
  },
  {
   "type": "Feature",
   "geometry": {
    "type": "Point",
    "coordinates": [
     145.72863866,
     -38.63211281
    ]
   },
   "properties": {
    "name": "22 REILLY STREET INVERLOCH 3996",
    "locID": "LOC000039678751",
    "tech": "FTTN",
    "upgrade": "FTTP_SA",
    "gnaf_pid": "GAVIC414868614"
   }
  },
  {
   "type": "Feature",
   "geometry": {
    "type": "Point",
    "coordinates": [
     145.72827562,
     -38.63372829
    ]
   },
   "properties": {
    "name": "12 ABECKETT STREET INVERLOCH 3996",
    "locID": "LOC000003581333",
    "tech": "FTTN",
    "upgrade": "NULL_NA",
    "gnaf_pid": "GAVIC414872272"
   }
  },
  {
   "type": "Feature",
   "geometry": {
    "type": "Point",
    "coordinates": [
     145.76001482,
     -38.63303787
    ]
   },
   "properties": {
    "name": "8 HENDERSON COURT INVERLOCH 3996",
    "locID": "ChIJQVHqpAkUKmsRUxWF5vLqSDs",
    "tech": "WIRELESS",
    "upgrade": "UNKNOWN",
    "gnaf_pid": "GAVIC414872315"
   }
  },
  {
   "type": "Feature",
   "geometry": {
    "type": "Point",
    "coordinates": [
     145.76001482,
     -38.63303787
    ]
   },
   "properties": {
    "name": "7 HENDERSON COURT INVERLOCH 3996",
    "locID": "ChIJQVHqpAkUKmsR44lDR2ZXnNY",
    "tech": "WIRELESS",
    "upgrade": "UNKNOWN",
    "gnaf_pid": "GAVIC414872316"
   }
  },
  {
   "type": "Feature",
   "geometry": {
    "type": "Point",
    "coordinates": [
     145.73227853,
     -38.63427455
    ]
   },
   "properties": {
    "name": "22A HOPETOUN STREET INVERLOCH 3996",
    "locID": "ChIJGTCNhL4TKmsRMF2KLB5L2PM",
    "tech": "FTTN",
    "upgrade": "UNKNOWN",
    "gnaf_pid": "GAVIC414872319"
   }
  },
  {
   "type": "Feature",
   "geometry": {
    "type": "Point",
    "coordinates": [
     145.72440366,
     -38.63256301
    ]
   },
   "properties": {
    "name": "3 DIXON STREET INVERLOCH 3996",
    "locID": "LOC000181268576",
    "tech": "FTTN",
    "upgrade": "NULL_NA",
    "gnaf_pid": "GAVIC414875153"
   }
  },
  {
   "type": "Feature",
   "geometry": {
    "type": "Point",
    "coordinates": [
     145.72393055,
     -38.63251448
    ]
   },
   "properties": {
    "name": "9 DIXON STREET INVERLOCH 3996",
    "locID": "ChIJK_BspbATKmsReDCIu5rbUuc",
    "tech": "FTTN",
    "upgrade": "UNKNOWN",
    "gnaf_pid": "GAVIC414875156"
   }
  },
  {
   "type": "Feature",
   "geometry": {
    "type": "Point",
    "coordinates": [
     145.72346166,
     -38.63246638
    ]
   },
   "properties": {
    "name": "15 DIXON STREET INVERLOCH 3996",
    "locID": "LOC000034392384",
    "tech": "FTTN",
    "upgrade": "NULL_NA",
    "gnaf_pid": "GAVIC414875162"
   }
  },
  {
   "type": "Feature",
   "geometry": {
    "type": "Point",
    "coordinates": [
     145.72330945,
     -38.63245073
    ]
   },
   "properties": {
    "name": "17 DIXON STREET INVERLOCH 3996",
    "locID": "LOC000086315854",
    "tech": "FTTN",
    "upgrade": "NULL_NA",
    "gnaf_pid": "GAVIC414875163"
   }
  },
  {
   "type": "Feature",
   "geometry": {
    "type": "Point",
    "coordinates": [
     145.72315285,
     -38.63243466
    ]
   },
   "properties": {
    "name": "19 DIXON STREET INVERLOCH 3996",
    "locID": "LOC000071941084",
    "tech": "FTTN",
    "upgrade": "NULL_NA",
    "gnaf_pid": "GAVIC414875164"
   }
  },
  {
   "type": "Feature",
   "geometry": {
    "type": "Point",
    "coordinates": [
     145.72259453,
     -38.63234878
    ]
   },
   "properties": {
    "name": "25 DIXON STREET INVERLOCH 3996",
    "locID": "ChIJoTqew7ATKmsRwB8BpoyaOfc",
    "tech": "FTTN",
    "upgrade": "UNKNOWN",
    "gnaf_pid": "GAVIC414875167"
   }
  },
  {
   "type": "Feature",
   "geometry": {
    "type": "Point",
    "coordinates": [
     145.72252423,
     -38.63237021
    ]
   },
   "properties": {
    "name": "27 DIXON STREET INVERLOCH 3996",
    "locID": "LOC000181277352",
    "tech": "FTTN",
    "upgrade": "NULL_NA",
    "gnaf_pid": "GAVIC414875168"
   }
  },
  {
   "type": "Feature",
   "geometry": {
    "type": "Point",
    "coordinates": [
     145.69606269,
     -38.64609392
    ]
   },
   "properties": {
    "name": "1 LOHR AVENUE INVERLOCH 3996",
    "locID": "LOC000114721652",
    "tech": "FTTN",
    "upgrade": "NULL_NA",
    "gnaf_pid": "GAVIC414876942"
   }
  },
  {
   "type": "Feature",
   "geometry": {
    "type": "Point",
    "coordinates": [
     145.73030678,
     -38.63460435
    ]
   },
   "properties": {
    "name": "5 THE ESPLANADE INVERLOCH 3996",
    "locID": "LOC000022629252",
    "tech": "FTTN",
    "upgrade": "NULL_NA",
    "gnaf_pid": "GAVIC414877940"
   }
  },
  {
   "type": "Feature",
   "geometry": {
    "type": "Point",
    "coordinates": [
     145.73339723,
     -38.62682736
    ]
   },
   "properties": {
    "name": "1 ROBERTS COURT INVERLOCH 3996",
    "locID": "ChIJqRSZmMETKmsRqpYUYxIdUP4",
    "tech": "FTTN",
    "upgrade": "UNKNOWN",
    "gnaf_pid": "GAVIC414878673"
   }
  },
  {
   "type": "Feature",
   "geometry": {
    "type": "Point",
    "coordinates": [
     145.7121568,
     -38.6358428
    ]
   },
   "properties": {
    "name": "1 BIRD STREET INVERLOCH 3996",
    "locID": "LOC000075328697",
    "tech": "FTTP",
    "upgrade": "NULL_NA",
    "gnaf_pid": "GAVIC414880003"
   }
  },
  {
   "type": "Feature",
   "geometry": {
    "type": "Point",
    "coordinates": [
     145.72146677,
     -38.63774203
    ]
   },
   "properties": {
    "name": "18 VENUS STREET INVERLOCH 3996",
    "locID": "LOC000046631379",
    "tech": "FTTN",
    "upgrade": "NULL_NA",
    "gnaf_pid": "GAVIC414880715"
   }
  },
  {
   "type": "Feature",
   "geometry": {
    "type": "Point",
    "coordinates": [
     145.71135228,
     -38.64458287
    ]
   },
   "properties": {
    "name": "76 SURF PARADE INVERLOCH 3996",
    "locID": "LOC000114858978",
    "tech": "FTTN",
    "upgrade": "NULL_NA",
    "gnaf_pid": "GAVIC414880746"
   }
  },
  {
   "type": "Feature",
   "geometry": {
    "type": "Point",
    "coordinates": [
     145.71575013,
     -38.63528142
    ]
   },
   "properties": {
    "name": "21 CASHIN STREET INVERLOCH 3996",
    "locID": "ChIJA_W8Dq0TKmsR5WAXADem7OE",
    "tech": "FTTN",
    "upgrade": "UNKNOWN",
    "gnaf_pid": "GAVIC414881360"
   }
  },
  {
   "type": "Feature",
   "geometry": {
    "type": "Point",
    "coordinates": [
     145.70967456,
     -38.63637418
    ]
   },
   "properties": {
    "name": "74 TOORAK ROAD INVERLOCH 3996",
    "locID": "LOC000115007675",
    "tech": "FTTP",
    "upgrade": "NULL_NA",
    "gnaf_pid": "GAVIC414882002"
   }
  },
  {
   "type": "Feature",
   "geometry": {
    "type": "Point",
    "coordinates": [
     145.70753327,
     -38.63657081
    ]
   },
   "properties": {
    "name": "87 TOORAK ROAD INVERLOCH 3996",
    "locID": "ChIJ3eehpFYSKmsR3_v6UfGE_wk",
    "tech": "FTTN",
    "upgrade": "UNKNOWN",
    "gnaf_pid": "GAVIC414882012"
   }
  },
  {
   "type": "Feature",
   "geometry": {
    "type": "Point",
    "coordinates": [
     145.70668969,
     -38.63648708
    ]
   },
   "properties": {
    "name": "89 TOORAK ROAD INVERLOCH 3996",
    "locID": "ChIJaQx5wFYSKmsRfB_PeWxFRnc",
    "tech": "FTTN",
    "upgrade": "UNKNOWN",
    "gnaf_pid": "GAVIC414882014"
   }
  },
  {
   "type": "Feature",
   "geometry": {
    "type": "Point",
    "coordinates": [
     145.73648334,
     -38.62998225
    ]
   },
   "properties": {
    "name": "35 PYMBLE AVENUE INVERLOCH 3996",
    "locID": "LOC000112996103",
    "tech": "FTTN",
    "upgrade": "FTTP_SA",
    "gnaf_pid": "GAVIC414882849"
   }
  },
  {
   "type": "Feature",
   "geometry": {
    "type": "Point",
    "coordinates": [
     145.69907183,
     -38.64178145
    ]
   },
   "properties": {
    "name": "190 TOORAK ROAD INVERLOCH 3996",
    "locID": "LOC000045786908",
    "tech": "WIRELESS",
    "upgrade": "NULL_NA",
    "gnaf_pid": "GAVIC414883313"
   }
  },
  {
   "type": "Feature",
   "geometry": {
    "type": "Point",
    "coordinates": [
     145.72798601,
     -38.63424318
    ]
   },
   "properties": {
    "name": "7 ABECKETT STREET INVERLOCH 3996",
    "locID": "LOC000026016952",
    "tech": "FTTN",
    "upgrade": "NULL_NA",
    "gnaf_pid": "GAVIC414883410"
   }
  },
  {
   "type": "Feature",
   "geometry": {
    "type": "Point",
    "coordinates": [
     145.72897643,
     -38.63376323
    ]
   },
   "properties": {
    "name": "6A ABECKETT STREET INVERLOCH 3996",
    "locID": "ChIJsyNd4bsTKmsRF9kzBKufYOs",
    "tech": "FTTN",
    "upgrade": "UNKNOWN",
    "gnaf_pid": "GAVIC414883411"
   }
  },
  {
   "type": "Feature",
   "geometry": {
    "type": "Point",
    "coordinates": [
     145.72636887,
     -38.62679811
    ]
   },
   "properties": {
    "name": "60 SANDY MOUNT AVENUE INVERLOCH 3996",
    "locID": "LOC000114598857",
    "tech": "FTTP",
    "upgrade": "NULL_NA",
    "gnaf_pid": "GAVIC414883951"
   }
  },
  {
   "type": "Feature",
   "geometry": {
    "type": "Point",
    "coordinates": [
     145.73232675,
     -38.63191882
    ]
   },
   "properties": {
    "name": "18 BAYVIEW AVENUE INVERLOCH 3996",
    "locID": "ChIJffpWBL8TKmsRHgy5hcKAWw0",
    "tech": "FTTN",
    "upgrade": "UNKNOWN",
    "gnaf_pid": "GAVIC414883966"
   }
  },
  {
   "type": "Feature",
   "geometry": {
    "type": "Point",
    "coordinates": [
     145.73966524,
     -38.61580155
    ]
   },
   "properties": {
    "name": "14 MURRAYS ROAD INVERLOCH 3996",
    "locID": "ChIJzVVbouETKmsRUNUI0YWG7ds",
    "tech": "WIRELESS",
    "upgrade": "UNKNOWN",
    "gnaf_pid": "GAVIC414884009"
   }
  },
  {
   "type": "Feature",
   "geometry": {
    "type": "Point",
    "coordinates": [
     145.70896994,
     -38.6357613
    ]
   },
   "properties": {
    "name": "6 LEICESTER SQUARE INVERLOCH 3996",
    "locID": "ChIJ5VKN81MSKmsR8vFxSzwdwGI",
    "tech": "FTTN",
    "upgrade": "UNKNOWN",
    "gnaf_pid": "GAVIC414884375"
   }
  },
  {
   "type": "Feature",
   "geometry": {
    "type": "Point",
    "coordinates": [
     145.74241489,
     -38.63442463
    ]
   },
   "properties": {
    "name": "56 THE ESPLANADE INVERLOCH 3996",
    "locID": "ChIJFd1OQJMTKmsRlpu7O-0PrF8",
    "tech": "FTTN",
    "upgrade": "UNKNOWN",
    "gnaf_pid": "GAVIC414884390"
   }
  },
  {
   "type": "Feature",
   "geometry": {
    "type": "Point",
    "coordinates": [
     145.70466825,
     -38.63984631
    ]
   },
   "properties": {
    "name": "12 MARINER PLACE INVERLOCH 3996",
    "locID": "LOC000058329442",
    "tech": "FTTN",
    "upgrade": "NULL_NA",
    "gnaf_pid": "GAVIC419537491"
   }
  },
  {
   "type": "Feature",
   "geometry": {
    "type": "Point",
    "coordinates": [
     145.7284837,
     -38.63285128
    ]
   },
   "properties": {
    "name": "10-12 REILLY STREET INVERLOCH 3996",
    "locID": "LOC000071526351",
    "tech": "FTTN",
    "upgrade": "FTTP_SA",
    "gnaf_pid": "GAVIC419537573"
   }
  },
  {
   "type": "Feature",
   "geometry": {
    "type": "Point",
    "coordinates": [
     145.71071985,
     -38.63352383
    ]
   },
   "properties": {
    "name": "19 ROYAL PARADE INVERLOCH 3996",
    "locID": "LOC000023914148",
    "tech": "FTTN",
    "upgrade": "FTTP_SA",
    "gnaf_pid": "GAVIC419537582"
   }
  },
  {
   "type": "Feature",
   "geometry": {
    "type": "Point",
    "coordinates": [
     145.71072208,
     -38.63383658
    ]
   },
   "properties": {
    "name": "24 ROYAL PARADE INVERLOCH 3996",
    "locID": "LOC000051844208",
    "tech": "FTTP",
    "upgrade": "UNKNOWN",
    "gnaf_pid": "GAVIC419537583"
   }
  },
  {
   "type": "Feature",
   "geometry": {
    "type": "Point",
    "coordinates": [
     145.710227,
     -38.634397
    ]
   },
   "properties": {
    "name": "10 THE MEWS INVERLOCH 3996",
    "locID": "LOC000080692426",
    "tech": "FTTN",
    "upgrade": "FTTP_SA",
    "gnaf_pid": "GAVIC419537584"
   }
  },
  {
   "type": "Feature",
   "geometry": {
    "type": "Point",
    "coordinates": [
     145.73499171,
     -38.63374479
    ]
   },
   "properties": {
    "name": "2B GRANDVIEW GROVE INVERLOCH 3996",
    "locID": "LOC000029299949",
    "tech": "FTTP",
    "upgrade": "NULL_NA",
    "gnaf_pid": "GAVIC419537835"
   }
  },
  {
   "type": "Feature",
   "geometry": {
    "type": "Point",
    "coordinates": [
     145.70634675,
     -38.6394023
    ]
   },
   "properties": {
    "name": "36 MARINER PLACE INVERLOCH 3996",
    "locID": "LOC000066102598",
    "tech": "FTTN",
    "upgrade": "NULL_NA",
    "gnaf_pid": "GAVIC419538003"
   }
  },
  {
   "type": "Feature",
   "geometry": {
    "type": "Point",
    "coordinates": [
     145.70615705,
     -38.64016493
    ]
   },
   "properties": {
    "name": "26 MARINER PLACE INVERLOCH 3996",
    "locID": "LOC000107855490",
    "tech": "FTTN",
    "upgrade": "NULL_NA",
    "gnaf_pid": "GAVIC419538004"
   }
  },
  {
   "type": "Feature",
   "geometry": {
    "type": "Point",
    "coordinates": [
     145.71396155,
     -38.63531176
    ]
   },
   "properties": {
    "name": "16 SHORT STREET INVERLOCH 3996",
    "locID": "LOC000072082916",
    "tech": "FTTP",
    "upgrade": "NULL_NA",
    "gnaf_pid": "GAVIC419538518"
   }
  },
  {
   "type": "Feature",
   "geometry": {
    "type": "Point",
    "coordinates": [
     145.71222923,
     -38.6338274
    ]
   },
   "properties": {
    "name": "31 ROYAL PARADE INVERLOCH 3996",
    "locID": "LOC000070801024",
    "tech": "FTTN",
    "upgrade": "FTTP_SA",
    "gnaf_pid": "GAVIC419538574"
   }
  },
  {
   "type": "Feature",
   "geometry": {
    "type": "Point",
    "coordinates": [
     145.70959258,
     -38.63371674
    ]
   },
   "properties": {
    "name": "16 ROYAL PARADE INVERLOCH 3996",
    "locID": "LOC000060756536",
    "tech": "FTTP",
    "upgrade": "NULL_NA",
    "gnaf_pid": "GAVIC419540070"
   }
  },
  {
   "type": "Feature",
   "geometry": {
    "type": "Point",
    "coordinates": [
     145.72177996,
     -38.62820176
    ]
   },
   "properties": {
    "name": "UNIT 3, 33 POWLETT STREET INVERLOCH 3996",
    "locID": "LOC000025199461",
    "tech": "FTTN",
    "upgrade": "NULL_NA",
    "gnaf_pid": "GAVIC419540180"
   }
  },
  {
   "type": "Feature",
   "geometry": {
    "type": "Point",
    "coordinates": [
     145.74390815,
     -38.63248305
    ]
   },
   "properties": {
    "name": "14 LINDSEY CLOSE INVERLOCH 3996",
    "locID": "LOC000112825033",
    "tech": "FTTP",
    "upgrade": "NULL_NA",
    "gnaf_pid": "GAVIC419666244"
   }
  },
  {
   "type": "Feature",
   "geometry": {
    "type": "Point",
    "coordinates": [
     145.7396475,
     -38.6141196
    ]
   },
   "properties": {
    "name": "45 MURRAYS ROAD INVERLOCH 3996",
    "locID": "LOC000107909377",
    "tech": "WIRELESS",
    "upgrade": "NULL_NA",
    "gnaf_pid": "GAVIC419666245"
   }
  },
  {
   "type": "Feature",
   "geometry": {
    "type": "Point",
    "coordinates": [
     145.7422582,
     -38.63220065
    ]
   },
   "properties": {
    "name": "11 EVAN PLACE INVERLOCH 3996",
    "locID": "LOC000056287080",
    "tech": "FTTN",
    "upgrade": "FTTP_SA",
    "gnaf_pid": "GAVIC419666246"
   }
  },
  {
   "type": "Feature",
   "geometry": {
    "type": "Point",
    "coordinates": [
     145.7152131,
     -38.63728043
    ]
   },
   "properties": {
    "name": "23A TOORAK ROAD INVERLOCH 3996",
    "locID": "LOC000032808094",
    "tech": "FTTP",
    "upgrade": "NULL_NA",
    "gnaf_pid": "GAVIC419668029"
   }
  },
  {
   "type": "Feature",
   "geometry": {
    "type": "Point",
    "coordinates": [
     145.7152131,
     -38.63728043
    ]
   },
   "properties": {
    "name": "23 TOORAK ROAD INVERLOCH 3996",
    "locID": "LOC000032686308",
    "tech": "FTTN",
    "upgrade": "FTTP_SA",
    "gnaf_pid": "GAVIC419668030"
   }
  },
  {
   "type": "Feature",
   "geometry": {
    "type": "Point",
    "coordinates": [
     145.74253166,
     -38.63255085
    ]
   },
   "properties": {
    "name": "4 EVAN PLACE INVERLOCH 3996",
    "locID": "LOC000020503189",
    "tech": "FTTN",
    "upgrade": "FTTP_SA",
    "gnaf_pid": "GAVIC419669828"
   }
  },
  {
   "type": "Feature",
   "geometry": {
    "type": "Point",
    "coordinates": [
     145.73465585,
     -38.6336319
    ]
   },
   "properties": {
    "name": "1 GRANDVIEW GROVE INVERLOCH 3996",
    "locID": "LOC000094133305",
    "tech": "FTTN",
    "upgrade": "FTTP_SA",
    "gnaf_pid": "GAVIC419670706"
   }
  },
  {
   "type": "Feature",
   "geometry": {
    "type": "Point",
    "coordinates": [
     145.72590608,
     -38.63344958
    ]
   },
   "properties": {
    "name": "28 ABECKETT STREET INVERLOCH 3996",
    "locID": "LOC000077964349",
    "tech": "FTTN",
    "upgrade": "FTTP_SA",
    "gnaf_pid": "GAVIC419675492"
   }
  },
  {
   "type": "Feature",
   "geometry": {
    "type": "Point",
    "coordinates": [
     145.70724484,
     -38.64440499
    ]
   },
   "properties": {
    "name": "56 RIPPLE DRIVE INVERLOCH 3996",
    "locID": "LOC000036062779",
    "tech": "FTTN",
    "upgrade": "FTTP_SA",
    "gnaf_pid": "GAVIC419690792"
   }
  },
  {
   "type": "Feature",
   "geometry": {
    "type": "Point",
    "coordinates": [
     145.71533978,
     -38.63358781
    ]
   },
   "properties": {
    "name": "17 CHELSEA SQUARE INVERLOCH 3996",
    "locID": "LOC000019310751",
    "tech": "FTTN",
    "upgrade": "FTTP_SA",
    "gnaf_pid": "GAVIC419708678"
   }
  },
  {
   "type": "Feature",
   "geometry": {
    "type": "Point",
    "coordinates": [
     145.7151444,
     -38.63379876
    ]
   },
   "properties": {
    "name": "14 CHELSEA SQUARE INVERLOCH 3996",
    "locID": "ChIJRQfcY60TKmsR7VxWOU567fs",
    "tech": "FTTN",
    "upgrade": "UNKNOWN",
    "gnaf_pid": "GAVIC419708679"
   }
  },
  {
   "type": "Feature",
   "geometry": {
    "type": "Point",
    "coordinates": [
     145.73044005,
     -38.63467381
    ]
   },
   "properties": {
    "name": "UNIT 1, 7-9 THE ESPLANADE INVERLOCH 3996",
    "locID": "LOC000022603070",
    "tech": "FTTN",
    "upgrade": "NULL_NA",
    "gnaf_pid": "GAVIC419712946"
   }
  },
  {
   "type": "Feature",
   "geometry": {
    "type": "Point",
    "coordinates": [
     145.730591,
     -38.63444329
    ]
   },
   "properties": {
    "name": "UNIT 7, 7-9 THE ESPLANADE INVERLOCH 3996",
    "locID": "LOC000022936922",
    "tech": "FTTN",
    "upgrade": "NULL_NA",
    "gnaf_pid": "GAVIC419712947"
   }
  },
  {
   "type": "Feature",
   "geometry": {
    "type": "Point",
    "coordinates": [
     145.71543163,
     -38.63302025
    ]
   },
   "properties": {
    "name": "13 CHELSEA SQUARE INVERLOCH 3996",
    "locID": "LOC000047531750",
    "tech": "FTTN",
    "upgrade": "FTTP_SA",
    "gnaf_pid": "GAVIC419717496"
   }
  },
  {
   "type": "Feature",
   "geometry": {
    "type": "Point",
    "coordinates": [
     145.72992304,
     -38.63062605
    ]
   },
   "properties": {
    "name": "29 WILLIAMS STREET INVERLOCH 3996",
    "locID": "LOC000096818216",
    "tech": "FTTP",
    "upgrade": "NULL_NA",
    "gnaf_pid": "GAVIC419718008"
   }
  },
  {
   "type": "Feature",
   "geometry": {
    "type": "Point",
    "coordinates": [
     145.70727548,
     -38.64340156
    ]
   },
   "properties": {
    "name": "4 MUNROE COURT INVERLOCH 3996",
    "locID": "LOC000060258352",
    "tech": "FTTN",
    "upgrade": "FTTP_SA",
    "gnaf_pid": "GAVIC419723502"
   }
  },
  {
   "type": "Feature",
   "geometry": {
    "type": "Point",
    "coordinates": [
     145.70766945,
     -38.64317656
    ]
   },
   "properties": {
    "name": "8 MUNROE COURT INVERLOCH 3996",
    "locID": "LOC000066403974",
    "tech": "FTTN",
    "upgrade": "FTTP_SA",
    "gnaf_pid": "GAVIC419723503"
   }
  },
  {
   "type": "Feature",
   "geometry": {
    "type": "Point",
    "coordinates": [
     145.73222801,
     -38.63015118
    ]
   },
   "properties": {
    "name": "15 BRUCE STREET INVERLOCH 3996",
    "locID": "LOC000076984729",
    "tech": "FTTN",
    "upgrade": "FTTP_SA",
    "gnaf_pid": "GAVIC419735840"
   }
  },
  {
   "type": "Feature",
   "geometry": {
    "type": "Point",
    "coordinates": [
     145.73296286,
     -38.63022531
    ]
   },
   "properties": {
    "name": "23 BRUCE STREET INVERLOCH 3996",
    "locID": "LOC000062698909",
    "tech": "FTTN",
    "upgrade": "FTTP_SA",
    "gnaf_pid": "GAVIC419735845"
   }
  },
  {
   "type": "Feature",
   "geometry": {
    "type": "Point",
    "coordinates": [
     145.72600913,
     -38.63538428
    ]
   },
   "properties": {
    "name": "UNIT 5, 7A ST KILDA STREET INVERLOCH 3996",
    "locID": "LOC000125878908",
    "tech": "FTTN",
    "upgrade": "NULL_NA",
    "gnaf_pid": "GAVIC419735885"
   }
  },
  {
   "type": "Feature",
   "geometry": {
    "type": "Point",
    "coordinates": [
     145.7319961,
     -38.62702034
    ]
   },
   "properties": {
    "name": "UNIT 3, 66-68 WILLIAMS STREET INVERLOCH 3996",
    "locID": "LOC000056676792",
    "tech": "FTTN",
    "upgrade": "NULL_NA",
    "gnaf_pid": "GAVIC419735889"
   }
  },
  {
   "type": "Feature",
   "geometry": {
    "type": "Point",
    "coordinates": [
     145.72883179,
     -38.634108
    ]
   },
   "properties": {
    "name": "1 ABECKETT STREET INVERLOCH 3996",
    "locID": "LOC000175061630",
    "tech": "FTTN",
    "upgrade": "NULL_NA",
    "gnaf_pid": "GAVIC419735916"
   }
  },
  {
   "type": "Feature",
   "geometry": {
    "type": "Point",
    "coordinates": [
     145.70719171,
     -38.64137483
    ]
   },
   "properties": {
    "name": "54 VERONICA STREET INVERLOCH 3996",
    "locID": "LOC000058491787",
    "tech": "FTTN",
    "upgrade": "NULL_NA",
    "gnaf_pid": "GAVIC419735932"
   }
  },
  {
   "type": "Feature",
   "geometry": {
    "type": "Point",
    "coordinates": [
     145.70804679,
     -38.64570381
    ]
   },
   "properties": {
    "name": "106 SURF PARADE INVERLOCH 3996",
    "locID": "LOC000100408591",
    "tech": "FTTN",
    "upgrade": "FTTP_SA",
    "gnaf_pid": "GAVIC419735951"
   }
  },
  {
   "type": "Feature",
   "geometry": {
    "type": "Point",
    "coordinates": [
     145.70860431,
     -38.64566765
    ]
   },
   "properties": {
    "name": "102 SURF PARADE INVERLOCH 3996",
    "locID": "LOC000033721817",
    "tech": "FTTN",
    "upgrade": "FTTP_SA",
    "gnaf_pid": "GAVIC419735954"
   }
  },
  {
   "type": "Feature",
   "geometry": {
    "type": "Point",
    "coordinates": [
     145.70897225,
     -38.64563623
    ]
   },
   "properties": {
    "name": "98 SURF PARADE INVERLOCH 3996",
    "locID": "LOC000071840045",
    "tech": "FTTN",
    "upgrade": "FTTP_SA",
    "gnaf_pid": "GAVIC419735958"
   }
  },
  {
   "type": "Feature",
   "geometry": {
    "type": "Point",
    "coordinates": [
     145.7106003,
     -38.64290021
    ]
   },
   "properties": {
    "name": "21 VERONICA STREET INVERLOCH 3996",
    "locID": "LOC000011118559",
    "tech": "FTTN",
    "upgrade": "NULL_NA",
    "gnaf_pid": "GAVIC419735965"
   }
  },
  {
   "type": "Feature",
   "geometry": {
    "type": "Point",
    "coordinates": [
     145.71040558,
     -38.64288055
    ]
   },
   "properties": {
    "name": "23 VERONICA STREET INVERLOCH 3996",
    "locID": "LOC000020365236",
    "tech": "FTTN",
    "upgrade": "NULL_NA",
    "gnaf_pid": "GAVIC419735966"
   }
  },
  {
   "type": "Feature",
   "geometry": {
    "type": "Point",
    "coordinates": [
     145.72499199,
     -38.63526439
    ]
   },
   "properties": {
    "name": "14 SANDY MOUNT AVENUE INVERLOCH 3996",
    "locID": "LOC000082662487",
    "tech": "FTTN",
    "upgrade": "NULL_NA",
    "gnaf_pid": "GAVIC419736047"
   }
  },
  {
   "type": "Feature",
   "geometry": {
    "type": "Point",
    "coordinates": [
     145.72588952,
     -38.63489755
    ]
   },
   "properties": {
    "name": "12 SCARBOROUGH STREET INVERLOCH 3996",
    "locID": "LOC000039479782",
    "tech": "FTTN",
    "upgrade": "NULL_NA",
    "gnaf_pid": "GAVIC419736050"
   }
  },
  {
   "type": "Feature",
   "geometry": {
    "type": "Point",
    "coordinates": [
     145.73696145,
     -38.62835374
    ]
   },
   "properties": {
    "name": "19 INVERLOCH PARADE INVERLOCH 3996",
    "locID": "LOC000103229606",
    "tech": "FTTN",
    "upgrade": "FTTP_SA",
    "gnaf_pid": "GAVIC419736206"
   }
  },
  {
   "type": "Feature",
   "geometry": {
    "type": "Point",
    "coordinates": [
     145.73730571,
     -38.62838866
    ]
   },
   "properties": {
    "name": "23 INVERLOCH PARADE INVERLOCH 3996",
    "locID": "LOC000044366900",
    "tech": "FTTN",
    "upgrade": "FTTP_SA",
    "gnaf_pid": "GAVIC419736208"
   }
  },
  {
   "type": "Feature",
   "geometry": {
    "type": "Point",
    "coordinates": [
     145.73436365,
     -38.631835
    ]
   },
   "properties": {
    "name": "67 BAYVIEW AVENUE INVERLOCH 3996",
    "locID": "LOC000099620096",
    "tech": "FTTN",
    "upgrade": "FTTP_SA",
    "gnaf_pid": "GAVIC419736215"
   }
  },
  {
   "type": "Feature",
   "geometry": {
    "type": "Point",
    "coordinates": [
     145.73855733,
     -38.63136283
    ]
   },
   "properties": {
    "name": "18 BEILBY AVENUE INVERLOCH 3996",
    "locID": "LOC000066287065",
    "tech": "FTTN",
    "upgrade": "FTTP_SA",
    "gnaf_pid": "GAVIC419736239"
   }
  },
  {
   "type": "Feature",
   "geometry": {
    "type": "Point",
    "coordinates": [
     145.71057413,
     -38.63477448
    ]
   },
   "properties": {
    "name": "83 FLORIDA AVENUE INVERLOCH 3996",
    "locID": "LOC000088734067",
    "tech": "FTTN",
    "upgrade": "FTTP_SA",
    "gnaf_pid": "GAVIC419736268"
   }
  },
  {
   "type": "Feature",
   "geometry": {
    "type": "Point",
    "coordinates": [
     145.72168241,
     -38.63481275
    ]
   },
   "properties": {
    "name": "20 FREDA STREET INVERLOCH 3996",
    "locID": "LOC000076273084",
    "tech": "FTTN",
    "upgrade": "NULL_NA",
    "gnaf_pid": "GAVIC419736315"
   }
  },
  {
   "type": "Feature",
   "geometry": {
    "type": "Point",
    "coordinates": [
     145.70853116,
     -38.63657865
    ]
   },
   "properties": {
    "name": "81 TOORAK ROAD INVERLOCH 3996",
    "locID": "LOC000100354109",
    "tech": "FTTN",
    "upgrade": "NULL_NA",
    "gnaf_pid": "GAVIC419736320"
   }
  },
  {
   "type": "Feature",
   "geometry": {
    "type": "Point",
    "coordinates": [
     145.70956445,
     -38.63668407
    ]
   },
   "properties": {
    "name": "69 TOORAK ROAD INVERLOCH 3996",
    "locID": "LOC000049029944",
    "tech": "FTTN",
    "upgrade": "NULL_NA",
    "gnaf_pid": "GAVIC419736322"
   }
  },
  {
   "type": "Feature",
   "geometry": {
    "type": "Point",
    "coordinates": [
     145.69840951,
     -38.6192397
    ]
   },
   "properties": {
    "name": "20 PEARSALLS ROAD INVERLOCH 3996",
    "locID": "LOC000069648947",
    "tech": "WIRELESS",
    "upgrade": "NULL_NA",
    "gnaf_pid": "GAVIC419736333"
   }
  },
  {
   "type": "Feature",
   "geometry": {
    "type": "Point",
    "coordinates": [
     145.71522426,
     -38.63452681
    ]
   },
   "properties": {
    "name": "47 ROYAL PARADE INVERLOCH 3996",
    "locID": "LOC000108022885",
    "tech": "FTTN",
    "upgrade": "FTTP_SA",
    "gnaf_pid": "GAVIC419736339"
   }
  },
  {
   "type": "Feature",
   "geometry": {
    "type": "Point",
    "coordinates": [
     145.71491524,
     -38.63392148
    ]
   },
   "properties": {
    "name": "4 CHELSEA SQUARE INVERLOCH 3996",
    "locID": "LOC000015176602",
    "tech": "FTTN",
    "upgrade": "FTTP_SA",
    "gnaf_pid": "GAVIC419736345"
   }
  },
  {
   "type": "Feature",
   "geometry": {
    "type": "Point",
    "coordinates": [
     145.72332533,
     -38.6354184
    ]
   },
   "properties": {
    "name": "19 THE CRESCENT INVERLOCH 3996",
    "locID": "LOC000035885703",
    "tech": "FTTN",
    "upgrade": "NULL_NA",
    "gnaf_pid": "GAVIC419736478"
   }
  },
  {
   "type": "Feature",
   "geometry": {
    "type": "Point",
    "coordinates": [
     145.73323725,
     -38.62592981
    ]
   },
   "properties": {
    "name": "1 HAMILTON STREET INVERLOCH 3996",
    "locID": "LOC000039616829",
    "tech": "FTTN",
    "upgrade": "FTTP_SA",
    "gnaf_pid": "GAVIC419736600"
   }
  },
  {
   "type": "Feature",
   "geometry": {
    "type": "Point",
    "coordinates": [
     145.72919525,
     -38.6337861
    ]
   },
   "properties": {
    "name": "2 ABECKETT STREET INVERLOCH 3996",
    "locID": "LOC000085760067",
    "tech": "FTTN",
    "upgrade": "FTTP_SA",
    "gnaf_pid": "GAVIC419736781"
   }
  },
  {
   "type": "Feature",
   "geometry": {
    "type": "Point",
    "coordinates": [
     145.73666326,
     -38.63304875
    ]
   },
   "properties": {
    "name": "UNIT 3, 2-4 PYMBLE AVENUE INVERLOCH 3996",
    "locID": "LOC000022993551",
    "tech": "FTTN",
    "upgrade": "NULL_NA",
    "gnaf_pid": "GAVIC419736790"
   }
  },
  {
   "type": "Feature",
   "geometry": {
    "type": "Point",
    "coordinates": [
     145.72590099,
     -38.63426771
    ]
   },
   "properties": {
    "name": "7A SCARBOROUGH STREET INVERLOCH 3996",
    "locID": "LOC000066466064",
    "tech": "FTTN",
    "upgrade": "NULL_NA",
    "gnaf_pid": "GAVIC419736793"
   }
  },
  {
   "type": "Feature",
   "geometry": {
    "type": "Point",
    "coordinates": [
     145.72587046,
     -38.6344142
    ]
   },
   "properties": {
    "name": "7 SCARBOROUGH STREET INVERLOCH 3996",
    "locID": "LOC000066153450",
    "tech": "FTTN",
    "upgrade": "NULL_NA",
    "gnaf_pid": "GAVIC419736795"
   }
  },
  {
   "type": "Feature",
   "geometry": {
    "type": "Point",
    "coordinates": [
     145.72336827,
     -38.6385838
    ]
   },
   "properties": {
    "name": "5 OCEAN VIEW COURT INVERLOCH 3996",
    "locID": "LOC000053032358",
    "tech": "FTTN",
    "upgrade": "NULL_NA",
    "gnaf_pid": "GAVIC419736813"
   }
  },
  {
   "type": "Feature",
   "geometry": {
    "type": "Point",
    "coordinates": [
     145.72724318,
     -38.63581479
    ]
   },
   "properties": {
    "name": "17 ST KILDA STREET INVERLOCH 3996",
    "locID": "ChIJ55J7_boTKmsR6KkJGHuRU-o",
    "tech": "FTTP",
    "upgrade": "UNKNOWN",
    "gnaf_pid": "GAVIC419736831"
   }
  },
  {
   "type": "Feature",
   "geometry": {
    "type": "Point",
    "coordinates": [
     145.72579074,
     -38.63037042
    ]
   },
   "properties": {
    "name": "26 SANDY MOUNT AVENUE INVERLOCH 3996",
    "locID": "LOC000125906028",
    "tech": "FTTN",
    "upgrade": "FTTP_SA",
    "gnaf_pid": "GAVIC419736842"
   }
  },
  {
   "type": "Feature",
   "geometry": {
    "type": "Point",
    "coordinates": [
     145.72650038,
     -38.6300349
    ]
   },
   "properties": {
    "name": "2 BELLS COURT INVERLOCH 3996",
    "locID": "LOC000009768982",
    "tech": "FTTP",
    "upgrade": "NULL_NA",
    "gnaf_pid": "GAVIC419736849"
   }
  },
  {
   "type": "Feature",
   "geometry": {
    "type": "Point",
    "coordinates": [
     145.72588573,
     -38.62979263
    ]
   },
   "properties": {
    "name": "32 SANDY MOUNT AVENUE INVERLOCH 3996",
    "locID": "LOC000071608763",
    "tech": "FTTN",
    "upgrade": "FTTP_SA",
    "gnaf_pid": "GAVIC419736851"
   }
  },
  {
   "type": "Feature",
   "geometry": {
    "type": "Point",
    "coordinates": [
     145.72694764,
     -38.63644895
    ]
   },
   "properties": {
    "name": "UNIT 1, 18 ST KILDA STREET INVERLOCH 3996",
    "locID": "LOC000114389864",
    "tech": "FTTN",
    "upgrade": "NULL_NA",
    "gnaf_pid": "GAVIC419737148"
   }
  },