{
 "type": "FeatureCollection",
 "generated": "2024-07-06T04:27:14.286881",
 "suburb": "KARABEAL",
 "features": [
  {
   "type": "Feature",
   "geometry": {
    "type": "Point",
    "coordinates": [
     142.24117066,
     -37.59710525
    ]
   },
   "properties": {
    "name": "101 R W MCINTYRES ROAD KARABEAL 3294",
    "locID": "LOC000002812365",
    "tech": "WIRELESS",
    "upgrade": "NULL_NA",
    "gnaf_pid": "GAVIC421996434",
    "tech_change_status": "Not Planned",
    "program_type": "Fixed Wireless and Satellite Upgrade Program",
    "target_eligibility_quarter": "NA"
   }
  },
  {
   "type": "Feature",
   "geometry": {
    "type": "Point",
    "coordinates": [
     142.24119192,
     -37.59180464
    ]
   },
   "properties": {
    "name": "45 R W MCINTYRES ROAD KARABEAL 3294",
    "locID": "LOC000045383815",
    "tech": "WIRELESS",
    "upgrade": "NULL_NA",
    "gnaf_pid": "GAVIC421996435",
    "tech_change_status": "Not Planned",
    "program_type": "Fixed Wireless and Satellite Upgrade Program",
    "target_eligibility_quarter": "NA"
   }
  },
  {
   "type": "Feature",
   "geometry": {
    "type": "Point",
    "coordinates": [
     142.14912448,
     -37.61843476
    ]
   },
   "properties": {
    "name": "153 BREWIS ROAD KARABEAL 3294",
    "locID": "LOC000062411765",
    "tech": "WIRELESS",
    "upgrade": "NULL_NA",
    "gnaf_pid": "GAVIC422279198",
    "tech_change_status": "Not Planned",
    "program_type": "Fixed Wireless and Satellite Upgrade Program",
    "target_eligibility_quarter": "NA"
   }
  },
  {
   "type": "Feature",
   "geometry": {
    "type": "Point",
    "coordinates": [
     142.13730123,
     -37.61883768
    ]
   },
   "properties": {
    "name": "50 BREWIS ROAD KARABEAL 3294",
    "locID": "LOC000050555345",
    "tech": "WIRELESS",
    "upgrade": "NULL_NA",
    "gnaf_pid": "GAVIC422279199",
    "tech_change_status": "Not Planned",
    "program_type": "Fixed Wireless and Satellite Upgrade Program",
    "target_eligibility_quarter": "NA"
   }
  },
  {
   "type": "Feature",
   "geometry": {
    "type": "Point",
    "coordinates": [
     142.19107066,
     -37.58783446
    ]
   },
   "properties": {
    "name": "1319 DUNKELD-CAVENDISH ROAD KARABEAL 3294",
    "locID": "LOC000109830899",
    "tech": "WIRELESS",
    "upgrade": "NULL_NA",
    "gnaf_pid": "GAVIC422288333",
    "tech_change_status": "Not Planned",
    "program_type": "Fixed Wireless and Satellite Upgrade Program",
    "target_eligibility_quarter": "NA"
   }
  },
  {
   "type": "Feature",
   "geometry": {
    "type": "Point",
    "coordinates": [
     142.18257644,
     -37.58070929
    ]
   },
   "properties": {
    "name": "1430 DUNKELD-CAVENDISH ROAD KARABEAL 3294",
    "locID": "LOC000124641358",
    "tech": "SATELLITE",
    "upgrade": "NULL_NA",
    "gnaf_pid": "GAVIC422288334",
    "tech_change_status": "Not Planned"
   }
  },
  {
   "type": "Feature",
   "geometry": {
    "type": "Point",
    "coordinates": [
     142.22380741,
     -37.58747179
    ]
   },
   "properties": {
    "name": "279 H HAYS ROAD KARABEAL 3294",
    "locID": "LOC000073759203",
    "tech": "SATELLITE",
    "upgrade": "NULL_NA",
    "gnaf_pid": "GAVIC422295744",
    "tech_change_status": "Not Planned"
   }
  },
  {
   "type": "Feature",
   "geometry": {
    "type": "Point",
    "coordinates": [
     142.23143877,
     -37.58817932
    ]
   },
   "properties": {
    "name": "1117 MCINTYRES CROSSING ROAD KARABEAL 3294",
    "locID": "LOC000051715760",
    "tech": "WIRELESS",
    "upgrade": "NULL_NA",
    "gnaf_pid": "GAVIC422308565",
    "tech_change_status": "Not Planned",
    "program_type": "Fixed Wireless and Satellite Upgrade Program",
    "target_eligibility_quarter": "NA"
   }
  },
  {
   "type": "Feature",
   "geometry": {
    "type": "Point",
    "coordinates": [
     142.23406817,
     -37.58746869
    ]
   },
   "properties": {
    "name": "1143 MCINTYRES CROSSING ROAD KARABEAL 3294",
    "locID": "LOC000096088869",
    "tech": "SATELLITE",
    "upgrade": "NULL_NA",
    "gnaf_pid": "GAVIC422308566",
    "tech_change_status": "Not Planned"
   }
  },
  {
   "type": "Feature",
   "geometry": {
    "type": "Point",
    "coordinates": [
     142.2345434,
     -37.58746507
    ]
   },
   "properties": {
    "name": "1147 MCINTYRES CROSSING ROAD KARABEAL 3294",
    "locID": "LOC000142912679",
    "tech": "SATELLITE",
    "upgrade": "NULL_NA",
    "gnaf_pid": "GAVIC422308567",
    "tech_change_status": "Not Planned"
   }
  },
  {
   "type": "Feature",
   "geometry": {
    "type": "Point",
    "coordinates": [
     142.23101327,
     -37.59947706
    ]
   },
   "properties": {
    "name": "993 MCINTYRES CROSSING ROAD KARABEAL 3294",
    "locID": "LOC000088822816",
    "tech": "WIRELESS",
    "upgrade": "NULL_NA",
    "gnaf_pid": "GAVIC422308568",
    "tech_change_status": "Not Planned",
    "program_type": "Fixed Wireless and Satellite Upgrade Program",
    "target_eligibility_quarter": "NA"
   }
  },
  {
   "type": "Feature",
   "geometry": {
    "type": "Point",
    "coordinates": [
     142.2127874,
     -37.57421035
    ]
   },
   "properties": {
    "name": "149 R GORDONS ROAD KARABEAL 3294",
    "locID": "LOC000031054169",
    "tech": "SATELLITE",
    "upgrade": "NULL_NA",
    "gnaf_pid": "GAVIC422318549",
    "tech_change_status": "Not Planned"
   }
  },
  {
   "type": "Feature",
   "geometry": {
    "type": "Point",
    "coordinates": [
     142.24109294,
     -37.59253062
    ]
   },
   "properties": {
    "name": "53 R W MCINTYRES ROAD KARABEAL 3294",
    "locID": "LOC000031922233",
    "tech": "WIRELESS",
    "upgrade": "NULL_NA",
    "gnaf_pid": "GAVIC422318550",
    "tech_change_status": "Not Planned",
    "program_type": "Fixed Wireless and Satellite Upgrade Program",
    "target_eligibility_quarter": "NA"
   }
  },
  {
   "type": "Feature",
   "geometry": {
    "type": "Point",
    "coordinates": [
     142.1318085,
     -37.61228391
    ]
   },
   "properties": {
    "name": "627 SKENE WOOLSHED ROAD KARABEAL 3294",
    "locID": "LOC000057124330",
    "tech": "WIRELESS",
    "upgrade": "NULL_NA",
    "gnaf_pid": "GAVIC422323963",
    "tech_change_status": "Not Planned",
    "program_type": "Fixed Wireless and Satellite Upgrade Program",
    "target_eligibility_quarter": "NA"
   }
  }
 ]
}