{
 "type": "FeatureCollection",
 "generated": "2023-10-24T10:53:24.104729",
 "suburb": "KARABEAL",
 "features": [
  {
   "type": "Feature",
   "geometry": {
    "type": "Point",
    "coordinates": [
     142.24117066,
     -37.59710525
    ]
   },
   "properties": {
    "name": "101 R W MCINTYRES ROAD KARABEAL 3294",
    "locID": "LOC000002812365",
    "tech": "WIRELESS",
    "upgrade": "NULL_NA",
    "gnaf_pid": "GAVIC421996434"
   }
  },
  {
   "type": "Feature",
   "geometry": {
    "type": "Point",
    "coordinates": [
     142.24119192,
     -37.59180464
    ]
   },
   "properties": {
    "name": "45 R W MCINTYRES ROAD KARABEAL 3294",
    "locID": "LOC000045383815",
    "tech": "WIRELESS",
    "upgrade": "NULL_NA",
    "gnaf_pid": "GAVIC421996435"
   }
  },
  {
   "type": "Feature",
   "geometry": {
    "type": "Point",
    "coordinates": [
     142.14912448,
     -37.61843476
    ]
   },
   "properties": {
    "name": "153 BREWIS ROAD KARABEAL 3294",
    "locID": "LOC000062411765",
    "tech": "WIRELESS",
    "upgrade": "NULL_NA",
    "gnaf_pid": "GAVIC422279198"
   }
  },
  {
   "type": "Feature",
   "geometry": {
    "type": "Point",
    "coordinates": [
     142.13730123,
     -37.61883768
    ]
   },
   "properties": {
    "name": "50 BREWIS ROAD KARABEAL 3294",
    "locID": "LOC000050555345",
    "tech": "WIRELESS",
    "upgrade": "NULL_NA",
    "gnaf_pid": "GAVIC422279199"
   }
  },
  {
   "type": "Feature",
   "geometry": {
    "type": "Point",
    "coordinates": [
     142.19107066,
     -37.58783446
    ]
   },
   "properties": {
    "name": "1319 DUNKELD-CAVENDISH ROAD KARABEAL 3294",
    "locID": "LOC000109830899",
    "tech": "WIRELESS",
    "upgrade": "NULL_NA",
    "gnaf_pid": "GAVIC422288333"
   }
  },
  {
   "type": "Feature",
   "geometry": {
    "type": "Point",
    "coordinates": [
     142.18257644,
     -37.58070929
    ]
   },
   "properties": {
    "name": "1430 DUNKELD-CAVENDISH ROAD KARABEAL 3294",
    "locID": "LOC000124641358",
    "tech": "SATELLITE",
    "upgrade": "NULL_NA",
    "gnaf_pid": "GAVIC422288334"
   }
  },
  {
   "type": "Feature",
   "geometry": {
    "type": "Point",
    "coordinates": [
     142.22380741,
     -37.58747179
    ]
   },
   "properties": {
    "name": "279 H HAYS ROAD KARABEAL 3294",
    "locID": "LOC000073759203",
    "tech": "SATELLITE",
    "upgrade": "NULL_NA",
    "gnaf_pid": "GAVIC422295744"
   }
  },
  {
   "type": "Feature",
   "geometry": {
    "type": "Point",
    "coordinates": [
     142.23143877,
     -37.58817932
    ]
   },
   "properties": {
    "name": "1117 MCINTYRES CROSSING ROAD KARABEAL 3294",
    "locID": "LOC000051715760",
    "tech": "WIRELESS",
    "upgrade": "NULL_NA",
    "gnaf_pid": "GAVIC422308565"
   }
  },
  {
   "type": "Feature",
   "geometry": {
    "type": "Point",
    "coordinates": [
     142.23406817,
     -37.58746869
    ]
   },
   "properties": {
    "name": "1143 MCINTYRES CROSSING ROAD KARABEAL 3294",
    "locID": "LOC000096088869",
    "tech": "SATELLITE",
    "upgrade": "NULL_NA",
    "gnaf_pid": "GAVIC422308566"
   }
  },
  {
   "type": "Feature",
   "geometry": {
    "type": "Point",
    "coordinates": [
     142.2345434,
     -37.58746507
    ]
   },
   "properties": {
    "name": "1147 MCINTYRES CROSSING ROAD KARABEAL 3294",
    "locID": "LOC000142912679",
    "tech": "SATELLITE",
    "upgrade": "NULL_NA",
    "gnaf_pid": "GAVIC422308567"
   }
  },
  {
   "type": "Feature",
   "geometry": {
    "type": "Point",
    "coordinates": [
     142.23101327,
     -37.59947706
    ]
   },
   "properties": {
    "name": "993 MCINTYRES CROSSING ROAD KARABEAL 3294",
    "locID": "LOC000088822816",
    "tech": "WIRELESS",
    "upgrade": "NULL_NA",
    "gnaf_pid": "GAVIC422308568"
   }
  },
  {
   "type": "Feature",
   "geometry": {
    "type": "Point",
    "coordinates": [
     142.2127874,
     -37.57421035
    ]
   },
   "properties": {
    "name": "149 R GORDONS ROAD KARABEAL 3294",
    "locID": "LOC000031054169",
    "tech": "SATELLITE",
    "upgrade": "NULL_NA",
    "gnaf_pid": "GAVIC422318549"
   }
  },
  {
   "type": "Feature",
   "geometry": {
    "type": "Point",
    "coordinates": [
     142.24109294,
     -37.59253062
    ]
   },
   "properties": {
    "name": "53 R W MCINTYRES ROAD KARABEAL 3294",
    "locID": "LOC000031922233",
    "tech": "WIRELESS",
    "upgrade": "NULL_NA",
    "gnaf_pid": "GAVIC422318550"
   }
  },
  {
   "type": "Feature",
   "geometry": {
    "type": "Point",
    "coordinates": [
     142.1318085,
     -37.61228391
    ]
   },
   "properties": {
    "name": "627 SKENE WOOLSHED ROAD KARABEAL 3294",
    "locID": "LOC000057124330",
    "tech": "WIRELESS",
    "upgrade": "NULL_NA",
    "gnaf_pid": "GAVIC422323963"
   }
  },
  {
   "type": "Feature",
   "geometry": {
    "type": "Point",
    "coordinates": [
     142.16201921,
     -37.56987471
    ]
   },
   "properties": {
    "name": "23 MCNAUGHTONS ROAD KARABEAL 3294",
    "locID": "ChIJSyk5KNGvzWoRWgySqodsef0",
    "tech": "SATELLITE",
    "upgrade": "UNKNOWN",
    "gnaf_pid": "GAVIC424969280"
   }
  },
  {
   "type": "Feature",
   "geometry": {
    "type": "Point",
    "coordinates": [
     142.19041657,
     -37.60318331
    ]
   },
   "properties": {
    "name": "189 OLD ADELAIDE ROAD KARABEAL 3294",
    "locID": "ChIJK76DEYqvzWoRG5wFBzafeeM",
    "tech": "SATELLITE",
    "upgrade": "UNKNOWN",
    "gnaf_pid": "GAVIC424970110"
   }
  },
  {
   "type": "Feature",
   "geometry": {
    "type": "Point",
    "coordinates": [
     142.16725092,
     -37.6032525
    ]
   },
   "properties": {
    "name": "395 OLD ADELAIDE ROAD KARABEAL 3294",
    "locID": "ChIJp9YVtaOvzWoRYZd9dWUNuWY",
    "tech": "SATELLITE",
    "upgrade": "UNKNOWN",
    "gnaf_pid": "GAVIC424970111"
   }
  },
  {
   "type": "Feature",
   "geometry": {
    "type": "Point",
    "coordinates": [
     142.16681937,
     -37.60318466
    ]
   },
   "properties": {
    "name": "397 OLD ADELAIDE ROAD KARABEAL 3294",
    "locID": "ChIJA5YpyKOvzWoRmsLi90qn11Y",
    "tech": "SATELLITE",
    "upgrade": "UNKNOWN",
    "gnaf_pid": "GAVIC424970112"
   }
  },
  {
   "type": "Feature",
   "geometry": {
    "type": "Point",
    "coordinates": [
     142.21290225,
     -37.58565839
    ]
   },
   "properties": {
    "name": "21 R GORDONS ROAD KARABEAL 3294",
    "locID": "ChIJf2WFkbW6zWoRlu6cCWTNCi4",
    "tech": "SATELLITE",
    "upgrade": "UNKNOWN",
    "gnaf_pid": "GAVIC424970755"
   }
  },
  {
   "type": "Feature",
   "geometry": {
    "type": "Point",
    "coordinates": [
     142.15844001,
     -37.633191
    ]
   },
   "properties": {
    "name": "2545 VICTORIA POINT ROAD KARABEAL 3294",
    "locID": "ChIJo2HYNjuvzWoRW4xYde-zl2M",
    "tech": "SATELLITE",
    "upgrade": "UNKNOWN",
    "gnaf_pid": "GAVIC424973302"
   }
  },
  {
   "type": "Feature",
   "geometry": {
    "type": "Point",
    "coordinates": [
     142.22401505,
     -37.58786901
    ]
   },
   "properties": {
    "name": "276 H HAYS ROAD KARABEAL 3294",
    "locID": "ChIJcZ42wtG6zWoRBd9KQuQyJYM",
    "tech": "WIRELESS",
    "upgrade": "UNKNOWN",
    "gnaf_pid": "GAVIC719437252"
   }
  },
  {
   "type": "Feature",
   "geometry": {
    "type": "Point",
    "coordinates": [
     142.14837259,
     -37.58744856
    ]
   },
   "properties": {
    "name": "186 E WALTERS ROAD KARABEAL 3294",
    "locID": "ChIJQwm8TkuuzWoRz9U8KkxhBs0",
    "tech": "SATELLITE",
    "upgrade": "UNKNOWN",
    "gnaf_pid": "GAVIC720761154"
   }
  }
 ]
}