{
 "type": "FeatureCollection",
 "generated": "2024-07-24T22:41:48.827335",
 "suburb": "KARYRIE",
 "features": [
  {
   "type": "Feature",
   "geometry": {
    "type": "Point",
    "coordinates": [
     142.89529754,
     -35.93896755
    ]
   },
   "properties": {
    "name": "909 KARYRIE STATION ROAD KARYRIE 3483",
    "locID": "LOC000032675000",
    "tech": "WIRELESS",
    "upgrade": "NULL_NA",
    "gnaf_pid": "GAVIC422026505",
    "tech_change_status": "Not Planned",
    "program_type": "Fixed Wireless and Satellite Upgrade Program",
    "target_eligibility_quarter": "Dec 2024"
   }
  },
  {
   "type": "Feature",
   "geometry": {
    "type": "Point",
    "coordinates": [
     142.86804832,
     -35.9061439
    ]
   },
   "properties": {
    "name": "1 WEIR ROAD KARYRIE 3483",
    "locID": "LOC000115785264",
    "tech": "WIRELESS",
    "upgrade": "NULL_NA",
    "gnaf_pid": "GAVIC422026506",
    "tech_change_status": "Not Planned",
    "program_type": "Fixed Wireless and Satellite Upgrade Program",
    "target_eligibility_quarter": "Dec 2024"
   }
  },
  {
   "type": "Feature",
   "geometry": {
    "type": "Point",
    "coordinates": [
     142.83646504,
     -35.96416727
    ]
   },
   "properties": {
    "name": "118 BARBERS ROAD KARYRIE 3483",
    "locID": "LOC000071464211",
    "tech": "WIRELESS",
    "upgrade": "NULL_NA",
    "gnaf_pid": "GAVIC422031743",
    "tech_change_status": "Not Planned",
    "program_type": "Fixed Wireless and Satellite Upgrade Program",
    "target_eligibility_quarter": "Dec 2024"
   }
  },
  {
   "type": "Feature",
   "geometry": {
    "type": "Point",
    "coordinates": [
     142.8416789,
     -35.94513871
    ]
   },
   "properties": {
    "name": "347 BARBERS ROAD KARYRIE 3483",
    "locID": "LOC000109208888",
    "tech": "WIRELESS",
    "upgrade": "NULL_NA",
    "gnaf_pid": "GAVIC422125801",
    "tech_change_status": "Not Planned",
    "program_type": "Fixed Wireless and Satellite Upgrade Program",
    "target_eligibility_quarter": "Dec 2024"
   }
  },
  {
   "type": "Feature",
   "geometry": {
    "type": "Point",
    "coordinates": [
     142.89212312,
     -35.92375036
    ]
   },
   "properties": {
    "name": "247 OPIE ROAD KARYRIE 3483",
    "locID": "LOC000014372754",
    "tech": "WIRELESS",
    "upgrade": "NULL_NA",
    "gnaf_pid": "GAVIC422179280",
    "tech_change_status": "Not Planned",
    "program_type": "Fixed Wireless and Satellite Upgrade Program",
    "target_eligibility_quarter": "Dec 2024"
   }
  },
  {
   "type": "Feature",
   "geometry": {
    "type": "Point",
    "coordinates": [
     142.84635285,
     -35.92637067
    ]
   },
   "properties": {
    "name": "110 WOODLANDS ROAD KARYRIE 3483",
    "locID": "LOC000058638761",
    "tech": "WIRELESS",
    "upgrade": "NULL_NA",
    "gnaf_pid": "GAVIC422204956",
    "tech_change_status": "Not Planned",
    "program_type": "Fixed Wireless and Satellite Upgrade Program",
    "target_eligibility_quarter": "Dec 2024"
   }
  },
  {
   "type": "Feature",
   "geometry": {
    "type": "Point",
    "coordinates": [
     142.83081755,
     -35.9337302
    ]
   },
   "properties": {
    "name": "319 KARYRIE STATION ROAD KARYRIE 3483",
    "locID": "LOC000004247354",
    "tech": "WIRELESS",
    "upgrade": "NULL_NA",
    "gnaf_pid": "GAVIC423507564",
    "tech_change_status": "Not Planned",
    "program_type": "Fixed Wireless and Satellite Upgrade Program",
    "target_eligibility_quarter": "Dec 2024"
   }
  },
  {
   "type": "Feature",
   "geometry": {
    "type": "Point",
    "coordinates": [
     142.84307749,
     -35.97517261
    ]
   },
   "properties": {
    "name": "676 SUNRAYSIA HIGHWAY KARYRIE 3483",
    "locID": "LOC000003630331",
    "tech": "WIRELESS",
    "upgrade": "NULL_NA",
    "gnaf_pid": "GAVIC423511776",
    "tech_change_status": "Not Planned",
    "program_type": "Fixed Wireless and Satellite Upgrade Program",
    "target_eligibility_quarter": "Dec 2024"
   }
  },
  {
   "type": "Feature",
   "geometry": {
    "type": "Point",
    "coordinates": [
     142.83669465,
     -35.97405268
    ]
   },
   "properties": {
    "name": "736 SUNRAYSIA HIGHWAY KARYRIE 3483",
    "locID": "LOC000025940766",
    "tech": "WIRELESS",
    "upgrade": "NULL_NA",
    "gnaf_pid": "GAVIC423896954",
    "tech_change_status": "Not Planned",
    "program_type": "Fixed Wireless and Satellite Upgrade Program",
    "target_eligibility_quarter": "Dec 2024"
   }
  }
 ]
}