{
 "type": "FeatureCollection",
 "generated": "2024-08-12T22:59:55.809840",
 "suburb": "KELLALAC",
 "features": [
  {
   "type": "Feature",
   "geometry": {
    "type": "Point",
    "coordinates": [
     142.38039411,
     -36.33972275
    ]
   },
   "properties": {
    "name": "972 GAULKES ROAD KELLALAC 3393",
    "locID": "LOC000082665722",
    "tech": "WIRELESS",
    "upgrade": "NULL_NA",
    "gnaf_pid": "GAVIC422029403",
    "tech_change_status": "Not Planned",
    "program_type": "Fixed Wireless and Satellite Upgrade Program",
    "target_eligibility_quarter": "Dec 2024"
   }
  },
  {
   "type": "Feature",
   "geometry": {
    "type": "Point",
    "coordinates": [
     142.3900245,
     -36.42636745
    ]
   },
   "properties": {
    "name": "3699 HENTY HIGHWAY KELLALAC 3393",
    "locID": "LOC000051945797",
    "tech": "SATELLITE",
    "upgrade": "NULL_NA",
    "gnaf_pid": "GAVIC422030075",
    "tech_change_status": "Not Planned"
   }
  },
  {
   "type": "Feature",
   "geometry": {
    "type": "Point",
    "coordinates": [
     142.34161,
     -36.32107205
    ]
   },
   "properties": {
    "name": "1358 AILSA WHEAT ROAD KELLALAC 3393",
    "locID": "LOC000083054515",
    "tech": "WIRELESS",
    "upgrade": "NULL_NA",
    "gnaf_pid": "GAVIC422122179",
    "tech_change_status": "Not Planned",
    "program_type": "Fixed Wireless and Satellite Upgrade Program",
    "target_eligibility_quarter": "Dec 2024"
   }
  },
  {
   "type": "Feature",
   "geometry": {
    "type": "Point",
    "coordinates": [
     142.38049476,
     -36.38014315
    ]
   },
   "properties": {
    "name": "1422 GAULKES ROAD KELLALAC 3393",
    "locID": "LOC000062305854",
    "tech": "WIRELESS",
    "upgrade": "NULL_NA",
    "gnaf_pid": "GAVIC422148603",
    "tech_change_status": "Not Planned",
    "program_type": "Fixed Wireless and Satellite Upgrade Program",
    "target_eligibility_quarter": "Dec 2024"
   }
  },
  {
   "type": "Feature",
   "geometry": {
    "type": "Point",
    "coordinates": [
     142.38046288,
     -36.32931979
    ]
   },
   "properties": {
    "name": "856 GAULKES ROAD KELLALAC 3393",
    "locID": "LOC000050195696",
    "tech": "WIRELESS",
    "upgrade": "NULL_NA",
    "gnaf_pid": "GAVIC422148604",
    "tech_change_status": "Not Planned",
    "program_type": "Fixed Wireless and Satellite Upgrade Program",
    "target_eligibility_quarter": "Dec 2024"
   }
  },
  {
   "type": "Feature",
   "geometry": {
    "type": "Point",
    "coordinates": [
     142.4056525,
     -36.3470726
    ]
   },
   "properties": {
    "name": "4628 HENTY HIGHWAY KELLALAC 3393",
    "locID": "LOC000033581121",
    "tech": "WIRELESS",
    "upgrade": "NULL_NA",
    "gnaf_pid": "GAVIC422155055",
    "tech_change_status": "Not Planned",
    "program_type": "Fixed Wireless and Satellite Upgrade Program",
    "target_eligibility_quarter": "Dec 2024"
   }
  },
  {
   "type": "Feature",
   "geometry": {
    "type": "Point",
    "coordinates": [
     142.41101314,
     -36.31992049
    ]
   },
   "properties": {
    "name": "4936 HENTY HIGHWAY KELLALAC 3393",
    "locID": "LOC000124623470",
    "tech": "WIRELESS",
    "upgrade": "NULL_NA",
    "gnaf_pid": "GAVIC422155056",
    "tech_change_status": "Not Planned",
    "program_type": "Fixed Wireless and Satellite Upgrade Program",
    "target_eligibility_quarter": "Dec 2024"
   }
  },
  {
   "type": "Feature",
   "geometry": {
    "type": "Point",
    "coordinates": [
     142.41152406,
     -36.30933125
    ]
   },
   "properties": {
    "name": "5054 HENTY HIGHWAY KELLALAC 3393",
    "locID": "LOC000058114096",
    "tech": "WIRELESS",
    "upgrade": "NULL_NA",
    "gnaf_pid": "GAVIC422155057",
    "tech_change_status": "Not Planned",
    "program_type": "Fixed Wireless and Satellite Upgrade Program",
    "target_eligibility_quarter": "Dec 2024"
   }
  },
  {
   "type": "Feature",
   "geometry": {
    "type": "Point",
    "coordinates": [
     142.36144045,
     -36.312806
    ]
   },
   "properties": {
    "name": "212 INKSTERS ROAD KELLALAC 3393",
    "locID": "LOC000075801928",
    "tech": "WIRELESS",
    "upgrade": "NULL_NA",
    "gnaf_pid": "GAVIC422158241",
    "tech_change_status": "Not Planned",
    "program_type": "Fixed Wireless and Satellite Upgrade Program",
    "target_eligibility_quarter": "Dec 2024"
   }
  },
  {
   "type": "Feature",
   "geometry": {
    "type": "Point",
    "coordinates": [
     142.35949306,
     -36.41673996
    ]
   },
   "properties": {
    "name": "286 KEWELL NORTH SCHOOL ROAD KELLALAC 3393",
    "locID": "LOC000124563394",
    "tech": "SATELLITE",
    "upgrade": "NULL_NA",
    "gnaf_pid": "GAVIC422160939",
    "tech_change_status": "Not Planned"
   }
  },
  {
   "type": "Feature",
   "geometry": {
    "type": "Point",
    "coordinates": [
     142.36347309,
     -36.34509145
    ]
   },
   "properties": {
    "name": "150 KRANZS ROAD KELLALAC 3393",
    "locID": "LOC000026857521",
    "tech": "WIRELESS",
    "upgrade": "NULL_NA",
    "gnaf_pid": "GAVIC422162342",
    "tech_change_status": "Not Planned",
    "program_type": "Fixed Wireless and Satellite Upgrade Program",
    "target_eligibility_quarter": "Dec 2024"
   }
  },
  {
   "type": "Feature",
   "geometry": {
    "type": "Point",
    "coordinates": [
     142.43251294,
     -36.3211612
    ]
   },
   "properties": {
    "name": "259 MORCOMS ROAD KELLALAC 3393",
    "locID": "LOC000097982197",
    "tech": "WIRELESS",
    "upgrade": "NULL_NA",
    "gnaf_pid": "GAVIC422172955",
    "tech_change_status": "Not Planned",
    "program_type": "Fixed Wireless and Satellite Upgrade Program",
    "target_eligibility_quarter": "Dec 2024"
   }
  },
  {
   "type": "Feature",
   "geometry": {
    "type": "Point",
    "coordinates": [
     142.45116809,
     -36.34318416
    ]
   },
   "properties": {
    "name": "523 NITSCHKE ROAD KELLALAC 3393",
    "locID": "LOC000078889374",
    "tech": "SATELLITE",
    "upgrade": "NULL_NA",
    "gnaf_pid": "GAVIC422177411",
    "tech_change_status": "Not Planned"
   }
  },
  {
   "type": "Feature",
   "geometry": {
    "type": "Point",
    "coordinates": [
     142.39420839,
     -36.34396145
    ]
   },
   "properties": {
    "name": "134 ROBINSON LANE KELLALAC 3393",
    "locID": "LOC000074218446",
    "tech": "WIRELESS",
    "upgrade": "NULL_NA",
    "gnaf_pid": "GAVIC422186584",
    "tech_change_status": "Not Planned",
    "program_type": "Fixed Wireless and Satellite Upgrade Program",
    "target_eligibility_quarter": "Dec 2024"
   }
  },
  {
   "type": "Feature",
   "geometry": {
    "type": "Point",
    "coordinates": [
     142.39531898,
     -36.36498858
    ]
   },
   "properties": {
    "name": "380 ROBINSON LANE KELLALAC 3393",
    "locID": "LOC000009353307",
    "tech": "WIRELESS",
    "upgrade": "NULL_NA",
    "gnaf_pid": "GAVIC422186585",
    "tech_change_status": "Not Planned",
    "program_type": "Fixed Wireless and Satellite Upgrade Program",
    "target_eligibility_quarter": "Dec 2024"
   }
  },
  {
   "type": "Feature",
   "geometry": {
    "type": "Point",
    "coordinates": [
     142.40384044,
     -36.4167946
    ]
   },
   "properties": {
    "name": "111 ROSES ROAD KELLALAC 3393",
    "locID": "LOC000052915778",
    "tech": "SATELLITE",
    "upgrade": "NULL_NA",
    "gnaf_pid": "GAVIC422187126",
    "tech_change_status": "Not Planned"
   }
  },
  {
   "type": "Feature",
   "geometry": {
    "type": "Point",
    "coordinates": [
     142.45965733,
     -36.31681226
    ]
   },
   "properties": {
    "name": "8189 STAWELL-WARRACKNABEAL ROAD KELLALAC 3393",
    "locID": "LOC000007147087",
    "tech": "WIRELESS",
    "upgrade": "NULL_NA",
    "gnaf_pid": "GAVIC422192909",
    "tech_change_status": "Not Planned",
    "program_type": "Fixed Wireless and Satellite Upgrade Program",
    "target_eligibility_quarter": "Dec 2024"
   }
  },
  {
   "type": "Feature",
   "geometry": {
    "type": "Point",
    "coordinates": [
     142.40990549,
     -36.43147091
    ]
   },
   "properties": {
    "name": "743 YARRIAMBIACK DRIVE KELLALAC 3393",
    "locID": "LOC000035856085",
    "tech": "WIRELESS",
    "upgrade": "NULL_NA",
    "gnaf_pid": "GAVIC422437028",
    "tech_change_status": "Not Planned",
    "program_type": "Fixed Wireless and Satellite Upgrade Program",
    "target_eligibility_quarter": "NA"
   }
  }
 ]
}