{
 "type": "FeatureCollection",
 "generated": "2023-10-24T11:24:47.360915",
 "suburb": "KELLALAC",
 "features": [
  {
   "type": "Feature",
   "geometry": {
    "type": "Point",
    "coordinates": [
     142.38039411,
     -36.33972275
    ]
   },
   "properties": {
    "name": "972 GAULKES ROAD KELLALAC 3393",
    "locID": "LOC000082665722",
    "tech": "WIRELESS",
    "upgrade": "NULL_NA",
    "gnaf_pid": "GAVIC422029403"
   }
  },
  {
   "type": "Feature",
   "geometry": {
    "type": "Point",
    "coordinates": [
     142.3900245,
     -36.42636745
    ]
   },
   "properties": {
    "name": "3699 HENTY HIGHWAY KELLALAC 3393",
    "locID": "LOC000051945797",
    "tech": "SATELLITE",
    "upgrade": "NULL_NA",
    "gnaf_pid": "GAVIC422030075"
   }
  },
  {
   "type": "Feature",
   "geometry": {
    "type": "Point",
    "coordinates": [
     142.34161,
     -36.32107205
    ]
   },
   "properties": {
    "name": "1358 AILSA WHEAT ROAD KELLALAC 3393",
    "locID": "LOC000083054515",
    "tech": "WIRELESS",
    "upgrade": "NULL_NA",
    "gnaf_pid": "GAVIC422122179"
   }
  },
  {
   "type": "Feature",
   "geometry": {
    "type": "Point",
    "coordinates": [
     142.36153752,
     -36.33145942
    ]
   },
   "properties": {
    "name": "1096 AILSA ROAD KELLALAC 3393",
    "locID": "ChIJB8KKU_a_z2oRmMolqxbvr94",
    "tech": "WIRELESS",
    "upgrade": "UNKNOWN",
    "gnaf_pid": "GAVIC422122181"
   }
  },
  {
   "type": "Feature",
   "geometry": {
    "type": "Point",
    "coordinates": [
     142.42227736,
     -36.33107331
    ]
   },
   "properties": {
    "name": "1643 AILSA ROAD KELLALAC 3393",
    "locID": "ChIJMUqy7BLqz2oR7M28ufPmtK0",
    "tech": "WIRELESS",
    "upgrade": "UNKNOWN",
    "gnaf_pid": "GAVIC422122182"
   }
  },
  {
   "type": "Feature",
   "geometry": {
    "type": "Point",
    "coordinates": [
     142.37154683,
     -36.39054095
    ]
   },
   "properties": {
    "name": "203 BARRAT ROAD KELLALAC 3393",
    "locID": "ChIJhyBqXK3Az2oRpnVbeuxRQns",
    "tech": "SATELLITE",
    "upgrade": "UNKNOWN",
    "gnaf_pid": "GAVIC422126173"
   }
  },
  {
   "type": "Feature",
   "geometry": {
    "type": "Point",
    "coordinates": [
     142.43888485,
     -36.42528383
    ]
   },
   "properties": {
    "name": "73 COFFEYS ROAD KELLALAC 3393",
    "locID": "ChIJgeQCf6XGz2oRDGg7bWKZOmw",
    "tech": "SATELLITE",
    "upgrade": "UNKNOWN",
    "gnaf_pid": "GAVIC422137627"
   }
  },
  {
   "type": "Feature",
   "geometry": {
    "type": "Point",
    "coordinates": [
     142.38049476,
     -36.38014315
    ]
   },
   "properties": {
    "name": "1422 GAULKES ROAD KELLALAC 3393",
    "locID": "LOC000062305854",
    "tech": "WIRELESS",
    "upgrade": "NULL_NA",
    "gnaf_pid": "GAVIC422148603"
   }
  },
  {
   "type": "Feature",
   "geometry": {
    "type": "Point",
    "coordinates": [
     142.38046288,
     -36.32931979
    ]
   },
   "properties": {
    "name": "856 GAULKES ROAD KELLALAC 3393",
    "locID": "LOC000050195696",
    "tech": "WIRELESS",
    "upgrade": "NULL_NA",
    "gnaf_pid": "GAVIC422148604"
   }
  },
  {
   "type": "Feature",
   "geometry": {
    "type": "Point",
    "coordinates": [
     142.4056525,
     -36.3470726
    ]
   },
   "properties": {
    "name": "4628 HENTY HIGHWAY KELLALAC 3393",
    "locID": "LOC000033581121",
    "tech": "WIRELESS",
    "upgrade": "NULL_NA",
    "gnaf_pid": "GAVIC422155055"
   }
  },
  {
   "type": "Feature",
   "geometry": {
    "type": "Point",
    "coordinates": [
     142.41101314,
     -36.31992049
    ]
   },
   "properties": {
    "name": "4936 HENTY HIGHWAY KELLALAC 3393",
    "locID": "LOC000124623470",
    "tech": "WIRELESS",
    "upgrade": "NULL_NA",
    "gnaf_pid": "GAVIC422155056"
   }
  },
  {
   "type": "Feature",
   "geometry": {
    "type": "Point",
    "coordinates": [
     142.41152406,
     -36.30933125
    ]
   },
   "properties": {
    "name": "5054 HENTY HIGHWAY KELLALAC 3393",
    "locID": "LOC000058114096",
    "tech": "WIRELESS",
    "upgrade": "NULL_NA",
    "gnaf_pid": "GAVIC422155057"
   }
  },
  {
   "type": "Feature",
   "geometry": {
    "type": "Point",
    "coordinates": [
     142.36144045,
     -36.312806
    ]
   },
   "properties": {
    "name": "212 INKSTERS ROAD KELLALAC 3393",
    "locID": "LOC000075801928",
    "tech": "WIRELESS",
    "upgrade": "NULL_NA",
    "gnaf_pid": "GAVIC422158241"
   }
  },
  {
   "type": "Feature",
   "geometry": {
    "type": "Point",
    "coordinates": [
     142.35949306,
     -36.41673996
    ]
   },
   "properties": {
    "name": "286 KEWELL NORTH SCHOOL ROAD KELLALAC 3393",
    "locID": "LOC000124563394",
    "tech": "SATELLITE",
    "upgrade": "NULL_NA",
    "gnaf_pid": "GAVIC422160939"
   }
  },
  {
   "type": "Feature",
   "geometry": {
    "type": "Point",
    "coordinates": [
     142.36347309,
     -36.34509145
    ]
   },
   "properties": {
    "name": "150 KRANZS ROAD KELLALAC 3393",
    "locID": "LOC000026857521",
    "tech": "WIRELESS",
    "upgrade": "NULL_NA",
    "gnaf_pid": "GAVIC422162342"
   }
  },
  {
   "type": "Feature",
   "geometry": {
    "type": "Point",
    "coordinates": [
     142.43251294,
     -36.3211612
    ]
   },
   "properties": {
    "name": "259 MORCOMS ROAD KELLALAC 3393",
    "locID": "LOC000097982197",
    "tech": "WIRELESS",
    "upgrade": "NULL_NA",
    "gnaf_pid": "GAVIC422172955"
   }
  },
  {
   "type": "Feature",
   "geometry": {
    "type": "Point",
    "coordinates": [
     142.45116809,
     -36.34318416
    ]
   },
   "properties": {
    "name": "523 NITSCHKE ROAD KELLALAC 3393",
    "locID": "LOC000078889374",
    "tech": "SATELLITE",
    "upgrade": "NULL_NA",
    "gnaf_pid": "GAVIC422177411"
   }
  },
  {
   "type": "Feature",
   "geometry": {
    "type": "Point",
    "coordinates": [
     142.39420839,
     -36.34396145
    ]
   },
   "properties": {
    "name": "134 ROBINSON LANE KELLALAC 3393",
    "locID": "LOC000074218446",
    "tech": "WIRELESS",
    "upgrade": "NULL_NA",
    "gnaf_pid": "GAVIC422186584"
   }
  },
  {
   "type": "Feature",
   "geometry": {
    "type": "Point",
    "coordinates": [
     142.39531898,
     -36.36498858
    ]
   },
   "properties": {
    "name": "380 ROBINSON LANE KELLALAC 3393",
    "locID": "LOC000009353307",
    "tech": "WIRELESS",
    "upgrade": "NULL_NA",
    "gnaf_pid": "GAVIC422186585"
   }
  },
  {
   "type": "Feature",
   "geometry": {
    "type": "Point",
    "coordinates": [
     142.40384044,
     -36.4167946
    ]
   },
   "properties": {
    "name": "111 ROSES ROAD KELLALAC 3393",
    "locID": "LOC000052915778",
    "tech": "SATELLITE",
    "upgrade": "NULL_NA",
    "gnaf_pid": "GAVIC422187126"
   }
  },
  {
   "type": "Feature",
   "geometry": {
    "type": "Point",
    "coordinates": [
     142.45965733,
     -36.31681226
    ]
   },
   "properties": {
    "name": "8189 STAWELL-WARRACKNABEAL ROAD KELLALAC 3393",
    "locID": "LOC000007147087",
    "tech": "WIRELESS",
    "upgrade": "NULL_NA",
    "gnaf_pid": "GAVIC422192909"
   }
  },
  {
   "type": "Feature",
   "geometry": {
    "type": "Point",
    "coordinates": [
     142.40990549,
     -36.43147091
    ]
   },
   "properties": {
    "name": "743 YARRIAMBIACK DRIVE KELLALAC 3393",
    "locID": "LOC000035856085",
    "tech": "WIRELESS",
    "upgrade": "NULL_NA",
    "gnaf_pid": "GAVIC422437028"
   }
  }
 ]
}