{
 "type": "FeatureCollection",
 "generated": "2023-10-24T13:24:12.916277",
 "suburb": "LAKE MARMAL",
 "features": [
  {
   "type": "Feature",
   "geometry": {
    "type": "Point",
    "coordinates": [
     143.51733587,
     -36.15041042
    ]
   },
   "properties": {
    "name": "18 MARMAL NORTH ROAD LAKE MARMAL 3525",
    "locID": "LOC000100804647",
    "tech": "WIRELESS",
    "upgrade": "NULL_NA",
    "gnaf_pid": "GAVIC411715471"
   }
  },
  {
   "type": "Feature",
   "geometry": {
    "type": "Point",
    "coordinates": [
     143.54066539,
     -36.07732484
    ]
   },
   "properties": {
    "name": "1743 BOORT-WYCHEPROOF ROAD LAKE MARMAL 3525",
    "locID": "ChIJCUx1vfFc2moR2JrJcNbt_Xc",
    "tech": "SATELLITE",
    "upgrade": "UNKNOWN",
    "gnaf_pid": "GAVIC411715472"
   }
  },
  {
   "type": "Feature",
   "geometry": {
    "type": "Point",
    "coordinates": [
     143.53895338,
     -36.07635503
    ]
   },
   "properties": {
    "name": "1758 BOORT-WYCHEPROOF ROAD LAKE MARMAL 3525",
    "locID": "LOC100078659644",
    "tech": "SATELLITE",
    "upgrade": "NULL_NA",
    "gnaf_pid": "GAVIC411715473"
   }
  },
  {
   "type": "Feature",
   "geometry": {
    "type": "Point",
    "coordinates": [
     143.57865962,
     -36.07681563
    ]
   },
   "properties": {
    "name": "1404 BOORT-WYCHEPROOF ROAD LAKE MARMAL 3525",
    "locID": "ChIJLaFy21hD2moRao8I14ont_c",
    "tech": "WIRELESS",
    "upgrade": "UNKNOWN",
    "gnaf_pid": "GAVIC411729372"
   }
  },
  {
   "type": "Feature",
   "geometry": {
    "type": "Point",
    "coordinates": [
     143.51343987,
     -36.1343888
    ]
   },
   "properties": {
    "name": "208 MARMAL NORTH ROAD LAKE MARMAL 3525",
    "locID": "LOC000095099533",
    "tech": "SATELLITE",
    "upgrade": "NULL_NA",
    "gnaf_pid": "GAVIC411729373"
   }
  },
  {
   "type": "Feature",
   "geometry": {
    "type": "Point",
    "coordinates": [
     143.56089393,
     -36.10067517
    ]
   },
   "properties": {
    "name": "413 QUAMBATOOK-WYCHITELLA ROAD LAKE MARMAL 3525",
    "locID": "LOC000035105034",
    "tech": "SATELLITE",
    "upgrade": "NULL_NA",
    "gnaf_pid": "GAVIC411729374"
   }
  },
  {
   "type": "Feature",
   "geometry": {
    "type": "Point",
    "coordinates": [
     143.51225607,
     -36.12660194
    ]
   },
   "properties": {
    "name": "318 MARMAL NORTH ROAD LAKE MARMAL 3525",
    "locID": "LOC000050763720",
    "tech": "SATELLITE",
    "upgrade": "NULL_NA",
    "gnaf_pid": "GAVIC411729375"
   }
  },
  {
   "type": "Feature",
   "geometry": {
    "type": "Point",
    "coordinates": [
     143.51353168,
     -36.17008637
    ]
   },
   "properties": {
    "name": "536 BUCKRABANYULE NORTH ROAD LAKE MARMAL 3525",
    "locID": "ChIJS_Us9ftm2moRpcKndxEG1Gs",
    "tech": "SATELLITE",
    "upgrade": "UNKNOWN",
    "gnaf_pid": "GAVIC414394584"
   }
  },
  {
   "type": "Feature",
   "geometry": {
    "type": "Point",
    "coordinates": [
     143.55710634,
     -36.10909564
    ]
   },
   "properties": {
    "name": "472 GLENLOTH ROAD LAKE MARMAL 3525",
    "locID": "LOC000057332247",
    "tech": "SATELLITE",
    "upgrade": "NULL_NA",
    "gnaf_pid": "GAVIC422150047"
   }
  },
  {
   "type": "Feature",
   "geometry": {
    "type": "Point",
    "coordinates": [
     143.5060163,
     -36.1010796
    ]
   },
   "properties": {
    "name": "942 GLENLOTH ROAD LAKE MARMAL 3525",
    "locID": "LOC000005227087",
    "tech": "SATELLITE",
    "upgrade": "NULL_NA",
    "gnaf_pid": "GAVIC422150048"
   }
  },
  {
   "type": "Feature",
   "geometry": {
    "type": "Point",
    "coordinates": [
     143.50551852,
     -36.10110121
    ]
   },
   "properties": {
    "name": "948 GLENLOTH ROAD LAKE MARMAL 3525",
    "locID": "LOC000083780343",
    "tech": "SATELLITE",
    "upgrade": "NULL_NA",
    "gnaf_pid": "GAVIC422150049"
   }
  },
  {
   "type": "Feature",
   "geometry": {
    "type": "Point",
    "coordinates": [
     143.5793448,
     -36.0889566
    ]
   },
   "properties": {
    "name": "134 REEDS ROAD LAKE MARMAL 3525",
    "locID": "ChIJvyPc2klD2moRiYJJ47nQ690",
    "tech": "WIRELESS",
    "upgrade": "UNKNOWN",
    "gnaf_pid": "GAVIC422185318"
   }
  },
  {
   "type": "Feature",
   "geometry": {
    "type": "Point",
    "coordinates": [
     143.5293633,
     -36.12184775
    ]
   },
   "properties": {
    "name": "15 ROBERTSONS ROAD LAKE MARMAL 3525",
    "locID": "LOC000002019925",
    "tech": "SATELLITE",
    "upgrade": "NULL_NA",
    "gnaf_pid": "GAVIC422186563"
   }
  },
  {
   "type": "Feature",
   "geometry": {
    "type": "Point",
    "coordinates": [
     143.51353168,
     -36.17008637
    ]
   },
   "properties": {
    "name": "LOT 65 BUCKRABANYULE NORTH ROAD LAKE MARMAL 3525",
    "locID": "EjNCdWNrcmFiYW55dWxlIE4gUmQsIExha2UgTWFybWFsIFZJQyAzNTI1LCBBdXN0cmFsaWEiLiosChQKEgnxvP1ZJ2TaahEqva7o3l7aBhIUChIJ-w-NUEJd2moRsJGgMKR5BQQ",
    "tech": "SATELLITE",
    "upgrade": "UNKNOWN",
    "gnaf_pid": "GAVIC423392403"
   }
  },
  {
   "type": "Feature",
   "geometry": {
    "type": "Point",
    "coordinates": [
     143.54732872,
     -36.1065181
    ]
   },
   "properties": {
    "name": "LOT 19 GLENLOTH ROAD LAKE MARMAL 3525",
    "locID": "LOC000057332247",
    "tech": "SATELLITE",
    "upgrade": "NULL_NA",
    "gnaf_pid": "GAVIC423397256"
   }
  },
  {
   "type": "Feature",
   "geometry": {
    "type": "Point",
    "coordinates": [
     143.51143056,
     -36.11689832
    ]
   },
   "properties": {
    "name": "LOT 100 MARMAL NORTH ROAD LAKE MARMAL 3525",
    "locID": "EjAxMDAgTWFybWFsIE4gUmQsIExha2UgTWFybWFsIFZJQyAzNTI1LCBBdXN0cmFsaWEiMBIuChQKEglZ_szGC2faahGC71qoSgNEexBkKhQKEgkRwGRKh13aahFV36l1D6CyJA",
    "tech": "SATELLITE",
    "upgrade": "UNKNOWN",
    "gnaf_pid": "GAVIC423402294"
   }
  },
  {
   "type": "Feature",
   "geometry": {
    "type": "Point",
    "coordinates": [
     143.53638702,
     -36.12359128
    ]
   },
   "properties": {
    "name": "LOT 97 PETER MCGRATHS ROAD LAKE MARMAL 3525",
    "locID": "EjBQZXRlciBNY2dyYXRocyBSZCwgVGVycmFwcGVlIFZJQyAzNTI1LCBBdXN0cmFsaWEiLiosChQKEgnzcVk3QV3aahHW1saBXxwM9RIUChIJDRBz3Z9C2moRgJmgMKR5BQQ",
    "tech": "SATELLITE",
    "upgrade": "UNKNOWN",
    "gnaf_pid": "GAVIC423405883"
   }
  },
  {
   "type": "Feature",
   "geometry": {
    "type": "Point",
    "coordinates": [
     143.48231291,
     -36.06947008
    ]
   },
   "properties": {
    "name": "LOT 37 GARDNERS ROAD LAKE MARMAL 3525",
    "locID": "LOC000114922123",
    "tech": "SATELLITE",
    "upgrade": "NULL_NA",
    "gnaf_pid": "GAVIC423981401"
   }
  },
  {
   "type": "Feature",
   "geometry": {
    "type": "Point",
    "coordinates": [
     143.51065011,
     -36.11158428
    ]
   },
   "properties": {
    "name": "485 MARMAL NORTH ROAD LAKE MARMAL 3525",
    "locID": "ChIJ7bR37pld2moRIotNg9TkCus",
    "tech": "SATELLITE",
    "upgrade": "UNKNOWN",
    "gnaf_pid": "GAVIC424084957"
   }
  },
  {
   "type": "Feature",
   "geometry": {
    "type": "Point",
    "coordinates": [
     143.53027334,
     -36.15259925
    ]
   },
   "properties": {
    "name": "12 TERRAPPEE CEMETERY ROAD LAKE MARMAL 3525",
    "locID": "LOC000114909538",
    "tech": "SATELLITE",
    "upgrade": "NULL_NA",
    "gnaf_pid": "GAVIC424679679"
   }
  },
  {
   "type": "Feature",
   "geometry": {
    "type": "Point",
    "coordinates": [
     143.51244452,
     -36.17337088
    ]
   },
   "properties": {
    "name": "2 TERRAPPEE CEMETERY ROAD LAKE MARMAL 3525",
    "locID": "LOC000114711910",
    "tech": "SATELLITE",
    "upgrade": "NULL_NA",
    "gnaf_pid": "GAVIC424726295"
   }
  },
  {
   "type": "Feature",
   "geometry": {
    "type": "Point",
    "coordinates": [
     143.51391486,
     -36.16687934
    ]
   },
   "properties": {
    "name": "1040 BUCKRABANYULE NORTH ROAD LAKE MARMAL 3525",
    "locID": "ChIJ-e8OxP1m2moRfP7y5RVIpQs",
    "tech": "SATELLITE",
    "upgrade": "UNKNOWN",
    "gnaf_pid": "GAVIC425669172"
   }
  },
  {
   "type": "Feature",
   "geometry": {
    "type": "Point",
    "coordinates": [
     143.51244452,
     -36.17337088
    ]
   },
   "properties": {
    "name": "129 TERRAPPEE CEMETERY ROAD LAKE MARMAL 3525",
    "locID": "ChIJx6BEYfpm2moRTCqGnsqjQpA",
    "tech": "SATELLITE",
    "upgrade": "UNKNOWN",
    "gnaf_pid": "GAVIC719816794"
   }
  }
 ]
}