{
 "type": "FeatureCollection",
 "generated": "2024-07-06T06:49:48.453223",
 "suburb": "LAKE MARMAL",
 "features": [
  {
   "type": "Feature",
   "geometry": {
    "type": "Point",
    "coordinates": [
     143.51733587,
     -36.15041042
    ]
   },
   "properties": {
    "name": "18 MARMAL NORTH ROAD LAKE MARMAL 3525",
    "locID": "LOC000100804647",
    "tech": "WIRELESS",
    "upgrade": "NULL_NA",
    "gnaf_pid": "GAVIC411715471",
    "tech_change_status": "Not Planned",
    "program_type": "Fixed Wireless and Satellite Upgrade Program",
    "target_eligibility_quarter": "Dec 2024"
   }
  },
  {
   "type": "Feature",
   "geometry": {
    "type": "Point",
    "coordinates": [
     143.53895338,
     -36.07635503
    ]
   },
   "properties": {
    "name": "1758 BOORT-WYCHEPROOF ROAD LAKE MARMAL 3525",
    "locID": "LOC100078659644",
    "tech": "SATELLITE",
    "upgrade": "NULL_NA",
    "gnaf_pid": "GAVIC411715473",
    "tech_change_status": "Not Planned"
   }
  },
  {
   "type": "Feature",
   "geometry": {
    "type": "Point",
    "coordinates": [
     143.51343987,
     -36.1343888
    ]
   },
   "properties": {
    "name": "208 MARMAL NORTH ROAD LAKE MARMAL 3525",
    "locID": "LOC000095099533",
    "tech": "SATELLITE",
    "upgrade": "NULL_NA",
    "gnaf_pid": "GAVIC411729373",
    "tech_change_status": "Not Planned"
   }
  },
  {
   "type": "Feature",
   "geometry": {
    "type": "Point",
    "coordinates": [
     143.56089393,
     -36.10067517
    ]
   },
   "properties": {
    "name": "413 QUAMBATOOK-WYCHITELLA ROAD LAKE MARMAL 3525",
    "locID": "LOC000035105034",
    "tech": "SATELLITE",
    "upgrade": "NULL_NA",
    "gnaf_pid": "GAVIC411729374",
    "tech_change_status": "Not Planned"
   }
  },
  {
   "type": "Feature",
   "geometry": {
    "type": "Point",
    "coordinates": [
     143.51225607,
     -36.12660194
    ]
   },
   "properties": {
    "name": "318 MARMAL NORTH ROAD LAKE MARMAL 3525",
    "locID": "LOC000050763720",
    "tech": "SATELLITE",
    "upgrade": "NULL_NA",
    "gnaf_pid": "GAVIC411729375",
    "tech_change_status": "Not Planned"
   }
  },
  {
   "type": "Feature",
   "geometry": {
    "type": "Point",
    "coordinates": [
     143.55710634,
     -36.10909564
    ]
   },
   "properties": {
    "name": "472 GLENLOTH ROAD LAKE MARMAL 3525",
    "locID": "LOC000057332247",
    "tech": "SATELLITE",
    "upgrade": "NULL_NA",
    "gnaf_pid": "GAVIC422150047",
    "tech_change_status": "Not Planned"
   }
  },
  {
   "type": "Feature",
   "geometry": {
    "type": "Point",
    "coordinates": [
     143.5060163,
     -36.1010796
    ]
   },
   "properties": {
    "name": "942 GLENLOTH ROAD LAKE MARMAL 3525",
    "locID": "LOC000005227087",
    "tech": "SATELLITE",
    "upgrade": "NULL_NA",
    "gnaf_pid": "GAVIC422150048",
    "tech_change_status": "Not Planned"
   }
  },
  {
   "type": "Feature",
   "geometry": {
    "type": "Point",
    "coordinates": [
     143.50551852,
     -36.10110121
    ]
   },
   "properties": {
    "name": "948 GLENLOTH ROAD LAKE MARMAL 3525",
    "locID": "LOC000083780343",
    "tech": "SATELLITE",
    "upgrade": "NULL_NA",
    "gnaf_pid": "GAVIC422150049",
    "tech_change_status": "Not Planned"
   }
  },
  {
   "type": "Feature",
   "geometry": {
    "type": "Point",
    "coordinates": [
     143.5293633,
     -36.12184775
    ]
   },
   "properties": {
    "name": "15 ROBERTSONS ROAD LAKE MARMAL 3525",
    "locID": "LOC000002019925",
    "tech": "SATELLITE",
    "upgrade": "NULL_NA",
    "gnaf_pid": "GAVIC422186563",
    "tech_change_status": "Not Planned"
   }
  },
  {
   "type": "Feature",
   "geometry": {
    "type": "Point",
    "coordinates": [
     143.54732872,
     -36.1065181
    ]
   },
   "properties": {
    "name": "LOT 19 GLENLOTH ROAD LAKE MARMAL 3525",
    "locID": "LOC000057332247",
    "tech": "SATELLITE",
    "upgrade": "NULL_NA",
    "gnaf_pid": "GAVIC423397256",
    "tech_change_status": "Not Planned"
   }
  },
  {
   "type": "Feature",
   "geometry": {
    "type": "Point",
    "coordinates": [
     143.48231291,
     -36.06947008
    ]
   },
   "properties": {
    "name": "LOT 37 GARDNERS ROAD LAKE MARMAL 3525",
    "locID": "LOC000114922123",
    "tech": "SATELLITE",
    "upgrade": "NULL_NA",
    "gnaf_pid": "GAVIC423981401",
    "tech_change_status": "Not Planned"
   }
  },
  {
   "type": "Feature",
   "geometry": {
    "type": "Point",
    "coordinates": [
     143.53027334,
     -36.15259925
    ]
   },
   "properties": {
    "name": "12 TERRAPPEE CEMETERY ROAD LAKE MARMAL 3525",
    "locID": "LOC000114909538",
    "tech": "SATELLITE",
    "upgrade": "NULL_NA",
    "gnaf_pid": "GAVIC424679679",
    "tech_change_status": "Not Planned"
   }
  },
  {
   "type": "Feature",
   "geometry": {
    "type": "Point",
    "coordinates": [
     143.51244452,
     -36.17337088
    ]
   },
   "properties": {
    "name": "2 TERRAPPEE CEMETERY ROAD LAKE MARMAL 3525",
    "locID": "LOC000114711910",
    "tech": "SATELLITE",
    "upgrade": "NULL_NA",
    "gnaf_pid": "GAVIC424726295",
    "tech_change_status": "Not Planned"
   }
  }
 ]
}