{
 "type": "FeatureCollection",
 "generated": "2023-10-24T14:51:39.764545",
 "suburb": "LONGFORD",
 "features": [
  {
   "type": "Feature",
   "geometry": {
    "type": "Point",
    "coordinates": [
     147.08335004,
     -38.16986095
    ]
   },
   "properties": {
    "name": "40 ABELS ROAD LONGFORD 3851",
    "locID": "LOC000105758423",
    "tech": "WIRELESS",
    "upgrade": "NULL_NA",
    "gnaf_pid": "GAVIC411737333"
   }
  },
  {
   "type": "Feature",
   "geometry": {
    "type": "Point",
    "coordinates": [
     147.11217085,
     -38.20165356
    ]
   },
   "properties": {
    "name": "309 BOUNDARY CREEK ROAD LONGFORD 3851",
    "locID": "LOC000104480907",
    "tech": "WIRELESS",
    "upgrade": "NULL_NA",
    "gnaf_pid": "GAVIC411738165"
   }
  },
  {
   "type": "Feature",
   "geometry": {
    "type": "Point",
    "coordinates": [
     147.0878795,
     -38.16076776
    ]
   },
   "properties": {
    "name": "6 ARDEN STREET LONGFORD 3851",
    "locID": "LOC000113090129",
    "tech": "WIRELESS",
    "upgrade": "NULL_NA",
    "gnaf_pid": "GAVIC411740913"
   }
  },
  {
   "type": "Feature",
   "geometry": {
    "type": "Point",
    "coordinates": [
     147.11236315,
     -38.22277905
    ]
   },
   "properties": {
    "name": "591 SEASPRAY ROAD LONGFORD 3851",
    "locID": "LOC000045691050",
    "tech": "WIRELESS",
    "upgrade": "NULL_NA",
    "gnaf_pid": "GAVIC411741774"
   }
  },
  {
   "type": "Feature",
   "geometry": {
    "type": "Point",
    "coordinates": [
     147.17809266,
     -38.25718908
    ]
   },
   "properties": {
    "name": "538 CARRS CREEK ROAD LONGFORD 3851",
    "locID": "LOC000125434672",
    "tech": "SATELLITE",
    "upgrade": "NULL_NA",
    "gnaf_pid": "GAVIC411744707"
   }
  },
  {
   "type": "Feature",
   "geometry": {
    "type": "Point",
    "coordinates": [
     147.08718864,
     -38.15990079
    ]
   },
   "properties": {
    "name": "15 ARDEN STREET LONGFORD 3851",
    "locID": "LOC000095402307",
    "tech": "WIRELESS",
    "upgrade": "NULL_NA",
    "gnaf_pid": "GAVIC411744711"
   }
  },
  {
   "type": "Feature",
   "geometry": {
    "type": "Point",
    "coordinates": [
     147.08819893,
     -38.18380433
    ]
   },
   "properties": {
    "name": "8 HARPLEY COURT LONGFORD 3851",
    "locID": "ChIJNdvCzogoL2sR0PmNqfXJGxI",
    "tech": "WIRELESS",
    "upgrade": "UNKNOWN",
    "gnaf_pid": "GAVIC411747061"
   }
  },
  {
   "type": "Feature",
   "geometry": {
    "type": "Point",
    "coordinates": [
     147.13473191,
     -38.203829
    ]
   },
   "properties": {
    "name": "315 MERRICKS ROAD LONGFORD 3851",
    "locID": "LOC000092967993",
    "tech": "WIRELESS",
    "upgrade": "NULL_NA",
    "gnaf_pid": "GAVIC411748318"
   }
  },
  {
   "type": "Feature",
   "geometry": {
    "type": "Point",
    "coordinates": [
     147.09579959,
     -38.17189003
    ]
   },
   "properties": {
    "name": "68 HOBSONS ROAD LONGFORD 3851",
    "locID": "ChIJs6uUZ58oL2sR6_pzK93IO68",
    "tech": "WIRELESS",
    "upgrade": "UNKNOWN",
    "gnaf_pid": "GAVIC411748320"
   }
  },
  {
   "type": "Feature",
   "geometry": {
    "type": "Point",
    "coordinates": [
     147.17096205,
     -38.17475215
    ]
   },
   "properties": {
    "name": "356 VALE ROAD LONGFORD 3851",
    "locID": "LOC000106316968",
    "tech": "SATELLITE",
    "upgrade": "NULL_NA",
    "gnaf_pid": "GAVIC411749244"
   }
  },
  {
   "type": "Feature",
   "geometry": {
    "type": "Point",
    "coordinates": [
     147.09851006,
     -38.18391979
    ]
   },
   "properties": {
    "name": "57 HIGHFIELD DRIVE LONGFORD 3851",
    "locID": "LOC000096620095",
    "tech": "WIRELESS",
    "upgrade": "NULL_NA",
    "gnaf_pid": "GAVIC411749245"
   }
  },
  {
   "type": "Feature",
   "geometry": {
    "type": "Point",
    "coordinates": [
     147.09838298,
     -38.18280231
    ]
   },
   "properties": {
    "name": "45 HIGHFIELD DRIVE LONGFORD 3851",
    "locID": "LOC000016885816",
    "tech": "WIRELESS",
    "upgrade": "NULL_NA",
    "gnaf_pid": "GAVIC411749247"
   }
  },
  {
   "type": "Feature",
   "geometry": {
    "type": "Point",
    "coordinates": [
     147.09725211,
     -38.17625824
    ]
   },
   "properties": {
    "name": "82 MCCOLL DRIVE LONGFORD 3851",
    "locID": "LOC000079413062",
    "tech": "WIRELESS",
    "upgrade": "NULL_NA",
    "gnaf_pid": "GAVIC411769023"
   }
  },
  {
   "type": "Feature",
   "geometry": {
    "type": "Point",
    "coordinates": [
     147.09302023,
     -38.174962
    ]
   },
   "properties": {
    "name": "19 IBIS WAY LONGFORD 3851",
    "locID": "ChIJFbdJeJkoL2sRDAvK2Tn1X1I",
    "tech": "WIRELESS",
    "upgrade": "UNKNOWN",
    "gnaf_pid": "GAVIC411769757"
   }
  },
  {
   "type": "Feature",
   "geometry": {
    "type": "Point",
    "coordinates": [
     147.09545119,
     -38.17611729
    ]
   },
   "properties": {
    "name": "65 MCCOLL DRIVE LONGFORD 3851",
    "locID": "LOC000025146871",
    "tech": "WIRELESS",
    "upgrade": "NULL_NA",
    "gnaf_pid": "GAVIC411775266"
   }
  },
  {
   "type": "Feature",
   "geometry": {
    "type": "Point",
    "coordinates": [
     147.0860483,
     -38.17060874
    ]
   },
   "properties": {
    "name": "15 ABELS ROAD LONGFORD 3851",
    "locID": "ChIJ3_ul9JYoL2sRXF9CqY_klNM",
    "tech": "WIRELESS",
    "upgrade": "UNKNOWN",
    "gnaf_pid": "GAVIC411778792"
   }
  },
  {
   "type": "Feature",
   "geometry": {
    "type": "Point",
    "coordinates": [
     147.07306718,
     -38.16397185
    ]
   },
   "properties": {
    "name": "2606 ROSEDALE-LONGFORD ROAD LONGFORD 3851",
    "locID": "LOC000032053905",
    "tech": "WIRELESS",
    "upgrade": "NULL_NA",
    "gnaf_pid": "GAVIC411778793"
   }
  },
  {
   "type": "Feature",
   "geometry": {
    "type": "Point",
    "coordinates": [
     147.0875597,
     -38.18390138
    ]
   },
   "properties": {
    "name": "31 HARPLEY COURT LONGFORD 3851",
    "locID": "LOC000094919594",
    "tech": "WIRELESS",
    "upgrade": "NULL_NA",
    "gnaf_pid": "GAVIC411778887"
   }
  },
  {
   "type": "Feature",
   "geometry": {
    "type": "Point",
    "coordinates": [
     147.0952766,
     -38.18235421
    ]
   },
   "properties": {
    "name": "19 HIGHFIELD DRIVE LONGFORD 3851",
    "locID": "LOC000081969974",
    "tech": "WIRELESS",
    "upgrade": "NULL_NA",
    "gnaf_pid": "GAVIC411778891"
   }
  },
  {
   "type": "Feature",
   "geometry": {
    "type": "Point",
    "coordinates": [
     147.08819893,
     -38.18380433
    ]
   },
   "properties": {
    "name": "LOT 11 HARPLEY COURT LONGFORD 3851",
    "locID": "EisxMSBIYXJwbGV5IEN0LCBMb25nZm9yZCBWSUMgMzg1MSwgQXVzdHJhbGlhIjASLgoUChIJNT9UzogoL2sRfLR5y_uG6wkQCyoUChIJw_vizogoL2sRbYpu8rJy6b4",
    "tech": "WIRELESS",
    "upgrade": "UNKNOWN",
    "gnaf_pid": "GAVIC412687413"
   }
  },
  {
   "type": "Feature",
   "geometry": {
    "type": "Point",
    "coordinates": [
     147.08819893,
     -38.18380433
    ]
   },
   "properties": {
    "name": "LOT 9 HARPLEY COURT LONGFORD 3851",
    "locID": "Eio5IEhhcnBsZXkgQ3QsIExvbmdmb3JkIFZJQyAzODUxLCBBdXN0cmFsaWEiMBIuChQKEgk1P1TOiCgvaxF8tHnL-4brCRAJKhQKEgnD--LOiCgvaxFtim7ysnLpvg",
    "tech": "WIRELESS",
    "upgrade": "UNKNOWN",
    "gnaf_pid": "GAVIC412695592"
   }
  },
  {
   "type": "Feature",
   "geometry": {
    "type": "Point",
    "coordinates": [
     147.09427818,
     -38.16130113
    ]
   },
   "properties": {
    "name": "6925 GLENCOE ROAD LONGFORD 3851",
    "locID": "ChIJb2KIXa8oL2sR-kTRfXiTfvE",
    "tech": "WIRELESS",
    "upgrade": "UNKNOWN",
    "gnaf_pid": "GAVIC414651387"
   }
  },
  {
   "type": "Feature",
   "geometry": {
    "type": "Point",
    "coordinates": [
     147.12103645,
     -38.2308366
    ]
   },
   "properties": {
    "name": "6154 SEASPRAY ROAD LONGFORD 3851",
    "locID": "ChIJszpfnfMnL2sRJ7pRqeYsiAk",
    "tech": "WIRELESS",
    "upgrade": "UNKNOWN",
    "gnaf_pid": "GAVIC414651437"
   }
  },
  {
   "type": "Feature",
   "geometry": {
    "type": "Point",
    "coordinates": [
     147.12103645,
     -38.2308366
    ]
   },
   "properties": {
    "name": "6357 SEASPRAY ROAD LONGFORD 3851",
    "locID": "ChIJszpfnfMnL2sRlDLammRQO4k",
    "tech": "WIRELESS",
    "upgrade": "UNKNOWN",
    "gnaf_pid": "GAVIC414651442"
   }
  },
  {
   "type": "Feature",
   "geometry": {
    "type": "Point",
    "coordinates": [
     147.07488175,
     -38.16904765
    ]
   },
   "properties": {
    "name": "6032 BOGGY CREEK ROAD LONGFORD 3851",
    "locID": "ChIJccwrkusoL2sRmWOPu4SAGeE",
    "tech": "WIRELESS",
    "upgrade": "UNKNOWN",
    "gnaf_pid": "GAVIC414661138"
   }
  },
  {
   "type": "Feature",
   "geometry": {
    "type": "Point",
    "coordinates": [
     147.07488175,
     -38.16904765
    ]
   },
   "properties": {
    "name": "6031 BOGGY CREEK ROAD LONGFORD 3851",
    "locID": "ChIJccwrkusoL2sRl_zo1xBJF2k",
    "tech": "WIRELESS",
    "upgrade": "UNKNOWN",
    "gnaf_pid": "GAVIC414661139"
   }
  },
  {
   "type": "Feature",
   "geometry": {
    "type": "Point",
    "coordinates": [
     147.15934628,
     -38.19836791
    ]
   },
   "properties": {
    "name": "6854 MURTNAUGH ROAD LONGFORD 3851",
    "locID": "ChIJfRJiSe4mL2sRBwbMXj5GF9Q",
    "tech": "SATELLITE",
    "upgrade": "UNKNOWN",
    "gnaf_pid": "GAVIC414661202"
   }
  },
  {
   "type": "Feature",
   "geometry": {
    "type": "Point",
    "coordinates": [
     147.15934628,
     -38.19836791
    ]
   },
   "properties": {
    "name": "6805 MURTNAUGH ROAD LONGFORD 3851",
    "locID": "ChIJfRJiSe4mL2sRCSvjXmFrbxE",
    "tech": "SATELLITE",
    "upgrade": "UNKNOWN",
    "gnaf_pid": "GAVIC414661203"
   }
  },
  {
   "type": "Feature",
   "geometry": {
    "type": "Point",
    "coordinates": [
     147.09779018,
     -38.1660261
    ]
   },
   "properties": {
    "name": "13 EUSTACE ROAD LONGFORD 3851",
    "locID": "ChIJ-dVX76YoL2sRRn1OIqzaVQQ",
    "tech": "WIRELESS",
    "upgrade": "UNKNOWN",
    "gnaf_pid": "GAVIC414669504"
   }
  },
  {
   "type": "Feature",
   "geometry": {
    "type": "Point",
    "coordinates": [
     147.07124936,
     -38.16513661
    ]
   },
   "properties": {
    "name": "6039 FREEMANS ROAD LONGFORD 3851",
    "locID": "ChIJ66GRuOkoL2sRYSopIjwsdaA",
    "tech": "WIRELESS",
    "upgrade": "UNKNOWN",
    "gnaf_pid": "GAVIC414669505"
   }
  },
  {
   "type": "Feature",
   "geometry": {
    "type": "Point",
    "coordinates": [
     147.19362428,
     -38.27781474
    ]
   },
   "properties": {
    "name": "6412 HAWKINS ROAD LONGFORD 3851",
    "locID": "ChIJ36RPnUrfLmsReijacFJYP_Y",
    "tech": "SATELLITE",
    "upgrade": "UNKNOWN",
    "gnaf_pid": "GAVIC414691060"
   }
  },
  {
   "type": "Feature",
   "geometry": {
    "type": "Point",
    "coordinates": [
     147.19362428,
     -38.27781474
    ]
   },
   "properties": {
    "name": "6411 HAWKINS ROAD LONGFORD 3851",
    "locID": "ChIJ36RPnUrfLmsR4wk1F17EuNA",
    "tech": "SATELLITE",
    "upgrade": "UNKNOWN",
    "gnaf_pid": "GAVIC414691062"
   }
  },
  {
   "type": "Feature",
   "geometry": {
    "type": "Point",
    "coordinates": [
     147.19362428,
     -38.27781474
    ]
   },
   "properties": {
    "name": "6414 HAWKINS ROAD LONGFORD 3851",
    "locID": "ChIJ36RPnUrfLmsROS9XfunYuKA",
    "tech": "SATELLITE",
    "upgrade": "UNKNOWN",
    "gnaf_pid": "GAVIC414691064"
   }
  },
  {
   "type": "Feature",
   "geometry": {
    "type": "Point",
    "coordinates": [
     147.08485268,
     -38.1584328
    ]
   },
   "properties": {
    "name": "11 HIGH STREET LONGFORD 3851",
    "locID": "ChIJT0_KrrAoL2sR4u-5JGpLpy8",
    "tech": "WIRELESS",
    "upgrade": "UNKNOWN",
    "gnaf_pid": "GAVIC414691070"
   }
  },
  {
   "type": "Feature",
   "geometry": {
    "type": "Point",
    "coordinates": [
     147.12103645,
     -38.2308366
    ]
   },
   "properties": {
    "name": "6375 SEASPRAY ROAD LONGFORD 3851",
    "locID": "ChIJszpfnfMnL2sRqN3NOL0KmJk",
    "tech": "WIRELESS",
    "upgrade": "UNKNOWN",
    "gnaf_pid": "GAVIC414691085"
   }
  },
  {
   "type": "Feature",
   "geometry": {
    "type": "Point",
    "coordinates": [
     147.12103645,
     -38.2308366
    ]
   },
   "properties": {
    "name": "6195 SEASPRAY ROAD LONGFORD 3851",
    "locID": "ChIJszpfnfMnL2sRdfAVz9NmKDs",
    "tech": "WIRELESS",
    "upgrade": "UNKNOWN",
    "gnaf_pid": "GAVIC414691089"
   }
  },
  {
   "type": "Feature",
   "geometry": {
    "type": "Point",
    "coordinates": [
     147.12103645,
     -38.2308366
    ]
   },
   "properties": {
    "name": "6117 SEASPRAY ROAD LONGFORD 3851",
    "locID": "ChIJszpfnfMnL2sRLKK1XpQaDpg",
    "tech": "WIRELESS",
    "upgrade": "UNKNOWN",
    "gnaf_pid": "GAVIC414691091"
   }
  },
  {
   "type": "Feature",
   "geometry": {
    "type": "Point",
    "coordinates": [
     147.12103645,
     -38.2308366
    ]
   },
   "properties": {
    "name": "6410 SEASPRAY ROAD LONGFORD 3851",
    "locID": "ChIJszpfnfMnL2sREZ1BUuzB9vg",
    "tech": "WIRELESS",
    "upgrade": "UNKNOWN",
    "gnaf_pid": "GAVIC414691099"
   }
  },
  {
   "type": "Feature",
   "geometry": {
    "type": "Point",
    "coordinates": [
     147.12103645,
     -38.2308366
    ]
   },
   "properties": {
    "name": "6178 SEASPRAY ROAD LONGFORD 3851",
    "locID": "ChIJszpfnfMnL2sRw_80LhPT3vc",
    "tech": "WIRELESS",
    "upgrade": "UNKNOWN",
    "gnaf_pid": "GAVIC414691100"
   }
  },
  {
   "type": "Feature",
   "geometry": {
    "type": "Point",
    "coordinates": [
     147.12103645,
     -38.2308366
    ]
   },
   "properties": {
    "name": "6285 SEASPRAY ROAD LONGFORD 3851",
    "locID": "ChIJszpfnfMnL2sRbv-O0Esn8EQ",
    "tech": "WIRELESS",
    "upgrade": "UNKNOWN",
    "gnaf_pid": "GAVIC414691103"
   }
  },
  {
   "type": "Feature",
   "geometry": {
    "type": "Point",
    "coordinates": [
     147.12103645,
     -38.2308366
    ]
   },
   "properties": {
    "name": "6459 SEASPRAY ROAD LONGFORD 3851",
    "locID": "ChIJszpfnfMnL2sRDhqvKEdAq8o",
    "tech": "WIRELESS",
    "upgrade": "UNKNOWN",
    "gnaf_pid": "GAVIC414691104"
   }
  },
  {
   "type": "Feature",
   "geometry": {
    "type": "Point",
    "coordinates": [
     147.12103645,
     -38.2308366
    ]
   },
   "properties": {
    "name": "6510 SEASPRAY ROAD LONGFORD 3851",
    "locID": "ChIJszpfnfMnL2sRueflwwgkTTw",
    "tech": "WIRELESS",
    "upgrade": "UNKNOWN",
    "gnaf_pid": "GAVIC414691106"
   }
  },
  {
   "type": "Feature",
   "geometry": {
    "type": "Point",
    "coordinates": [
     147.12103645,
     -38.2308366
    ]
   },
   "properties": {
    "name": "6310 SEASPRAY ROAD LONGFORD 3851",
    "locID": "ChIJszpfnfMnL2sRHDlzqNO8JLQ",
    "tech": "WIRELESS",
    "upgrade": "UNKNOWN",
    "gnaf_pid": "GAVIC414691107"
   }
  },
  {
   "type": "Feature",
   "geometry": {
    "type": "Point",
    "coordinates": [
     147.08762422,
     -38.16137793
    ]
   },
   "properties": {
    "name": "6095 SPENCER STREET LONGFORD 3851",
    "locID": "ChIJu7-n8LooL2sRI7Zwm7GKEeY",
    "tech": "WIRELESS",
    "upgrade": "UNKNOWN",
    "gnaf_pid": "GAVIC414691114"
   }
  },
  {
   "type": "Feature",
   "geometry": {
    "type": "Point",
    "coordinates": [
     147.09386778,
     -38.17432919
    ]
   },
   "properties": {
    "name": "17 LORD COURT LONGFORD 3851",
    "locID": "ChIJE5vtE5koL2sRZf-l-uO4rPs",
    "tech": "WIRELESS",
    "upgrade": "UNKNOWN",
    "gnaf_pid": "GAVIC414691162"
   }
  },
  {
   "type": "Feature",
   "geometry": {
    "type": "Point",
    "coordinates": [
     147.09898025,
     -38.17599236
    ]
   },
   "properties": {
    "name": "29 WELLINGTON RISE LONGFORD 3851",
    "locID": "ChIJuytQXJ4oL2sRaj580WY897k",
    "tech": "WIRELESS",
    "upgrade": "UNKNOWN",
    "gnaf_pid": "GAVIC414691164"
   }
  },
  {
   "type": "Feature",
   "geometry": {
    "type": "Point",
    "coordinates": [
     147.09898025,
     -38.17599236
    ]
   },
   "properties": {
    "name": "31 WELLINGTON RISE LONGFORD 3851",
    "locID": "ChIJuytQXJ4oL2sRxoSq3MVWsWg",
    "tech": "WIRELESS",
    "upgrade": "UNKNOWN",
    "gnaf_pid": "GAVIC414691165"
   }
  },
  {
   "type": "Feature",
   "geometry": {
    "type": "Point",
    "coordinates": [
     147.09898025,
     -38.17599236
    ]
   },
   "properties": {
    "name": "32 WELLINGTON RISE LONGFORD 3851",
    "locID": "ChIJuytQXJ4oL2sR9jpLVSVdMoI",
    "tech": "WIRELESS",
    "upgrade": "UNKNOWN",
    "gnaf_pid": "GAVIC414691166"
   }
  },
  {
   "type": "Feature",
   "geometry": {
    "type": "Point",
    "coordinates": [
     147.09582548,
     -38.18335006
    ]
   },
   "properties": {
    "name": "1 EARLS COURT LONGFORD 3851",
    "locID": "LOC000055359800",
    "tech": "WIRELESS",
    "upgrade": "NULL_NA",
    "gnaf_pid": "GAVIC420958538"
   }
  },
  {
   "type": "Feature",
   "geometry": {
    "type": "Point",
    "coordinates": [
     147.09587436,
     -38.18342529
    ]
   },
   "properties": {
    "name": "3 EARLS COURT LONGFORD 3851",
    "locID": "LOC000055359800",
    "tech": "WIRELESS",
    "upgrade": "NULL_NA",
    "gnaf_pid": "GAVIC421589199"
   }
  },
  {
   "type": "Feature",
   "geometry": {
    "type": "Point",
    "coordinates": [
     147.09530375,
     -38.1838451
    ]
   },
   "properties": {
    "name": "4 EARLS COURT LONGFORD 3851",
    "locID": "LOC000125448601",
    "tech": "WIRELESS",
    "upgrade": "NULL_NA",
    "gnaf_pid": "GAVIC421589200"
   }
  },
  {
   "type": "Feature",
   "geometry": {
    "type": "Point",
    "coordinates": [
     147.14158789,
     -38.21721374
    ]
   },
   "properties": {
    "name": "309 GARRETTS ROAD LONGFORD 3851",
    "locID": "LOC000031095919",
    "tech": "WIRELESS",
    "upgrade": "NULL_NA",
    "gnaf_pid": "GAVIC421980382"
   }
  },
  {
   "type": "Feature",
   "geometry": {
    "type": "Point",
    "coordinates": [
     147.0980182,
     -38.16618316
    ]
   },
   "properties": {
    "name": "21 EUSTACE ROAD LONGFORD 3851",
    "locID": "LOC000004418904",
    "tech": "WIRELESS",
    "upgrade": "NULL_NA",
    "gnaf_pid": "GAVIC421982682"
   }
  },
  {
   "type": "Feature",
   "geometry": {
    "type": "Point",
    "coordinates": [
     147.17042734,
     -38.18047598
    ]
   },
   "properties": {
    "name": "292 VALE ROAD LONGFORD 3851",
    "locID": "LOC000017618792",
    "tech": "SATELLITE",
    "upgrade": "NULL_NA",
    "gnaf_pid": "GAVIC421997889"
   }
  },
  {
   "type": "Feature",
   "geometry": {
    "type": "Point",
    "coordinates": [
     147.0822685,
     -38.16975524
    ]
   },
   "properties": {
    "name": "48 ABELS ROAD LONGFORD 3851",
    "locID": "LOC000056232107",
    "tech": "WIRELESS",
    "upgrade": "NULL_NA",
    "gnaf_pid": "GAVIC421998781"
   }
  },
  {
   "type": "Feature",
   "geometry": {
    "type": "Point",
    "coordinates": [
     147.17027976,
     -38.19559043
    ]
   },
   "properties": {
    "name": "307 MURTNAUGH ROAD LONGFORD 3851",
    "locID": "LOC000094981841",
    "tech": "WIRELESS",
    "upgrade": "NULL_NA",
    "gnaf_pid": "GAVIC422000387"
   }
  },
  {
   "type": "Feature",
   "geometry": {
    "type": "Point",
    "coordinates": [
     147.09247676,
     -38.17143304
    ]
   },
   "properties": {
    "name": "40 HOBSONS ROAD LONGFORD 3851",
    "locID": "LOC000018149266",
    "tech": "WIRELESS",
    "upgrade": "NULL_NA",
    "gnaf_pid": "GAVIC422001314"
   }
  },
  {
   "type": "Feature",
   "geometry": {
    "type": "Point",
    "coordinates": [
     147.12103645,
     -38.2308366
    ]
   },
   "properties": {
    "name": "647 SEASPRAY ROAD LONGFORD 3851",
    "locID": "ChIJszpfnfMnL2sR3DU4eQkMAJo",
    "tech": "WIRELESS",
    "upgrade": "UNKNOWN",
    "gnaf_pid": "GAVIC422024484"
   }
  },
  {
   "type": "Feature",
   "geometry": {
    "type": "Point",
    "coordinates": [
     147.13367345,
     -38.18708465
    ]
   },
   "properties": {
    "name": "67 MERRICKS ROAD LONGFORD 3851",
    "locID": "LOC000065647923",
    "tech": "WIRELESS",
    "upgrade": "NULL_NA",
    "gnaf_pid": "GAVIC422024485"
   }
  },
  {
   "type": "Feature",
   "geometry": {
    "type": "Point",
    "coordinates": [
     147.13198196,
     -38.17971417
    ]
   },
   "properties": {
    "name": "454 LONGFORD-LOCH SPORT ROAD LONGFORD 3851",
    "locID": "LOC000045060441",
    "tech": "WIRELESS",
    "upgrade": "NULL_NA",
    "gnaf_pid": "GAVIC422024486"
   }
  },
  {
   "type": "Feature",
   "geometry": {
    "type": "Point",
    "coordinates": [
     147.13653813,
     -38.24144563
    ]
   },
   "properties": {
    "name": "67 CARRS CREEK ROAD LONGFORD 3851",
    "locID": "ChIJW_oxxYcnL2sRZkHGJmyklTw",
    "tech": "WIRELESS",
    "upgrade": "UNKNOWN",
    "gnaf_pid": "GAVIC422024487"
   }
  },
  {
   "type": "Feature",
   "geometry": {
    "type": "Point",
    "coordinates": [
     147.08749729,
     -38.16985061
    ]
   },
   "properties": {
    "name": "6377 SOUTH GIPPSLAND HIGHWAY LONGFORD 3851",
    "locID": "LOC000017071612",
    "tech": "WIRELESS",
    "upgrade": "NULL_NA",
    "gnaf_pid": "GAVIC422024491"
   }
  },
  {
   "type": "Feature",
   "geometry": {
    "type": "Point",
    "coordinates": [
     147.10941136,
     -38.21994288
    ]
   },
   "properties": {
    "name": "549 SEASPRAY ROAD LONGFORD 3851",
    "locID": "LOC000045119819",
    "tech": "SATELLITE",
    "upgrade": "NULL_NA",
    "gnaf_pid": "GAVIC422024579"
   }
  },
  {
   "type": "Feature",
   "geometry": {
    "type": "Point",
    "coordinates": [
     147.11045255,
     -38.22100539
    ]
   },
   "properties": {
    "name": "563 SEASPRAY ROAD LONGFORD 3851",
    "locID": "LOC000060335767",
    "tech": "WIRELESS",
    "upgrade": "NULL_NA",
    "gnaf_pid": "GAVIC422024580"
   }
  },
  {
   "type": "Feature",
   "geometry": {
    "type": "Point",
    "coordinates": [
     147.16853665,
     -38.25346028
    ]
   },
   "properties": {
    "name": "448 CARRS CREEK ROAD LONGFORD 3851",
    "locID": "LOC000050315847",
    "tech": "SATELLITE",
    "upgrade": "NULL_NA",
    "gnaf_pid": "GAVIC422024587"
   }
  },
  {
   "type": "Feature",
   "geometry": {
    "type": "Point",
    "coordinates": [
     147.17035979,
     -38.18088165
    ]
   },
   "properties": {
    "name": "290 VALE ROAD LONGFORD 3851",
    "locID": "LOC000030260985",
    "tech": "SATELLITE",
    "upgrade": "NULL_NA",
    "gnaf_pid": "GAVIC422024588"
   }
  },
  {
   "type": "Feature",
   "geometry": {
    "type": "Point",
    "coordinates": [
     147.08148854,
     -38.1870151
    ]
   },
   "properties": {
    "name": "6174 SOUTH GIPPSLAND HIGHWAY LONGFORD 3851",
    "locID": "LOC000108018427",
    "tech": "WIRELESS",
    "upgrade": "NULL_NA",
    "gnaf_pid": "GAVIC422024759"
   }
  },
  {
   "type": "Feature",
   "geometry": {
    "type": "Point",
    "coordinates": [
     147.08736095,
     -38.16081995
    ]
   },
   "properties": {
    "name": "5 ARDEN STREET LONGFORD 3851",
    "locID": "LOC000108010595",
    "tech": "WIRELESS",
    "upgrade": "NULL_NA",
    "gnaf_pid": "GAVIC422025218"
   }
  },
  {
   "type": "Feature",
   "geometry": {
    "type": "Point",
    "coordinates": [
     147.0942201,
     -38.19471501
    ]
   },
   "properties": {
    "name": "234 SEASPRAY ROAD LONGFORD 3851",
    "locID": "LOC000106745298",
    "tech": "WIRELESS",
    "upgrade": "NULL_NA",
    "gnaf_pid": "GAVIC422025361"
   }
  },
  {
   "type": "Feature",
   "geometry": {
    "type": "Point",
    "coordinates": [
     147.08772525,
     -38.16000855
    ]
   },
   "properties": {
    "name": "14 ARDEN STREET LONGFORD 3851",
    "locID": "LOC000056365687",
    "tech": "WIRELESS",
    "upgrade": "NULL_NA",
    "gnaf_pid": "GAVIC422025556"
   }
  },
  {
   "type": "Feature",
   "geometry": {
    "type": "Point",
    "coordinates": [
     147.09353359,
     -38.17439963
    ]
   },
   "properties": {
    "name": "1 LORD COURT LONGFORD 3851",
    "locID": "LOC000098389835",
    "tech": "WIRELESS",
    "upgrade": "NULL_NA",
    "gnaf_pid": "GAVIC422026514"
   }
  },
  {
   "type": "Feature",
   "geometry": {
    "type": "Point",
    "coordinates": [
     147.2064526,
     -38.29026394
    ]
   },
   "properties": {
    "name": "87 FIELDS ROAD LONGFORD 3851",
    "locID": "LOC000092948598",
    "tech": "SATELLITE",
    "upgrade": "NULL_NA",
    "gnaf_pid": "GAVIC422027203"
   }
  },
  {
   "type": "Feature",
   "geometry": {
    "type": "Point",
    "coordinates": [
     147.09384336,
     -38.19337995
    ]
   },
   "properties": {
    "name": "220 SEASPRAY ROAD LONGFORD 3851",
    "locID": "LOC000082725855",
    "tech": "WIRELESS",
    "upgrade": "NULL_NA",
    "gnaf_pid": "GAVIC422027205"
   }
  },
  {
   "type": "Feature",
   "geometry": {
    "type": "Point",
    "coordinates": [
     147.08454192,
     -38.19502083
    ]
   },
   "properties": {
    "name": "8 BREWER COURT LONGFORD 3851",
    "locID": "LOC000024210425",
    "tech": "WIRELESS",
    "upgrade": "NULL_NA",
    "gnaf_pid": "GAVIC422027947"
   }
  },
  {
   "type": "Feature",
   "geometry": {
    "type": "Point",
    "coordinates": [
     147.0263028,
     -38.16111065
    ]
   },
   "properties": {
    "name": "161 BURGANS ROAD LONGFORD 3851",
    "locID": "LOC000027052676",
    "tech": "SATELLITE",
    "upgrade": "NULL_NA",
    "gnaf_pid": "GAVIC422028203"
   }
  },
  {
   "type": "Feature",
   "geometry": {
    "type": "Point",
    "coordinates": [
     147.08777304,
     -38.1713285
    ]
   },
   "properties": {
    "name": "6361 SOUTH GIPPSLAND HIGHWAY LONGFORD 3851",
    "locID": "LOC000062125274",
    "tech": "WIRELESS",
    "upgrade": "NULL_NA",
    "gnaf_pid": "GAVIC422028241"
   }
  },
  {
   "type": "Feature",
   "geometry": {
    "type": "Point",
    "coordinates": [
     147.08194088,
     -38.18307623
    ]
   },
   "properties": {
    "name": "6217 SOUTH GIPPSLAND HIGHWAY LONGFORD 3851",
    "locID": "LOC000006138376",
    "tech": "WIRELESS",
    "upgrade": "NULL_NA",
    "gnaf_pid": "GAVIC422028307"
   }
  },
  {
   "type": "Feature",
   "geometry": {
    "type": "Point",
    "coordinates": [
     147.09259132,
     -38.17789102
    ]
   },
   "properties": {
    "name": "10 OLD COACH LANE LONGFORD 3851",
    "locID": "LOC000061490055",
    "tech": "WIRELESS",
    "upgrade": "NULL_NA",
    "gnaf_pid": "GAVIC422028751"
   }
  },
  {
   "type": "Feature",
   "geometry": {
    "type": "Point",
    "coordinates": [
     147.07554022,
     -38.16170321
    ]
   },
   "properties": {
    "name": "2631 ROSEDALE-LONGFORD ROAD LONGFORD 3851",
    "locID": "LOC000085080805",
    "tech": "WIRELESS",
    "upgrade": "NULL_NA",
    "gnaf_pid": "GAVIC422030133"
   }
  },
  {
   "type": "Feature",
   "geometry": {
    "type": "Point",
    "coordinates": [
     147.08589227,
     -38.15828293
    ]
   },
   "properties": {
    "name": "26 CLIFFORD STREET LONGFORD 3851",
    "locID": "ChIJR_g4lrAoL2sR5ldSdF21yow",
    "tech": "WIRELESS",
    "upgrade": "UNKNOWN",
    "gnaf_pid": "GAVIC422030136"
   }
  },
  {
   "type": "Feature",
   "geometry": {
    "type": "Point",
    "coordinates": [
     147.12990103,
     -38.24121957
    ]
   },
   "properties": {
    "name": "10 CARRS CREEK ROAD LONGFORD 3851",
    "locID": "ChIJ6SsqxXbYLmsRBFHGyHOzvbE",
    "tech": "SATELLITE",
    "upgrade": "UNKNOWN",
    "gnaf_pid": "GAVIC422030140"
   }
  },
  {
   "type": "Feature",
   "geometry": {
    "type": "Point",
    "coordinates": [
     147.09799868,
     -38.18155779
    ]
   },
   "properties": {
    "name": "69 ANDREWS ROAD LONGFORD 3851",
    "locID": "LOC000045580105",
    "tech": "WIRELESS",
    "upgrade": "NULL_NA",
    "gnaf_pid": "GAVIC422030348"
   }
  },
  {
   "type": "Feature",
   "geometry": {
    "type": "Point",
    "coordinates": [
     147.09045875,
     -38.18288976
    ]
   },
   "properties": {
    "name": "100 SEASPRAY ROAD LONGFORD 3851",
    "locID": "LOC000027774066",
    "tech": "WIRELESS",
    "upgrade": "NULL_NA",
    "gnaf_pid": "GAVIC422030714"
   }
  },
  {
   "type": "Feature",
   "geometry": {
    "type": "Point",
    "coordinates": [
     147.07839359,
     -38.19735476
    ]
   },
   "properties": {
    "name": "6056 SOUTH GIPPSLAND HIGHWAY LONGFORD 3851",
    "locID": "LOC000052398863",
    "tech": "WIRELESS",
    "upgrade": "NULL_NA",
    "gnaf_pid": "GAVIC422030810"
   }
  },
  {
   "type": "Feature",
   "geometry": {
    "type": "Point",
    "coordinates": [
     147.09199683,
     -38.16196105
    ]
   },
   "properties": {
    "name": "17A GLENCOE ROAD LONGFORD 3851",
    "locID": "LOC000074487963",
    "tech": "WIRELESS",
    "upgrade": "NULL_NA",
    "gnaf_pid": "GAVIC422030912"
   }
  },
  {
   "type": "Feature",
   "geometry": {
    "type": "Point",
    "coordinates": [
     147.08712445,
     -38.19238265
    ]
   },
   "properties": {
    "name": "106 GERRAND DRIVE LONGFORD 3851",
    "locID": "LOC000060385184",
    "tech": "WIRELESS",
    "upgrade": "NULL_NA",
    "gnaf_pid": "GAVIC422031944"
   }
  },
  {
   "type": "Feature",
   "geometry": {
    "type": "Point",
    "coordinates": [
     147.08320755,
     -38.19397459
    ]
   },
   "properties": {
    "name": "53 GERRAND DRIVE LONGFORD 3851",
    "locID": "LOC000017723187",
    "tech": "WIRELESS",
    "upgrade": "NULL_NA",
    "gnaf_pid": "GAVIC422031954"
   }
  },
  {
   "type": "Feature",
   "geometry": {
    "type": "Point",
    "coordinates": [
     147.0810097,
     -38.19806501
    ]
   },
   "properties": {
    "name": "33 BOUNDARY CREEK ROAD LONGFORD 3851",
    "locID": "LOC000062080572",
    "tech": "WIRELESS",
    "upgrade": "NULL_NA",
    "gnaf_pid": "GAVIC422032846"
   }
  },
  {
   "type": "Feature",
   "geometry": {
    "type": "Point",
    "coordinates": [
     147.15779238,
     -38.27276481
    ]
   },
   "properties": {
    "name": "75 HAWKINS ROAD LONGFORD 3851",
    "locID": "LOC000036009971",
    "tech": "SATELLITE",
    "upgrade": "NULL_NA",
    "gnaf_pid": "GAVIC422033729"
   }
  },
  {
   "type": "Feature",
   "geometry": {
    "type": "Point",
    "coordinates": [
     147.07424327,
     -38.17692581
    ]
   },
   "properties": {
    "name": "175 BOGGY CREEK ROAD LONGFORD 3851",
    "locID": "LOC000017625174",
    "tech": "WIRELESS",
    "upgrade": "NULL_NA",
    "gnaf_pid": "GAVIC422033859"
   }
  },
  {
   "type": "Feature",
   "geometry": {
    "type": "Point",
    "coordinates": [
     147.09455249,
     -38.19217938
    ]
   },
   "properties": {
    "name": "6 CLARK COURT LONGFORD 3851",
    "locID": "ChIJXaHhy30oL2sRTEx3s88393w",
    "tech": "WIRELESS",
    "upgrade": "UNKNOWN",
    "gnaf_pid": "GAVIC422084731"
   }
  },
  {
   "type": "Feature",
   "geometry": {
    "type": "Point",
    "coordinates": [
     147.0858194,
     -38.17012224
    ]
   },
   "properties": {
    "name": "18 ABELS ROAD LONGFORD 3851",
    "locID": "LOC000100837789",
    "tech": "WIRELESS",
    "upgrade": "NULL_NA",
    "gnaf_pid": "GAVIC422121886"
   }
  },
  {
   "type": "Feature",
   "geometry": {
    "type": "Point",
    "coordinates": [
     147.08431275,
     -38.1704027
    ]
   },
   "properties": {
    "name": "29 ABELS ROAD LONGFORD 3851",
    "locID": "LOC000007977842",
    "tech": "WIRELESS",
    "upgrade": "NULL_NA",
    "gnaf_pid": "GAVIC422121887"
   }
  },
  {
   "type": "Feature",
   "geometry": {
    "type": "Point",
    "coordinates": [
     147.08212059,
     -38.17019698
    ]
   },
   "properties": {
    "name": "49 ABELS ROAD LONGFORD 3851",
    "locID": "LOC000011886943",
    "tech": "WIRELESS",
    "upgrade": "NULL_NA",
    "gnaf_pid": "GAVIC422121888"
   }
  },
  {
   "type": "Feature",
   "geometry": {
    "type": "Point",
    "coordinates": [
     147.07952878,
     -38.16991935
    ]
   },
   "properties": {
    "name": "73 ABELS ROAD LONGFORD 3851",
    "locID": "ChIJd7JOt5QoL2sRwWMne2mYTNU",
    "tech": "WIRELESS",
    "upgrade": "UNKNOWN",
    "gnaf_pid": "GAVIC422121889"
   }
  },
  {
   "type": "Feature",
   "geometry": {
    "type": "Point",
    "coordinates": [
     147.09083338,
     -38.181132
    ]
   },
   "properties": {
    "name": "10 ANDREWS ROAD LONGFORD 3851",
    "locID": "ChIJU68NcoUoL2sR__Ihi3a3F0o",
    "tech": "WIRELESS",
    "upgrade": "UNKNOWN",
    "gnaf_pid": "GAVIC422123455"
   }
  },
  {
   "type": "Feature",
   "geometry": {
    "type": "Point",
    "coordinates": [
     147.09159846,
     -38.18118548
    ]
   },
   "properties": {
    "name": "12 ANDREWS ROAD LONGFORD 3851",
    "locID": "LOC000077031322",
    "tech": "WIRELESS",
    "upgrade": "NULL_NA",
    "gnaf_pid": "GAVIC422123456"
   }
  },
  {
   "type": "Feature",
   "geometry": {
    "type": "Point",
    "coordinates": [
     147.1073242,
     -38.18328121
    ]
   },
   "properties": {
    "name": "152 ANDREWS ROAD LONGFORD 3851",
    "locID": "LOC000068425678",
    "tech": "WIRELESS",
    "upgrade": "NULL_NA",
    "gnaf_pid": "GAVIC422123457"
   }
  },
  {
   "type": "Feature",
   "geometry": {
    "type": "Point",
    "coordinates": [
     147.09214806,
     -38.18081418
    ]
   },
   "properties": {
    "name": "15 ANDREWS ROAD LONGFORD 3851",
    "locID": "LOC000078813775",
    "tech": "WIRELESS",
    "upgrade": "NULL_NA",
    "gnaf_pid": "GAVIC422123458"
   }
  },
  {
   "type": "Feature",
   "geometry": {
    "type": "Point",
    "coordinates": [
     147.09275194,
     -38.18138288
    ]
   },
   "properties": {
    "name": "22 ANDREWS ROAD LONGFORD 3851",
    "locID": "LOC000004404967",
    "tech": "WIRELESS",
    "upgrade": "NULL_NA",
    "gnaf_pid": "GAVIC422123459"
   }
  },
  {
   "type": "Feature",
   "geometry": {
    "type": "Point",
    "coordinates": [
     147.0940677,
     -38.18111548
    ]
   },
   "properties": {
    "name": "33 ANDREWS ROAD LONGFORD 3851",
    "locID": "LOC000094897516",
    "tech": "WIRELESS",
    "upgrade": "NULL_NA",
    "gnaf_pid": "GAVIC422123460"
   }
  },
  {
   "type": "Feature",
   "geometry": {
    "type": "Point",
    "coordinates": [
     147.09387111,
     -38.1815442
    ]
   },
   "properties": {
    "name": "34 ANDREWS ROAD LONGFORD 3851",
    "locID": "LOC000057617191",
    "tech": "WIRELESS",
    "upgrade": "NULL_NA",
    "gnaf_pid": "GAVIC422123461"
   }
  },
  {
   "type": "Feature",
   "geometry": {
    "type": "Point",
    "coordinates": [
     147.09503515,
     -38.18106561
    ]
   },
   "properties": {
    "name": "43 ANDREWS ROAD LONGFORD 3851",
    "locID": "LOC000057504452",
    "tech": "WIRELESS",
    "upgrade": "NULL_NA",
    "gnaf_pid": "GAVIC422123462"
   }
  },
  {
   "type": "Feature",
   "geometry": {
    "type": "Point",
    "coordinates": [
     147.08778276,
     -38.16037803
    ]
   },
   "properties": {
    "name": "10 ARDEN STREET LONGFORD 3851",
    "locID": "LOC000005169077",
    "tech": "WIRELESS",
    "upgrade": "NULL_NA",
    "gnaf_pid": "GAVIC422123902"
   }
  },
  {
   "type": "Feature",
   "geometry": {
    "type": "Point",
    "coordinates": [
     147.08726875,
     -38.16009
    ]
   },
   "properties": {
    "name": "13 ARDEN STREET LONGFORD 3851",
    "locID": "LOC000100892660",
    "tech": "WIRELESS",
    "upgrade": "NULL_NA",
    "gnaf_pid": "GAVIC422123903"
   }
  },
  {
   "type": "Feature",
   "geometry": {
    "type": "Point",
    "coordinates": [
     147.0874138,
     -38.15980112
    ]
   },
   "properties": {
    "name": "34 ARDEN STREET LONGFORD 3851",
    "locID": "ChIJVTwmgbooL2sR0MxEMfJPwP4",
    "tech": "WIRELESS",
    "upgrade": "UNKNOWN",
    "gnaf_pid": "GAVIC422123905"
   }
  },
  {
   "type": "Feature",
   "geometry": {
    "type": "Point",
    "coordinates": [
     147.0874297,
     -38.1610272
    ]
   },
   "properties": {
    "name": "3 ARDEN STREET LONGFORD 3851",
    "locID": "LOC000065564890",
    "tech": "WIRELESS",
    "upgrade": "NULL_NA",
    "gnaf_pid": "GAVIC422123906"
   }
  },
  {
   "type": "Feature",
   "geometry": {
    "type": "Point",
    "coordinates": [
     147.0874138,
     -38.15980112
    ]
   },
   "properties": {
    "name": "4 ARDEN STREET LONGFORD 3851",
    "locID": "Eig0IEFyZGVuIFN0LCBMb25nZm9yZCBWSUMgMzg1MSwgQXVzdHJhbGlhIjASLgoUChIJt8U7ibooL2sRsFilDqR5BRMQBCoUChIJe8QfgbooL2sRBEf-_QYj8yo",
    "tech": "WIRELESS",
    "upgrade": "UNKNOWN",
    "gnaf_pid": "GAVIC422123907"
   }
  },
  {
   "type": "Feature",
   "geometry": {
    "type": "Point",
    "coordinates": [
     147.08784192,
     -38.16058896
    ]
   },
   "properties": {
    "name": "8 ARDEN STREET LONGFORD 3851",
    "locID": "LOC000019326616",
    "tech": "WIRELESS",
    "upgrade": "NULL_NA",
    "gnaf_pid": "GAVIC422123908"
   }
  },
  {
   "type": "Feature",
   "geometry": {
    "type": "Point",
    "coordinates": [
     147.08900295,
     -38.15937669
    ]
   },
   "properties": {
    "name": "30 AUDLEY STREET LONGFORD 3851",
    "locID": "LOC000081135836",
    "tech": "WIRELESS",
    "upgrade": "NULL_NA",
    "gnaf_pid": "GAVIC422124758"
   }
  },
  {
   "type": "Feature",
   "geometry": {
    "type": "Point",
    "coordinates": [
     147.07549817,
     -38.16398901
    ]
   },
   "properties": {
    "name": "21 BOGGY CREEK ROAD LONGFORD 3851",
    "locID": "LOC000028782534",
    "tech": "WIRELESS",
    "upgrade": "NULL_NA",
    "gnaf_pid": "GAVIC422129185"
   }
  },
  {
   "type": "Feature",
   "geometry": {
    "type": "Point",
    "coordinates": [
     147.07529984,
     -38.16513635
    ]
   },
   "properties": {
    "name": "31 BOGGY CREEK ROAD LONGFORD 3851",
    "locID": "LOC000010973080",
    "tech": "WIRELESS",
    "upgrade": "NULL_NA",
    "gnaf_pid": "GAVIC422129186"
   }
  },
  {
   "type": "Feature",
   "geometry": {
    "type": "Point",
    "coordinates": [
     147.07509334,
     -38.16586213
    ]
   },
   "properties": {
    "name": "41 BOGGY CREEK ROAD LONGFORD 3851",
    "locID": "LOC000005295103",
    "tech": "WIRELESS",
    "upgrade": "NULL_NA",
    "gnaf_pid": "GAVIC422129187"
   }
  },
  {
   "type": "Feature",
   "geometry": {
    "type": "Point",
    "coordinates": [
     147.07471164,
     -38.16784463
    ]
   },
   "properties": {
    "name": "63 BOGGY CREEK ROAD LONGFORD 3851",
    "locID": "LOC000001941598",
    "tech": "WIRELESS",
    "upgrade": "NULL_NA",
    "gnaf_pid": "GAVIC422129188"
   }
  },
  {
   "type": "Feature",
   "geometry": {
    "type": "Point",
    "coordinates": [
     147.07391462,
     -38.16872852
    ]
   },
   "properties": {
    "name": "74 BOGGY CREEK ROAD LONGFORD 3851",
    "locID": "LOC000114471838",
    "tech": "WIRELESS",
    "upgrade": "NULL_NA",
    "gnaf_pid": "GAVIC422129189"
   }
  },
  {
   "type": "Feature",
   "geometry": {
    "type": "Point",
    "coordinates": [
     147.07569087,
     -38.16308202
    ]
   },
   "properties": {
    "name": "9 BOGGY CREEK ROAD LONGFORD 3851",
    "locID": "LOC000169962987",
    "tech": "WIRELESS",
    "upgrade": "NULL_NA",
    "gnaf_pid": "GAVIC422129190"
   }
  },
  {
   "type": "Feature",
   "geometry": {
    "type": "Point",
    "coordinates": [
     147.09266058,
     -38.19947143
    ]
   },
   "properties": {
    "name": "135 BOUNDARY CREEK ROAD LONGFORD 3851",
    "locID": "LOC000005081067",
    "tech": "WIRELESS",
    "upgrade": "NULL_NA",
    "gnaf_pid": "GAVIC422129838"
   }
  },
  {
   "type": "Feature",
   "geometry": {
    "type": "Point",
    "coordinates": [
     147.09727534,
     -38.19999946
    ]
   },
   "properties": {
    "name": "175 BOUNDARY CREEK ROAD LONGFORD 3851",
    "locID": "LOC000062377667",
    "tech": "WIRELESS",
    "upgrade": "NULL_NA",
    "gnaf_pid": "GAVIC422129839"
   }
  },
  {
   "type": "Feature",
   "geometry": {
    "type": "Point",
    "coordinates": [
     147.07962301,
     -38.19799181
    ]
   },
   "properties": {
    "name": "19 BOUNDARY CREEK ROAD LONGFORD 3851",
    "locID": "LOC000105894636",
    "tech": "WIRELESS",
    "upgrade": "NULL_NA",
    "gnaf_pid": "GAVIC422129840"
   }
  },
  {
   "type": "Feature",
   "geometry": {
    "type": "Point",
    "coordinates": [
     147.10420966,
     -38.2012463
    ]
   },
   "properties": {
    "name": "238 BOUNDARY CREEK ROAD LONGFORD 3851",
    "locID": "LOC000056406404",
    "tech": "WIRELESS",
    "upgrade": "NULL_NA",
    "gnaf_pid": "GAVIC422129841"
   }
  },
  {
   "type": "Feature",
   "geometry": {
    "type": "Point",
    "coordinates": [
     147.10628876,
     -38.20155088
    ]
   },
   "properties": {
    "name": "258 BOUNDARY CREEK ROAD LONGFORD 3851",
    "locID": "LOC000075274078",
    "tech": "WIRELESS",
    "upgrade": "NULL_NA",
    "gnaf_pid": "GAVIC422129842"
   }
  },
  {
   "type": "Feature",
   "geometry": {
    "type": "Point",
    "coordinates": [
     147.107045,
     -38.20110559
    ]
   },
   "properties": {
    "name": "263 BOUNDARY CREEK ROAD LONGFORD 3851",
    "locID": "LOC000012081908",
    "tech": "WIRELESS",
    "upgrade": "NULL_NA",
    "gnaf_pid": "GAVIC422129843"
   }
  },
  {
   "type": "Feature",
   "geometry": {
    "type": "Point",
    "coordinates": [
     147.10773949,
     -38.20171179
    ]
   },
   "properties": {
    "name": "270 BOUNDARY CREEK ROAD LONGFORD 3851",
    "locID": "LOC000093775656",
    "tech": "WIRELESS",
    "upgrade": "NULL_NA",
    "gnaf_pid": "GAVIC422129844"
   }
  },
  {
   "type": "Feature",
   "geometry": {
    "type": "Point",
    "coordinates": [
     147.11756279,
     -38.20233329
    ]
   },
   "properties": {
    "name": "357 BOUNDARY CREEK ROAD LONGFORD 3851",
    "locID": "LOC000019568731",
    "tech": "WIRELESS",
    "upgrade": "NULL_NA",
    "gnaf_pid": "GAVIC422129845"
   }
  },
  {
   "type": "Feature",
   "geometry": {
    "type": "Point",
    "coordinates": [
     147.0828372,
     -38.19823499
    ]
   },
   "properties": {
    "name": "49 BOUNDARY CREEK ROAD LONGFORD 3851",
    "locID": "LOC000039423637",
    "tech": "WIRELESS",
    "upgrade": "NULL_NA",
    "gnaf_pid": "GAVIC422129846"
   }
  },
  {
   "type": "Feature",
   "geometry": {
    "type": "Point",
    "coordinates": [
     147.08708303,
     -38.19885946
    ]
   },
   "properties": {
    "name": "85 BOUNDARY CREEK ROAD LONGFORD 3851",
    "locID": "LOC000002794703",
    "tech": "WIRELESS",
    "upgrade": "NULL_NA",
    "gnaf_pid": "GAVIC422129847"
   }
  },
  {
   "type": "Feature",
   "geometry": {
    "type": "Point",
    "coordinates": [
     147.08784864,
     -38.1988873
    ]
   },
   "properties": {
    "name": "91 BOUNDARY CREEK ROAD LONGFORD 3851",
    "locID": "LOC000048474060",
    "tech": "WIRELESS",
    "upgrade": "NULL_NA",
    "gnaf_pid": "GAVIC422129848"
   }
  },
  {
   "type": "Feature",
   "geometry": {
    "type": "Point",
    "coordinates": [
     147.08226513,
     -38.1565516
    ]
   },
   "properties": {
    "name": "12 BRENNANS ROAD LONGFORD 3851",
    "locID": "LOC000103288805",
    "tech": "WIRELESS",
    "upgrade": "NULL_NA",
    "gnaf_pid": "GAVIC422130572"
   }
  },
  {
   "type": "Feature",
   "geometry": {
    "type": "Point",
    "coordinates": [
     147.08175155,
     -38.15661504
    ]
   },
   "properties": {
    "name": "18 BRENNANS ROAD LONGFORD 3851",
    "locID": "LOC000092914545",
    "tech": "WIRELESS",
    "upgrade": "NULL_NA",
    "gnaf_pid": "GAVIC422130573"
   }
  },
  {
   "type": "Feature",
   "geometry": {
    "type": "Point",
    "coordinates": [
     147.0818777,
     -38.1571467
    ]
   },
   "properties": {
    "name": "21 BRENNANS ROAD LONGFORD 3851",
    "locID": "LOC000038864076",
    "tech": "WIRELESS",
    "upgrade": "NULL_NA",
    "gnaf_pid": "GAVIC422130574"
   }
  },
  {
   "type": "Feature",
   "geometry": {
    "type": "Point",
    "coordinates": [
     147.0808629,
     -38.15855349
    ]
   },
   "properties": {
    "name": "39 BRENNANS ROAD LONGFORD 3851",
    "locID": "LOC000009355959",
    "tech": "WIRELESS",
    "upgrade": "NULL_NA",
    "gnaf_pid": "GAVIC422130575"
   }
  },
  {
   "type": "Feature",
   "geometry": {
    "type": "Point",
    "coordinates": [
     147.08350953,
     -38.15678505
    ]
   },
   "properties": {
    "name": "3 BRENNANS ROAD LONGFORD 3851",
    "locID": "LOC000002044042",
    "tech": "WIRELESS",
    "upgrade": "NULL_NA",
    "gnaf_pid": "GAVIC422130576"
   }
  },
  {
   "type": "Feature",
   "geometry": {
    "type": "Point",
    "coordinates": [
     147.08072668,
     -38.15880585
    ]
   },
   "properties": {
    "name": "41 BRENNANS ROAD LONGFORD 3851",
    "locID": "LOC000125398999",
    "tech": "WIRELESS",
    "upgrade": "NULL_NA",
    "gnaf_pid": "GAVIC422130577"
   }
  },
  {
   "type": "Feature",
   "geometry": {
    "type": "Point",
    "coordinates": [
     147.08269928,
     -38.15692081
    ]
   },
   "properties": {
    "name": "9 BRENNANS ROAD LONGFORD 3851",
    "locID": "LOC000075992599",
    "tech": "WIRELESS",
    "upgrade": "NULL_NA",
    "gnaf_pid": "GAVIC422130578"
   }
  },
  {
   "type": "Feature",
   "geometry": {
    "type": "Point",
    "coordinates": [
     147.08528845,
     -38.19462816
    ]
   },
   "properties": {
    "name": "13 BREWER COURT LONGFORD 3851",
    "locID": "LOC000097101100",
    "tech": "WIRELESS",
    "upgrade": "NULL_NA",
    "gnaf_pid": "GAVIC422130601"
   }
  },
  {
   "type": "Feature",
   "geometry": {
    "type": "Point",
    "coordinates": [
     147.0858487,
     -38.19517754
    ]
   },
   "properties": {
    "name": "18 BREWER COURT LONGFORD 3851",
    "locID": "LOC000107990679",
    "tech": "WIRELESS",
    "upgrade": "NULL_NA",
    "gnaf_pid": "GAVIC422130602"
   }
  },
  {
   "type": "Feature",
   "geometry": {
    "type": "Point",
    "coordinates": [
     147.08673762,
     -38.19483363
    ]
   },
   "properties": {
    "name": "25 BREWER COURT LONGFORD 3851",
    "locID": "LOC000066089637",
    "tech": "WIRELESS",
    "upgrade": "NULL_NA",
    "gnaf_pid": "GAVIC422130603"
   }
  },
  {
   "type": "Feature",
   "geometry": {
    "type": "Point",
    "coordinates": [
     147.08678514,
     -38.19515881
    ]
   },
   "properties": {
    "name": "26 BREWER COURT LONGFORD 3851",
    "locID": "LOC000002790369",
    "tech": "WIRELESS",
    "upgrade": "NULL_NA",
    "gnaf_pid": "GAVIC422130604"
   }
  },
  {
   "type": "Feature",
   "geometry": {
    "type": "Point",
    "coordinates": [
     147.14714706,
     -38.24353275
    ]
   },
   "properties": {
    "name": "160 CARRS CREEK ROAD LONGFORD 3851",
    "locID": "LOC000017651880",
    "tech": "SATELLITE",
    "upgrade": "NULL_NA",
    "gnaf_pid": "GAVIC422134635"
   }
  },
  {
   "type": "Feature",
   "geometry": {
    "type": "Point",
    "coordinates": [
     147.1309615,
     -38.24143395
    ]
   },
   "properties": {
    "name": "18 CARRS CREEK ROAD LONGFORD 3851",
    "locID": "LOC000106667124",
    "tech": "SATELLITE",
    "upgrade": "NULL_NA",
    "gnaf_pid": "GAVIC422134636"
   }
  },
  {
   "type": "Feature",
   "geometry": {
    "type": "Point",
    "coordinates": [
     147.15271398,
     -38.2442737
    ]
   },
   "properties": {
    "name": "210 CARRS CREEK ROAD LONGFORD 3851",
    "locID": "LOC000071678169",
    "tech": "SATELLITE",
    "upgrade": "NULL_NA",
    "gnaf_pid": "GAVIC422134637"
   }
  },
  {
   "type": "Feature",
   "geometry": {
    "type": "Point",
    "coordinates": [
     147.17044793,
     -38.24820585
    ]
   },
   "properties": {
    "name": "389 CARRS CREEK ROAD LONGFORD 3851",
    "locID": "LOC000072891729",
    "tech": "SATELLITE",
    "upgrade": "NULL_NA",
    "gnaf_pid": "GAVIC422134638"
   }
  },
  {
   "type": "Feature",
   "geometry": {
    "type": "Point",
    "coordinates": [
     147.16864993,
     -38.2530185
    ]
   },
   "properties": {
    "name": "446 CARRS CREEK ROAD LONGFORD 3851",
    "locID": "LOC000037873437",
    "tech": "SATELLITE",
    "upgrade": "NULL_NA",
    "gnaf_pid": "GAVIC422134639"
   }
  },
  {
   "type": "Feature",
   "geometry": {
    "type": "Point",
    "coordinates": [
     147.16990098,
     -38.2538305
    ]
   },
   "properties": {
    "name": "456 CARRS CREEK ROAD LONGFORD 3851",
    "locID": "LOC000061183313",
    "tech": "SATELLITE",
    "upgrade": "NULL_NA",
    "gnaf_pid": "GAVIC422134640"
   }
  },
  {
   "type": "Feature",
   "geometry": {
    "type": "Point",
    "coordinates": [
     147.19041898,
     -38.26084182
    ]
   },
   "properties": {
    "name": "654 CARRS CREEK ROAD LONGFORD 3851",
    "locID": "ChIJgwhFHa3YLmsR6yqiF5nZvRY",
    "tech": "SATELLITE",
    "upgrade": "UNKNOWN",
    "gnaf_pid": "GAVIC422134641"
   }
  },
  {
   "type": "Feature",
   "geometry": {
    "type": "Point",
    "coordinates": [
     147.19209063,
     -38.26075537
    ]
   },
   "properties": {
    "name": "663 CARRS CREEK ROAD LONGFORD 3851",
    "locID": "LOC000092290870",
    "tech": "SATELLITE",
    "upgrade": "NULL_NA",
    "gnaf_pid": "GAVIC422134642"
   }
  },
  {
   "type": "Feature",
   "geometry": {
    "type": "Point",
    "coordinates": [
     147.19682134,
     -38.26312689
    ]
   },
   "properties": {
    "name": "714 CARRS CREEK ROAD LONGFORD 3851",
    "locID": "LOC000004292177",
    "tech": "SATELLITE",
    "upgrade": "NULL_NA",
    "gnaf_pid": "GAVIC422134643"
   }
  },
  {
   "type": "Feature",
   "geometry": {
    "type": "Point",
    "coordinates": [
     147.19850025,
     -38.26323093
    ]
   },
   "properties": {
    "name": "729 CARRS CREEK ROAD LONGFORD 3851",
    "locID": "LOC000080824700",
    "tech": "SATELLITE",
    "upgrade": "NULL_NA",
    "gnaf_pid": "GAVIC422134644"
   }
  },
  {
   "type": "Feature",
   "geometry": {
    "type": "Point",
    "coordinates": [
     147.20086968,
     -38.26439855
    ]
   },
   "properties": {
    "name": "755 CARRS CREEK ROAD LONGFORD 3851",
    "locID": "LOC000094707908",
    "tech": "SATELLITE",
    "upgrade": "NULL_NA",
    "gnaf_pid": "GAVIC422134645"
   }
  },
  {
   "type": "Feature",
   "geometry": {
    "type": "Point",
    "coordinates": [
     147.13756833,
     -38.24236371
    ]
   },
   "properties": {
    "name": "78 CARRS CREEK ROAD LONGFORD 3851",
    "locID": "LOC000104723503",
    "tech": "WIRELESS",
    "upgrade": "NULL_NA",
    "gnaf_pid": "GAVIC422134646"
   }
  },
  {
   "type": "Feature",
   "geometry": {
    "type": "Point",
    "coordinates": [
     147.09625192,
     -38.19158753
    ]
   },
   "properties": {
    "name": "24 CLARK COURT LONGFORD 3851",
    "locID": "LOC000039058842",
    "tech": "WIRELESS",
    "upgrade": "NULL_NA",
    "gnaf_pid": "GAVIC422136866"
   }
  },
  {
   "type": "Feature",
   "geometry": {
    "type": "Point",
    "coordinates": [
     147.09699005,
     -38.19152775
    ]
   },
   "properties": {
    "name": "27 CLARK COURT LONGFORD 3851",
    "locID": "LOC000077100256",
    "tech": "WIRELESS",
    "upgrade": "NULL_NA",
    "gnaf_pid": "GAVIC422136867"
   }
  },
  {
   "type": "Feature",
   "geometry": {
    "type": "Point",
    "coordinates": [
     147.09679624,
     -38.19178026
    ]
   },
   "properties": {
    "name": "28 CLARK COURT LONGFORD 3851",
    "locID": "LOC000089912274",
    "tech": "WIRELESS",
    "upgrade": "NULL_NA",
    "gnaf_pid": "GAVIC422136868"
   }
  },
  {
   "type": "Feature",
   "geometry": {
    "type": "Point",
    "coordinates": [
     147.09444436,
     -38.19223281
    ]
   },
   "properties": {
    "name": "4 CLARK COURT LONGFORD 3851",
    "locID": "LOC000047242153",
    "tech": "WIRELESS",
    "upgrade": "NULL_NA",
    "gnaf_pid": "GAVIC422136870"
   }
  },
  {
   "type": "Feature",
   "geometry": {
    "type": "Point",
    "coordinates": [
     147.08589227,
     -38.15828293
    ]
   },
   "properties": {
    "name": "28 CLIFFORD STREET LONGFORD 3851",
    "locID": "ChIJR_g4lrAoL2sRj3H9zZBcNPU",
    "tech": "WIRELESS",
    "upgrade": "UNKNOWN",
    "gnaf_pid": "GAVIC422137154"
   }
  },
  {
   "type": "Feature",
   "geometry": {
    "type": "Point",
    "coordinates": [
     147.08589227,
     -38.15828293
    ]
   },
   "properties": {
    "name": "32 CLIFFORD STREET LONGFORD 3851",
    "locID": "ChIJR_g4lrAoL2sRFBiNXwpNx34",
    "tech": "WIRELESS",
    "upgrade": "UNKNOWN",
    "gnaf_pid": "GAVIC422137155"
   }
  },
  {
   "type": "Feature",
   "geometry": {
    "type": "Point",
    "coordinates": [
     147.09934124,
     -38.18584159
    ]
   },
   "properties": {
    "name": "163 COBB ROAD LONGFORD 3851",
    "locID": "LOC000024796264",
    "tech": "WIRELESS",
    "upgrade": "NULL_NA",
    "gnaf_pid": "GAVIC422137388"
   }
  },
  {
   "type": "Feature",
   "geometry": {
    "type": "Point",
    "coordinates": [
     147.09670487,
     -38.19996472
    ]
   },
   "properties": {
    "name": "1 COBB ROAD LONGFORD 3851",
    "locID": "LOC000079114396",
    "tech": "WIRELESS",
    "upgrade": "NULL_NA",
    "gnaf_pid": "GAVIC422137389"
   }
  },
  {
   "type": "Feature",
   "geometry": {
    "type": "Point",
    "coordinates": [
     147.15109852,
     -38.1660002
    ]
   },
   "properties": {
    "name": "70A DOWDS LANE LONGFORD 3851",
    "locID": "ChIJadwi7iskL2sRtZW5o6m4pgY",
    "tech": "WIRELESS",
    "upgrade": "UNKNOWN",
    "gnaf_pid": "GAVIC422142924"
   }
  },
  {
   "type": "Feature",
   "geometry": {
    "type": "Point",
    "coordinates": [
     147.09577011,
     -38.18429155
    ]
   },
   "properties": {
    "name": "17 EARLS COURT LONGFORD 3851",
    "locID": "LOC000044617687",
    "tech": "WIRELESS",
    "upgrade": "NULL_NA",
    "gnaf_pid": "GAVIC422143741"
   }
  },
  {
   "type": "Feature",
   "geometry": {
    "type": "Point",
    "coordinates": [
     147.09521054,
     -38.18423795
    ]
   },
   "properties": {
    "name": "18 EARLS COURT LONGFORD 3851",
    "locID": "LOC000055359800",
    "tech": "WIRELESS",
    "upgrade": "NULL_NA",
    "gnaf_pid": "GAVIC422143742"
   }
  },
  {
   "type": "Feature",
   "geometry": {
    "type": "Point",
    "coordinates": [
     147.2073918,
     -38.28544562
    ]
   },
   "properties": {
    "name": "33 FIELDS ROAD LONGFORD 3851",
    "locID": "LOC000074093858",
    "tech": "SATELLITE",
    "upgrade": "NULL_NA",
    "gnaf_pid": "GAVIC422146471"
   }
  },
  {
   "type": "Feature",
   "geometry": {
    "type": "Point",
    "coordinates": [
     147.20572161,
     -38.29056263
    ]
   },
   "properties": {
    "name": "92 FIELDS ROAD LONGFORD 3851",
    "locID": "LOC000105005825",
    "tech": "SATELLITE",
    "upgrade": "NULL_NA",
    "gnaf_pid": "GAVIC422146472"
   }
  },
  {
   "type": "Feature",
   "geometry": {
    "type": "Point",
    "coordinates": [
     147.07132778,
     -38.16570663
    ]
   },
   "properties": {
    "name": "17 FREEMANS ROAD LONGFORD 3851",
    "locID": "LOC000032546094",
    "tech": "WIRELESS",
    "upgrade": "NULL_NA",
    "gnaf_pid": "GAVIC422147980"
   }
  },
  {
   "type": "Feature",
   "geometry": {
    "type": "Point",
    "coordinates": [
     147.07159522,
     -38.1645004
    ]
   },
   "properties": {
    "name": "3 FREEMANS ROAD LONGFORD 3851",
    "locID": "LOC000028931571",
    "tech": "WIRELESS",
    "upgrade": "NULL_NA",
    "gnaf_pid": "GAVIC422147981"
   }
  },
  {
   "type": "Feature",
   "geometry": {
    "type": "Point",
    "coordinates": [
     147.12046565,
     -38.21734541
    ]
   },
   "properties": {
    "name": "120 GARRETTS ROAD LONGFORD 3851",
    "locID": "LOC000008902348",
    "tech": "SATELLITE",
    "upgrade": "NULL_NA",
    "gnaf_pid": "GAVIC422148546"
   }
  },
  {
   "type": "Feature",
   "geometry": {
    "type": "Point",
    "coordinates": [
     147.12151515,
     -38.21644308
    ]
   },
   "properties": {
    "name": "133 GARRETTS ROAD LONGFORD 3851",
    "locID": "LOC000106667698",
    "tech": "SATELLITE",
    "upgrade": "NULL_NA",
    "gnaf_pid": "GAVIC422148547"
   }
  },
  {
   "type": "Feature",
   "geometry": {
    "type": "Point",
    "coordinates": [
     147.12448518,
     -38.2163859
    ]
   },
   "properties": {
    "name": "158 GARRETTS ROAD LONGFORD 3851",
    "locID": "LOC000029338243",
    "tech": "WIRELESS",
    "upgrade": "NULL_NA",
    "gnaf_pid": "GAVIC422148549"
   }
  },
  {
   "type": "Feature",
   "geometry": {
    "type": "Point",
    "coordinates": [
     147.13073025,
     -38.21595343
    ]
   },
   "properties": {
    "name": "215 GARRETTS ROAD LONGFORD 3851",
    "locID": "LOC000125467455",
    "tech": "WIRELESS",
    "upgrade": "NULL_NA",
    "gnaf_pid": "GAVIC422148550"
   }
  },
  {
   "type": "Feature",
   "geometry": {
    "type": "Point",
    "coordinates": [
     147.13627589,
     -38.21722904
    ]
   },
   "properties": {
    "name": "262 GARRETTS ROAD LONGFORD 3851",
    "locID": "LOC000003562422",
    "tech": "WIRELESS",
    "upgrade": "NULL_NA",
    "gnaf_pid": "GAVIC422148551"
   }
  },
  {
   "type": "Feature",
   "geometry": {
    "type": "Point",
    "coordinates": [
     147.11169209,
     -38.21724594
    ]
   },
   "properties": {
    "name": "44 GARRETTS ROAD LONGFORD 3851",
    "locID": "LOC000065447124",
    "tech": "SATELLITE",
    "upgrade": "NULL_NA",
    "gnaf_pid": "GAVIC422148552"
   }
  },
  {
   "type": "Feature",
   "geometry": {
    "type": "Point",
    "coordinates": [
     147.08670188,
     -38.19233789
    ]
   },
   "properties": {
    "name": "100 GERRAND DRIVE LONGFORD 3851",
    "locID": "LOC000060689621",
    "tech": "WIRELESS",
    "upgrade": "NULL_NA",
    "gnaf_pid": "GAVIC422149007"
   }
  },
  {
   "type": "Feature",
   "geometry": {
    "type": "Point",
    "coordinates": [
     147.08721529,
     -38.19194096
    ]
   },
   "properties": {
    "name": "105 GERRAND DRIVE LONGFORD 3851",
    "locID": "LOC000080422542",
    "tech": "WIRELESS",
    "upgrade": "NULL_NA",
    "gnaf_pid": "GAVIC422149008"
   }
  },
  {
   "type": "Feature",
   "geometry": {
    "type": "Point",
    "coordinates": [
     147.08389789,
     -38.19697245
    ]
   },
   "properties": {
    "name": "19 GERRAND DRIVE LONGFORD 3851",
    "locID": "LOC000056264376",
    "tech": "WIRELESS",
    "upgrade": "NULL_NA",
    "gnaf_pid": "GAVIC422149009"
   }
  },
  {
   "type": "Feature",
   "geometry": {
    "type": "Point",
    "coordinates": [
     147.0836617,
     -38.19556528
    ]
   },
   "properties": {
    "name": "35 GERRAND DRIVE LONGFORD 3851",
    "locID": "LOC000061045369",
    "tech": "WIRELESS",
    "upgrade": "NULL_NA",
    "gnaf_pid": "GAVIC422149010"
   }
  },
  {
   "type": "Feature",
   "geometry": {
    "type": "Point",
    "coordinates": [
     147.08383796,
     -38.194503
    ]
   },
   "properties": {
    "name": "46 GERRAND DRIVE LONGFORD 3851",
    "locID": "LOC000014710416",
    "tech": "WIRELESS",
    "upgrade": "NULL_NA",
    "gnaf_pid": "GAVIC422149011"
   }
  },
  {
   "type": "Feature",
   "geometry": {
    "type": "Point",
    "coordinates": [
     147.08331143,
     -38.19342186
    ]
   },
   "properties": {
    "name": "59 GERRAND DRIVE LONGFORD 3851",
    "locID": "LOC000018200248",
    "tech": "WIRELESS",
    "upgrade": "NULL_NA",
    "gnaf_pid": "GAVIC422149012"
   }
  },
  {
   "type": "Feature",
   "geometry": {
    "type": "Point",
    "coordinates": [
     147.08421421,
     -38.19809055
    ]
   },
   "properties": {
    "name": "6 GERRAND DRIVE LONGFORD 3851",
    "locID": "LOC000073257047",
    "tech": "WIRELESS",
    "upgrade": "NULL_NA",
    "gnaf_pid": "GAVIC422149013"
   }
  },
  {
   "type": "Feature",
   "geometry": {
    "type": "Point",
    "coordinates": [
     147.08357258,
     -38.19210583
    ]
   },
   "properties": {
    "name": "75 GERRAND DRIVE LONGFORD 3851",
    "locID": "LOC000046677622",
    "tech": "WIRELESS",
    "upgrade": "NULL_NA",
    "gnaf_pid": "GAVIC422149014"
   }
  },
  {
   "type": "Feature",
   "geometry": {
    "type": "Point",
    "coordinates": [
     147.0841545,
     -38.19169083
    ]
   },
   "properties": {
    "name": "79 GERRAND DRIVE LONGFORD 3851",
    "locID": "LOC000053737389",
    "tech": "WIRELESS",
    "upgrade": "NULL_NA",
    "gnaf_pid": "GAVIC422149015"
   }
  },
  {
   "type": "Feature",
   "geometry": {
    "type": "Point",
    "coordinates": [
     147.0846086,
     -38.19200406
    ]
   },
   "properties": {
    "name": "82 GERRAND DRIVE LONGFORD 3851",
    "locID": "LOC000001950020",
    "tech": "WIRELESS",
    "upgrade": "NULL_NA",
    "gnaf_pid": "GAVIC422149016"
   }
  },
  {
   "type": "Feature",
   "geometry": {
    "type": "Point",
    "coordinates": [
     147.08595888,
     -38.19173458
    ]
   },
   "properties": {
    "name": "95 GERRAND DRIVE LONGFORD 3851",
    "locID": "LOC000091213147",
    "tech": "WIRELESS",
    "upgrade": "NULL_NA",
    "gnaf_pid": "GAVIC422149017"
   }
  },
  {
   "type": "Feature",
   "geometry": {
    "type": "Point",
    "coordinates": [
     147.0865756,
     -38.19179724
    ]
   },
   "properties": {
    "name": "99 GERRAND DRIVE LONGFORD 3851",
    "locID": "LOC100077376700",
    "tech": "WIRELESS",
    "upgrade": "NULL_NA",
    "gnaf_pid": "GAVIC422149018"
   }
  },
  {
   "type": "Feature",
   "geometry": {
    "type": "Point",
    "coordinates": [
     147.0920881,
     -38.16192494
    ]
   },
   "properties": {
    "name": "17B GLENCOE ROAD LONGFORD 3851",
    "locID": "ChIJGbLZd68oL2sRCt3r9h3wKRw",
    "tech": "WIRELESS",
    "upgrade": "UNKNOWN",
    "gnaf_pid": "GAVIC422149677"
   }
  },
  {
   "type": "Feature",
   "geometry": {
    "type": "Point",
    "coordinates": [
     147.09325245,
     -38.161924
    ]
   },
   "properties": {
    "name": "28 GLENCOE ROAD LONGFORD 3851",
    "locID": "LOC000017077598",
    "tech": "WIRELESS",
    "upgrade": "NULL_NA",
    "gnaf_pid": "GAVIC422149678"
   }
  },
  {
   "type": "Feature",
   "geometry": {
    "type": "Point",
    "coordinates": [
     147.0941418,
     -38.16112116
    ]
   },
   "properties": {
    "name": "39 GLENCOE ROAD LONGFORD 3851",
    "locID": "LOC000100119759",
    "tech": "WIRELESS",
    "upgrade": "NULL_NA",
    "gnaf_pid": "GAVIC422149679"
   }
  },
  {
   "type": "Feature",
   "geometry": {
    "type": "Point",
    "coordinates": [
     147.09098049,
     -38.19848134
    ]
   },
   "properties": {
    "name": "10 HAMPTON COURT LONGFORD 3851",
    "locID": "LOC000058627166",
    "tech": "WIRELESS",
    "upgrade": "NULL_NA",
    "gnaf_pid": "GAVIC422153286"
   }
  },
  {
   "type": "Feature",
   "geometry": {
    "type": "Point",
    "coordinates": [
     147.09077341,
     -38.19726479
    ]
   },
   "properties": {
    "name": "26 HAMPTON COURT LONGFORD 3851",
    "locID": "LOC000063753699",
    "tech": "WIRELESS",
    "upgrade": "NULL_NA",
    "gnaf_pid": "GAVIC422153287"
   }
  },
  {
   "type": "Feature",
   "geometry": {
    "type": "Point",
    "coordinates": [
     147.0909667,
     -38.19657966
    ]
   },
   "properties": {
    "name": "34 HAMPTON COURT LONGFORD 3851",
    "locID": "ChIJBQxc33ooL2sRvixQEFq-W_4",
    "tech": "WIRELESS",
    "upgrade": "UNKNOWN",
    "gnaf_pid": "GAVIC422153288"
   }
  },
  {
   "type": "Feature",
   "geometry": {
    "type": "Point",
    "coordinates": [
     147.09058948,
     -38.19629156
    ]
   },
   "properties": {
    "name": "35 HAMPTON COURT LONGFORD 3851",
    "locID": "ChIJjwiAMGUoL2sRC-bl2sk-Bps",
    "tech": "WIRELESS",
    "upgrade": "UNKNOWN",
    "gnaf_pid": "GAVIC422153289"
   }
  },
  {
   "type": "Feature",
   "geometry": {
    "type": "Point",
    "coordinates": [
     147.0907141,
     -38.19548031
    ]
   },
   "properties": {
    "name": "47 HAMPTON COURT LONGFORD 3851",
    "locID": "LOC000106388958",
    "tech": "WIRELESS",
    "upgrade": "NULL_NA",
    "gnaf_pid": "GAVIC422153290"
   }
  },
  {
   "type": "Feature",
   "geometry": {
    "type": "Point",
    "coordinates": [
     147.09092965,
     -38.1943175
    ]
   },
   "properties": {
    "name": "59 HAMPTON COURT LONGFORD 3851",
    "locID": "LOC000060246040",
    "tech": "WIRELESS",
    "upgrade": "NULL_NA",
    "gnaf_pid": "GAVIC422153291"
   }
  },
  {
   "type": "Feature",
   "geometry": {
    "type": "Point",
    "coordinates": [
     147.08910136,
     -38.1840264
    ]
   },
   "properties": {
    "name": "18 HARPLEY COURT LONGFORD 3851",
    "locID": "LOC000054273523",
    "tech": "WIRELESS",
    "upgrade": "NULL_NA",
    "gnaf_pid": "GAVIC422153839"
   }
  },
  {
   "type": "Feature",
   "geometry": {
    "type": "Point",
    "coordinates": [
     147.08904156,
     -38.1843671
    ]
   },
   "properties": {
    "name": "19 HARPLEY COURT LONGFORD 3851",
    "locID": "LOC000063550227",
    "tech": "WIRELESS",
    "upgrade": "NULL_NA",
    "gnaf_pid": "GAVIC422153840"
   }
  },
  {
   "type": "Feature",
   "geometry": {
    "type": "Point",
    "coordinates": [
     147.08824189,
     -38.18405225
    ]
   },
   "properties": {
    "name": "27 HARPLEY COURT LONGFORD 3851",
    "locID": "LOC000103428852",
    "tech": "WIRELESS",
    "upgrade": "NULL_NA",
    "gnaf_pid": "GAVIC422153841"
   }
  },
  {
   "type": "Feature",
   "geometry": {
    "type": "Point",
    "coordinates": [
     147.08830161,
     -38.18366649
    ]
   },
   "properties": {
    "name": "28 HARPLEY COURT LONGFORD 3851",
    "locID": "LOC000065448418",
    "tech": "WIRELESS",
    "upgrade": "NULL_NA",
    "gnaf_pid": "GAVIC422153842"
   }
  },
  {
   "type": "Feature",
   "geometry": {
    "type": "Point",
    "coordinates": [
     147.08745654,
     -38.18355895
    ]
   },
   "properties": {
    "name": "34 HARPLEY COURT LONGFORD 3851",
    "locID": "LOC000125458377",
    "tech": "WIRELESS",
    "upgrade": "NULL_NA",
    "gnaf_pid": "GAVIC422153843"
   }
  },
  {
   "type": "Feature",
   "geometry": {
    "type": "Point",
    "coordinates": [
     147.09087165,
     -38.18435851
    ]
   },
   "properties": {
    "name": "3 HARPLEY COURT LONGFORD 3851",
    "locID": "LOC000022818322",
    "tech": "WIRELESS",
    "upgrade": "NULL_NA",
    "gnaf_pid": "GAVIC422153844"
   }
  },
  {
   "type": "Feature",
   "geometry": {
    "type": "Point",
    "coordinates": [
     147.08616645,
     -38.18372215
    ]
   },
   "properties": {
    "name": "43 HARPLEY COURT LONGFORD 3851",
    "locID": "ChIJh4JncYkoL2sRaQdkBX2c8ck",
    "tech": "WIRELESS",
    "upgrade": "UNKNOWN",
    "gnaf_pid": "GAVIC422153845"
   }
  },
  {
   "type": "Feature",
   "geometry": {
    "type": "Point",
    "coordinates": [
     147.08543519,
     -38.1833261
    ]
   },
   "properties": {
    "name": "52 HARPLEY COURT LONGFORD 3851",
    "locID": "LOC000109743682",
    "tech": "WIRELESS",
    "upgrade": "NULL_NA",
    "gnaf_pid": "GAVIC422153846"
   }
  },
  {
   "type": "Feature",
   "geometry": {
    "type": "Point",
    "coordinates": [
     147.08512685,
     -38.18327226
    ]
   },
   "properties": {
    "name": "54 HARPLEY COURT LONGFORD 3851",
    "locID": "LOC000027165528",
    "tech": "WIRELESS",
    "upgrade": "NULL_NA",
    "gnaf_pid": "GAVIC422153847"
   }
  },
  {
   "type": "Feature",
   "geometry": {
    "type": "Point",
    "coordinates": [
     147.08505878,
     -38.18365985
    ]
   },
   "properties": {
    "name": "55 HARPLEY COURT LONGFORD 3851",
    "locID": "LOC000002856799",
    "tech": "WIRELESS",
    "upgrade": "NULL_NA",
    "gnaf_pid": "GAVIC422153848"
   }
  },
  {
   "type": "Feature",
   "geometry": {
    "type": "Point",
    "coordinates": [
     147.08492601,
     -38.18340579
    ]
   },
   "properties": {
    "name": "56 HARPLEY COURT LONGFORD 3851",
    "locID": "LOC000011173368",
    "tech": "WIRELESS",
    "upgrade": "NULL_NA",
    "gnaf_pid": "GAVIC422153849"
   }
  },
  {
   "type": "Feature",
   "geometry": {
    "type": "Point",
    "coordinates": [
     147.1642765,
     -38.27363914
    ]
   },
   "properties": {
    "name": "133 HAWKINS ROAD LONGFORD 3851",
    "locID": "LOC000037996472",
    "tech": "SATELLITE",
    "upgrade": "NULL_NA",
    "gnaf_pid": "GAVIC422154199"
   }
  },
  {
   "type": "Feature",
   "geometry": {
    "type": "Point",
    "coordinates": [
     147.18641723,
     -38.2764721
    ]
   },
   "properties": {
    "name": "329 HAWKINS ROAD LONGFORD 3851",
    "locID": "LOC100078870291",
    "tech": "SATELLITE",
    "upgrade": "NULL_NA",
    "gnaf_pid": "GAVIC422154200"
   }
  },
  {
   "type": "Feature",
   "geometry": {
    "type": "Point",
    "coordinates": [
     147.18801995,
     -38.2772897
    ]
   },
   "properties": {
    "name": "344 HAWKINS ROAD LONGFORD 3851",
    "locID": "LOC000082614371",
    "tech": "SATELLITE",
    "upgrade": "NULL_NA",
    "gnaf_pid": "GAVIC422154201"
   }
  },
  {
   "type": "Feature",
   "geometry": {
    "type": "Point",
    "coordinates": [
     147.15342514,
     -38.2727436
    ]
   },
   "properties": {
    "name": "36 HAWKINS ROAD LONGFORD 3851",
    "locID": "LOC000048272173",
    "tech": "SATELLITE",
    "upgrade": "NULL_NA",
    "gnaf_pid": "GAVIC422154202"
   }
  },
  {
   "type": "Feature",
   "geometry": {
    "type": "Point",
    "coordinates": [
     147.15658039,
     -38.27269435
    ]
   },
   "properties": {
    "name": "63 HAWKINS ROAD LONGFORD 3851",
    "locID": "LOC000082544907",
    "tech": "SATELLITE",
    "upgrade": "NULL_NA",
    "gnaf_pid": "GAVIC422154203"
   }
  },
  {
   "type": "Feature",
   "geometry": {
    "type": "Point",
    "coordinates": [
     147.22179224,
     -38.28443189
    ]
   },
   "properties": {
    "name": "680 HAWKINS ROAD LONGFORD 3851",
    "locID": "ChIJo4JJtBLfLmsRRSo0QfVJaaA",
    "tech": "SATELLITE",
    "upgrade": "UNKNOWN",
    "gnaf_pid": "GAVIC422154204"
   }
  },
  {
   "type": "Feature",
   "geometry": {
    "type": "Point",
    "coordinates": [
     147.23574599,
     -38.28567548
    ]
   },
   "properties": {
    "name": "803 HAWKINS ROAD LONGFORD 3851",
    "locID": "LOC000050633249",
    "tech": "SATELLITE",
    "upgrade": "NULL_NA",
    "gnaf_pid": "GAVIC422154205"
   }
  },
  {
   "type": "Feature",
   "geometry": {
    "type": "Point",
    "coordinates": [
     147.16037686,
     -38.27312183
    ]
   },
   "properties": {
    "name": "97 HAWKINS ROAD LONGFORD 3851",
    "locID": "LOC000028470275",
    "tech": "SATELLITE",
    "upgrade": "NULL_NA",
    "gnaf_pid": "GAVIC422154206"
   }
  },
  {
   "type": "Feature",
   "geometry": {
    "type": "Point",
    "coordinates": [
     147.1092053,
     -38.2119939
    ]
   },
   "properties": {
    "name": "47 HEBBARDS ROAD LONGFORD 3851",
    "locID": "LOC000028677956",
    "tech": "WIRELESS",
    "upgrade": "NULL_NA",
    "gnaf_pid": "GAVIC422154733"
   }
  },
  {
   "type": "Feature",
   "geometry": {
    "type": "Point",
    "coordinates": [
     147.11456227,
     -38.21208907
    ]
   },
   "properties": {
    "name": "94 HEBBARDS ROAD LONGFORD 3851",
    "locID": "ChIJT5h1GcMnL2sR4ZSWBD3X9cY",
    "tech": "WIRELESS",
    "upgrade": "UNKNOWN",
    "gnaf_pid": "GAVIC422154734"
   }
  },
  {
   "type": "Feature",
   "geometry": {
    "type": "Point",
    "coordinates": [
     147.09435208,
     -38.18263436
    ]
   },
   "properties": {
    "name": "12 HIGHFIELD DRIVE LONGFORD 3851",
    "locID": "LOC000021794760",
    "tech": "WIRELESS",
    "upgrade": "NULL_NA",
    "gnaf_pid": "GAVIC422156132"
   }
  },
  {
   "type": "Feature",
   "geometry": {
    "type": "Point",
    "coordinates": [
     147.0948548,
     -38.18286828
    ]
   },
   "properties": {
    "name": "14 HIGHFIELD DRIVE LONGFORD 3851",
    "locID": "LOC000083984841",
    "tech": "WIRELESS",
    "upgrade": "NULL_NA",
    "gnaf_pid": "GAVIC422156133"
   }
  },
  {
   "type": "Feature",
   "geometry": {
    "type": "Point",
    "coordinates": [
     147.09708074,
     -38.1823888
    ]
   },
   "properties": {
    "name": "35 HIGHFIELD DRIVE LONGFORD 3851",
    "locID": "LOC000019387770",
    "tech": "WIRELESS",
    "upgrade": "NULL_NA",
    "gnaf_pid": "GAVIC422156134"
   }
  },
  {
   "type": "Feature",
   "geometry": {
    "type": "Point",
    "coordinates": [
     147.09051278,
     -38.17114616
    ]
   },
   "properties": {
    "name": "24 HOBSONS ROAD LONGFORD 3851",
    "locID": "ChIJc8h4JpgoL2sRWO7ijUtuX4I",
    "tech": "WIRELESS",
    "upgrade": "UNKNOWN",
    "gnaf_pid": "GAVIC422156430"
   }
  },
  {
   "type": "Feature",
   "geometry": {
    "type": "Point",
    "coordinates": [
     147.09084389,
     -38.17117295
    ]
   },
   "properties": {
    "name": "26 HOBSONS ROAD LONGFORD 3851",
    "locID": "LOC000100239734",
    "tech": "WIRELESS",
    "upgrade": "NULL_NA",
    "gnaf_pid": "GAVIC422156431"
   }
  },
  {
   "type": "Feature",
   "geometry": {
    "type": "Point",
    "coordinates": [
     147.09363489,
     -38.1753797
    ]
   },
   "properties": {
    "name": "14 IBIS WAY LONGFORD 3851",
    "locID": "LOC000026881813",
    "tech": "WIRELESS",
    "upgrade": "NULL_NA",
    "gnaf_pid": "GAVIC422158104"
   }
  },
  {
   "type": "Feature",
   "geometry": {
    "type": "Point",
    "coordinates": [
     147.09354328,
     -38.17516348
    ]
   },
   "properties": {
    "name": "16 IBIS WAY LONGFORD 3851",
    "locID": "LOC000057481644",
    "tech": "WIRELESS",
    "upgrade": "NULL_NA",
    "gnaf_pid": "GAVIC422158105"
   }
  },
  {
   "type": "Feature",
   "geometry": {
    "type": "Point",
    "coordinates": [
     147.09164131,
     -38.17445341
    ]
   },
   "properties": {
    "name": "34 IBIS WAY LONGFORD 3851",
    "locID": "LOC000026034440",
    "tech": "WIRELESS",
    "upgrade": "NULL_NA",
    "gnaf_pid": "GAVIC422158106"
   }
  },
  {
   "type": "Feature",
   "geometry": {
    "type": "Point",
    "coordinates": [
     147.09328154,
     -38.17584865
    ]
   },
   "properties": {
    "name": "9 IBIS WAY LONGFORD 3851",
    "locID": "LOC000098224658",
    "tech": "WIRELESS",
    "upgrade": "NULL_NA",
    "gnaf_pid": "GAVIC422158107"
   }
  },
  {
   "type": "Feature",
   "geometry": {
    "type": "Point",
    "coordinates": [
     147.2026883,
     -38.1947189
    ]
   },
   "properties": {
    "name": "207 JOHNSONS ROAD LONGFORD 3851",
    "locID": "LOC000125442399",
    "tech": "SATELLITE",
    "upgrade": "NULL_NA",
    "gnaf_pid": "GAVIC422159403"
   }
  },
  {
   "type": "Feature",
   "geometry": {
    "type": "Point",
    "coordinates": [
     147.2013609,
     -38.20204848
    ]
   },
   "properties": {
    "name": "289 JOHNSONS ROAD LONGFORD 3851",
    "locID": "LOC000066743472",
    "tech": "WIRELESS",
    "upgrade": "NULL_NA",
    "gnaf_pid": "GAVIC422159404"
   }
  },
  {
   "type": "Feature",
   "geometry": {
    "type": "Point",
    "coordinates": [
     147.2005049,
     -38.20643009
    ]
   },
   "properties": {
    "name": "337 JOHNSONS ROAD LONGFORD 3851",
    "locID": "ChIJT9t8iDchL2sRKrSF7Bt0440",
    "tech": "SATELLITE",
    "upgrade": "UNKNOWN",
    "gnaf_pid": "GAVIC422159405"
   }
  },
  {
   "type": "Feature",
   "geometry": {
    "type": "Point",
    "coordinates": [
     147.19424864,
     -38.23769635
    ]
   },
   "properties": {
    "name": "689 JOHNSONS ROAD LONGFORD 3851",
    "locID": "LOC000180294423",
    "tech": "WIRELESS",
    "upgrade": "NULL_NA",
    "gnaf_pid": "GAVIC422159406"
   }
  },
  {
   "type": "Feature",
   "geometry": {
    "type": "Point",
    "coordinates": [
     146.99867865,
     -38.1625645
    ]
   },
   "properties": {
    "name": "103 KELLYS ROAD LONGFORD 3851",
    "locID": "LOC000081628135",
    "tech": "WIRELESS",
    "upgrade": "NULL_NA",
    "gnaf_pid": "GAVIC422160347"
   }
  },
  {
   "type": "Feature",
   "geometry": {
    "type": "Point",
    "coordinates": [
     147.09834723,
     -38.16465973
    ]
   },
   "properties": {
    "name": "112 LONGFORD-LOCH SPORT ROAD LONGFORD 3851",
    "locID": "LOC000030017988",
    "tech": "WIRELESS",
    "upgrade": "NULL_NA",
    "gnaf_pid": "GAVIC422165244"
   }
  },
  {
   "type": "Feature",
   "geometry": {
    "type": "Point",
    "coordinates": [
     147.09958041,
     -38.16490204
    ]
   },
   "properties": {
    "name": "123 LONGFORD-LOCH SPORT ROAD LONGFORD 3851",
    "locID": "LOC000038510768",
    "tech": "WIRELESS",
    "upgrade": "NULL_NA",
    "gnaf_pid": "GAVIC422165245"
   }
  },
  {
   "type": "Feature",
   "geometry": {
    "type": "Point",
    "coordinates": [
     147.09994708,
     -38.16589311
    ]
   },
   "properties": {
    "name": "132 LONGFORD-LOCH SPORT ROAD LONGFORD 3851",
    "locID": "LOC000104776935",
    "tech": "WIRELESS",
    "upgrade": "NULL_NA",
    "gnaf_pid": "GAVIC422165246"
   }
  },
  {
   "type": "Feature",
   "geometry": {
    "type": "Point",
    "coordinates": [
     147.10159235,
     -38.16691015
    ]
   },
   "properties": {
    "name": "150 LONGFORD-LOCH SPORT ROAD LONGFORD 3851",
    "locID": "ChIJu7B4jB0mL2sR7jvCB2MziQQ",
    "tech": "WIRELESS",
    "upgrade": "UNKNOWN",
    "gnaf_pid": "GAVIC422165247"
   }
  },
  {
   "type": "Feature",
   "geometry": {
    "type": "Point",
    "coordinates": [
     147.1019579,
     -38.1670901
    ]
   },
   "properties": {
    "name": "152 LONGFORD-LOCH SPORT ROAD LONGFORD 3851",
    "locID": "LOC000047959411",
    "tech": "WIRELESS",
    "upgrade": "NULL_NA",
    "gnaf_pid": "GAVIC422165248"
   }
  },
  {
   "type": "Feature",
   "geometry": {
    "type": "Point",
    "coordinates": [
     147.10238065,
     -38.1673511
    ]
   },
   "properties": {
    "name": "158 LONGFORD-LOCH SPORT ROAD LONGFORD 3851",
    "locID": "LOC000092591841",
    "tech": "WIRELESS",
    "upgrade": "NULL_NA",
    "gnaf_pid": "GAVIC422165249"
   }
  },
  {
   "type": "Feature",
   "geometry": {
    "type": "Point",
    "coordinates": [
     147.10308784,
     -38.16691786
    ]
   },
   "properties": {
    "name": "161 LONGFORD-LOCH SPORT ROAD LONGFORD 3851",
    "locID": "LOC000095082131",
    "tech": "WIRELESS",
    "upgrade": "NULL_NA",
    "gnaf_pid": "GAVIC422165250"
   }
  },
  {
   "type": "Feature",
   "geometry": {
    "type": "Point",
    "coordinates": [
     147.10565985,
     -38.16967067
    ]
   },
   "properties": {
    "name": "198 LONGFORD-LOCH SPORT ROAD LONGFORD 3851",
    "locID": "ChIJDYFqHBwmL2sRXf8_z-VWR34",
    "tech": "WIRELESS",
    "upgrade": "UNKNOWN",
    "gnaf_pid": "GAVIC422165251"
   }
  },
  {
   "type": "Feature",
   "geometry": {
    "type": "Point",
    "coordinates": [
     147.0890188,
     -38.16305386
    ]
   },
   "properties": {
    "name": "24 LONGFORD-LOCH SPORT ROAD LONGFORD 3851",
    "locID": "LOC000041445784",
    "tech": "WIRELESS",
    "upgrade": "NULL_NA",
    "gnaf_pid": "GAVIC422165252"
   }
  },
  {
   "type": "Feature",
   "geometry": {
    "type": "Point",
    "coordinates": [
     147.11457878,
     -38.17345891
    ]
   },
   "properties": {
    "name": "286 LONGFORD-LOCH SPORT ROAD LONGFORD 3851",
    "locID": "ChIJg-aURBYmL2sRYnOgHlLbKWg",
    "tech": "WIRELESS",
    "upgrade": "UNKNOWN",
    "gnaf_pid": "GAVIC422165253"
   }
  },
  {
   "type": "Feature",
   "geometry": {
    "type": "Point",
    "coordinates": [
     147.12006615,
     -38.1756982
    ]
   },
   "properties": {
    "name": "340 LONGFORD-LOCH SPORT ROAD LONGFORD 3851",
    "locID": "LOC000077039591",
    "tech": "WIRELESS",
    "upgrade": "NULL_NA",
    "gnaf_pid": "GAVIC422165254"
   }
  },
  {
   "type": "Feature",
   "geometry": {
    "type": "Point",
    "coordinates": [
     147.12731924,
     -38.17751118
    ]
   },
   "properties": {
    "name": "407 LONGFORD-LOCH SPORT ROAD LONGFORD 3851",
    "locID": "ChIJt2ikbmwmL2sRRA-Oh3efU-Q",
    "tech": "WIRELESS",
    "upgrade": "UNKNOWN",
    "gnaf_pid": "GAVIC422165255"
   }
  },
  {
   "type": "Feature",
   "geometry": {
    "type": "Point",
    "coordinates": [
     147.09062866,
     -38.16328698
    ]
   },
   "properties": {
    "name": "40 LONGFORD-LOCH SPORT ROAD LONGFORD 3851",
    "locID": "LOC000081089120",
    "tech": "WIRELESS",
    "upgrade": "NULL_NA",
    "gnaf_pid": "GAVIC422165256"
   }
  },
  {
   "type": "Feature",
   "geometry": {
    "type": "Point",
    "coordinates": [
     147.13327266,
     -38.1801994
    ]
   },
   "properties": {
    "name": "467 LONGFORD-LOCH SPORT ROAD LONGFORD 3851",
    "locID": "LOC000047870655",
    "tech": "WIRELESS",
    "upgrade": "NULL_NA",
    "gnaf_pid": "GAVIC422165257"
   }
  },
  {
   "type": "Feature",
   "geometry": {
    "type": "Point",
    "coordinates": [
     147.13503244,
     -38.18097249
    ]
   },
   "properties": {
    "name": "485 LONGFORD-LOCH SPORT ROAD LONGFORD 3851",
    "locID": "LOC000062456801",
    "tech": "SATELLITE",
    "upgrade": "NULL_NA",
    "gnaf_pid": "GAVIC422165258"
   }
  },
  {
   "type": "Feature",
   "geometry": {
    "type": "Point",
    "coordinates": [
     147.1369878,
     -38.18250239
    ]
   },
   "properties": {
    "name": "506 LONGFORD-LOCH SPORT ROAD LONGFORD 3851",
    "locID": "LOC000026808413",
    "tech": "WIRELESS",
    "upgrade": "NULL_NA",
    "gnaf_pid": "GAVIC422165259"
   }
  },
  {
   "type": "Feature",
   "geometry": {
    "type": "Point",
    "coordinates": [
     147.14204338,
     -38.18109944
    ]
   },
   "properties": {
    "name": "555 LONGFORD-LOCH SPORT ROAD LONGFORD 3851",
    "locID": "LOC000056865052",
    "tech": "SATELLITE",
    "upgrade": "NULL_NA",
    "gnaf_pid": "GAVIC422165260"
   }
  },
  {
   "type": "Feature",
   "geometry": {
    "type": "Point",
    "coordinates": [
     147.09246789,
     -38.16356303
    ]
   },
   "properties": {
    "name": "58 LONGFORD-LOCH SPORT ROAD LONGFORD 3851",
    "locID": "LOC000019449141",
    "tech": "WIRELESS",
    "upgrade": "NULL_NA",
    "gnaf_pid": "GAVIC422165261"
   }
  },
  {
   "type": "Feature",
   "geometry": {
    "type": "Point",
    "coordinates": [
     147.14741544,
     -38.17733547
    ]
   },
   "properties": {
    "name": "617 LONGFORD-LOCH SPORT ROAD LONGFORD 3851",
    "locID": "LOC000007825164",
    "tech": "SATELLITE",
    "upgrade": "NULL_NA",
    "gnaf_pid": "GAVIC422165262"
   }
  },
  {
   "type": "Feature",
   "geometry": {
    "type": "Point",
    "coordinates": [
     147.1571028,
     -38.17764905
    ]
   },
   "properties": {
    "name": "704 LONGFORD-LOCH SPORT ROAD LONGFORD 3851",
    "locID": "LOC000142438438",
    "tech": "WIRELESS",
    "upgrade": "NULL_NA",
    "gnaf_pid": "GAVIC422165264"
   }
  },
  {
   "type": "Feature",
   "geometry": {
    "type": "Point",
    "coordinates": [
     147.09448759,
     -38.16372557
    ]
   },
   "properties": {
    "name": "74A LONGFORD-LOCH SPORT ROAD LONGFORD 3851",
    "locID": "LOC000062771167",
    "tech": "WIRELESS",
    "upgrade": "NULL_NA",
    "gnaf_pid": "GAVIC422165265"
   }
  },
  {
   "type": "Feature",
   "geometry": {
    "type": "Point",
    "coordinates": [
     147.0870243,
     -38.16248758
    ]
   },
   "properties": {
    "name": "7 LONGFORD-LOCH SPORT ROAD LONGFORD 3851",
    "locID": "LOC000142438438",
    "tech": "WIRELESS",
    "upgrade": "NULL_NA",
    "gnaf_pid": "GAVIC422165266"
   }
  },
  {
   "type": "Feature",
   "geometry": {
    "type": "Point",
    "coordinates": [
     147.094318,
     -38.17388305
    ]
   },
   "properties": {
    "name": "13 LORD COURT LONGFORD 3851",
    "locID": "LOC000046564675",
    "tech": "WIRELESS",
    "upgrade": "NULL_NA",
    "gnaf_pid": "GAVIC422165451"
   }
  },
  {
   "type": "Feature",
   "geometry": {
    "type": "Point",
    "coordinates": [
     147.09882881,
     -38.17472655
    ]
   },
   "properties": {
    "name": "106 MCCOLL DRIVE LONGFORD 3851",
    "locID": "LOC000010275566",
    "tech": "WIRELESS",
    "upgrade": "NULL_NA",
    "gnaf_pid": "GAVIC422169377"
   }
  },
  {
   "type": "Feature",
   "geometry": {
    "type": "Point",
    "coordinates": [
     147.0982773,
     -38.17449991
    ]
   },
   "properties": {
    "name": "107 MCCOLL DRIVE LONGFORD 3851",
    "locID": "LOC000067013593",
    "tech": "WIRELESS",
    "upgrade": "NULL_NA",
    "gnaf_pid": "GAVIC422169378"
   }
  },
  {
   "type": "Feature",
   "geometry": {
    "type": "Point",
    "coordinates": [
     147.09878838,
     -38.17445218
    ]
   },
   "properties": {
    "name": "108 MCCOLL DRIVE LONGFORD 3851",
    "locID": "LOC000025944870",
    "tech": "WIRELESS",
    "upgrade": "NULL_NA",
    "gnaf_pid": "GAVIC422169379"
   }
  },
  {
   "type": "Feature",
   "geometry": {
    "type": "Point",
    "coordinates": [
     147.09402658,
     -38.17811925
    ]
   },
   "properties": {
    "name": "34 MCCOLL DRIVE LONGFORD 3851",
    "locID": "LOC000091411926",
    "tech": "WIRELESS",
    "upgrade": "NULL_NA",
    "gnaf_pid": "GAVIC422169380"
   }
  },
  {
   "type": "Feature",
   "geometry": {
    "type": "Point",
    "coordinates": [
     147.09424255,
     -38.17737103
    ]
   },
   "properties": {
    "name": "42 MCCOLL DRIVE LONGFORD 3851",
    "locID": "LOC000045299590",
    "tech": "WIRELESS",
    "upgrade": "NULL_NA",
    "gnaf_pid": "GAVIC422169381"
   }
  },
  {
   "type": "Feature",
   "geometry": {
    "type": "Point",
    "coordinates": [
     147.09433244,
     -38.17623535
    ]
   },
   "properties": {
    "name": "57 MCCOLL DRIVE LONGFORD 3851",
    "locID": "LOC000066089560",
    "tech": "WIRELESS",
    "upgrade": "NULL_NA",
    "gnaf_pid": "GAVIC422169382"
   }
  },
  {
   "type": "Feature",
   "geometry": {
    "type": "Point",
    "coordinates": [
     147.09529189,
     -38.17654101
    ]
   },
   "properties": {
    "name": "64 MCCOLL DRIVE LONGFORD 3851",
    "locID": "LOC000004384734",
    "tech": "WIRELESS",
    "upgrade": "NULL_NA",
    "gnaf_pid": "GAVIC422169383"
   }
  },
  {
   "type": "Feature",
   "geometry": {
    "type": "Point",
    "coordinates": [
     147.09623945,
     -38.17647715
    ]
   },
   "properties": {
    "name": "72 MCCOLL DRIVE LONGFORD 3851",
    "locID": "LOC000065773365",
    "tech": "WIRELESS",
    "upgrade": "NULL_NA",
    "gnaf_pid": "GAVIC422169384"
   }
  },
  {
   "type": "Feature",
   "geometry": {
    "type": "Point",
    "coordinates": [
     147.0974608,
     -38.17625085
    ]
   },
   "properties": {
    "name": "84 MCCOLL DRIVE LONGFORD 3851",
    "locID": "LOC000101244542",
    "tech": "WIRELESS",
    "upgrade": "NULL_NA",
    "gnaf_pid": "GAVIC422169385"
   }
  },
  {
   "type": "Feature",
   "geometry": {
    "type": "Point",
    "coordinates": [
     147.13300661,
     -38.19044031
    ]
   },
   "properties": {
    "name": "103A MERRICKS ROAD LONGFORD 3851",
    "locID": "ChIJq_viglomL2sRnvEgl2WQ2d8",
    "tech": "SATELLITE",
    "upgrade": "UNKNOWN",
    "gnaf_pid": "GAVIC422170986"
   }
  },
  {
   "type": "Feature",
   "geometry": {
    "type": "Point",
    "coordinates": [
     147.13301493,
     -38.19036721
    ]
   },
   "properties": {
    "name": "103B MERRICKS ROAD LONGFORD 3851",
    "locID": "ChIJ7YgWjFomL2sR0h7AbXZBWPc",
    "tech": "SATELLITE",
    "upgrade": "UNKNOWN",
    "gnaf_pid": "GAVIC422170987"
   }
  },
  {
   "type": "Feature",
   "geometry": {
    "type": "Point",
    "coordinates": [
     147.12918796,
     -38.20130266
    ]
   },
   "properties": {
    "name": "236 MERRICKS ROAD LONGFORD 3851",
    "locID": "LOC000027945497",
    "tech": "WIRELESS",
    "upgrade": "NULL_NA",
    "gnaf_pid": "GAVIC422170988"
   }
  },
  {
   "type": "Feature",
   "geometry": {
    "type": "Point",
    "coordinates": [
     147.13289051,
     -38.20245215
    ]
   },
   "properties": {
    "name": "277 MERRICKS ROAD LONGFORD 3851",
    "locID": "LOC000084971236",
    "tech": "WIRELESS",
    "upgrade": "NULL_NA",
    "gnaf_pid": "GAVIC422170989"
   }
  },
  {
   "type": "Feature",
   "geometry": {
    "type": "Point",
    "coordinates": [
     147.1400186,
     -38.20302971
    ]
   },
   "properties": {
    "name": "590 MURTNAUGH ROAD LONGFORD 3851",
    "locID": "ChIJn5bWcFMmL2sRcCOVU6dtgqg",
    "tech": "WIRELESS",
    "upgrade": "UNKNOWN",
    "gnaf_pid": "GAVIC422175351"
   }
  },
  {
   "type": "Feature",
   "geometry": {
    "type": "Point",
    "coordinates": [
     147.09232495,
     -38.17779613
    ]
   },
   "properties": {
    "name": "12 OLD COACH LANE LONGFORD 3851",
    "locID": "LOC000091975458",
    "tech": "WIRELESS",
    "upgrade": "NULL_NA",
    "gnaf_pid": "GAVIC422178545"
   }
  },
  {
   "type": "Feature",
   "geometry": {
    "type": "Point",
    "coordinates": [
     147.0909436,
     -38.1779324
    ]
   },
   "properties": {
    "name": "23 OLD COACH LANE LONGFORD 3851",
    "locID": "LOC000003866028",
    "tech": "WIRELESS",
    "upgrade": "NULL_NA",
    "gnaf_pid": "GAVIC422178546"
   }
  },
  {
   "type": "Feature",
   "geometry": {
    "type": "Point",
    "coordinates": [
     147.09089746,
     -38.17756293
    ]
   },
   "properties": {
    "name": "25 OLD COACH LANE LONGFORD 3851",
    "locID": "LOC000030897764",
    "tech": "WIRELESS",
    "upgrade": "NULL_NA",
    "gnaf_pid": "GAVIC422178547"
   }
  },
  {
   "type": "Feature",
   "geometry": {
    "type": "Point",
    "coordinates": [
     147.09856196,
     -38.1630643
    ]
   },
   "properties": {
    "name": "12 PUNT LANE LONGFORD 3851",
    "locID": "LOC000102695291",
    "tech": "WIRELESS",
    "upgrade": "NULL_NA",
    "gnaf_pid": "GAVIC422184018"
   }
  },
  {
   "type": "Feature",
   "geometry": {
    "type": "Point",
    "coordinates": [
     147.09842285,
     -38.16146015
    ]
   },
   "properties": {
    "name": "29 PUNT LANE LONGFORD 3851",
    "locID": "LOC000077222180",
    "tech": "WIRELESS",
    "upgrade": "NULL_NA",
    "gnaf_pid": "GAVIC422184019"
   }
  },
  {
   "type": "Feature",
   "geometry": {
    "type": "Point",
    "coordinates": [
     147.09846825,
     -38.16127984
    ]
   },
   "properties": {
    "name": "31 PUNT LANE LONGFORD 3851",
    "locID": "LOC000106792186",
    "tech": "WIRELESS",
    "upgrade": "NULL_NA",
    "gnaf_pid": "GAVIC422184020"
   }
  },
  {
   "type": "Feature",
   "geometry": {
    "type": "Point",
    "coordinates": [
     147.09915188,
     -38.16032391
    ]
   },
   "properties": {
    "name": "42 PUNT LANE LONGFORD 3851",
    "locID": "LOC000041382551",
    "tech": "WIRELESS",
    "upgrade": "NULL_NA",
    "gnaf_pid": "GAVIC422184021"
   }
  },
  {
   "type": "Feature",
   "geometry": {
    "type": "Point",
    "coordinates": [
     147.09909189,
     -38.15817894
    ]
   },
   "properties": {
    "name": "65 PUNT LANE LONGFORD 3851",
    "locID": "LOC000125813368",
    "tech": "WIRELESS",
    "upgrade": "NULL_NA",
    "gnaf_pid": "GAVIC422184022"
   }
  },
  {
   "type": "Feature",
   "geometry": {
    "type": "Point",
    "coordinates": [
     147.00797156,
     -38.17198253
    ]
   },
   "properties": {
    "name": "2001 ROSEDALE-LONGFORD ROAD LONGFORD 3851",
    "locID": "LOC000018136552",
    "tech": "WIRELESS",
    "upgrade": "NULL_NA",
    "gnaf_pid": "GAVIC422187036"
   }
  },
  {
   "type": "Feature",
   "geometry": {
    "type": "Point",
    "coordinates": [
     147.01482156,
     -38.17210809
    ]
   },
   "properties": {
    "name": "2063 ROSEDALE-LONGFORD ROAD LONGFORD 3851",
    "locID": "LOC000091819192",
    "tech": "WIRELESS",
    "upgrade": "NULL_NA",
    "gnaf_pid": "GAVIC422187037"
   }
  },
  {
   "type": "Feature",
   "geometry": {
    "type": "Point",
    "coordinates": [
     147.02277855,
     -38.17071889
    ]
   },
   "properties": {
    "name": "2141 ROSEDALE-LONGFORD ROAD LONGFORD 3851",
    "locID": "ChIJWVPc-HcpL2sRZN66xBfw6_E",
    "tech": "WIRELESS",
    "upgrade": "UNKNOWN",
    "gnaf_pid": "GAVIC422187038"
   }
  },
  {
   "type": "Feature",
   "geometry": {
    "type": "Point",
    "coordinates": [
     147.02506193,
     -38.17101585
    ]
   },
   "properties": {
    "name": "2155 ROSEDALE-LONGFORD ROAD LONGFORD 3851",
    "locID": "LOC000068143320",
    "tech": "SATELLITE",
    "upgrade": "NULL_NA",
    "gnaf_pid": "GAVIC422187039"
   }
  },
  {
   "type": "Feature",
   "geometry": {
    "type": "Point",
    "coordinates": [
     147.03396654,
     -38.17045488
    ]
   },
   "properties": {
    "name": "2240 ROSEDALE-LONGFORD ROAD LONGFORD 3851",
    "locID": "LOC000038700513",
    "tech": "WIRELESS",
    "upgrade": "NULL_NA",
    "gnaf_pid": "GAVIC422187040"
   }
  },
  {
   "type": "Feature",
   "geometry": {
    "type": "Point",
    "coordinates": [
     147.0522132,
     -38.16450536
    ]
   },
   "properties": {
    "name": "2419 ROSEDALE-LONGFORD ROAD LONGFORD 3851",
    "locID": "LOC000071606506",
    "tech": "WIRELESS",
    "upgrade": "NULL_NA",
    "gnaf_pid": "GAVIC422187041"
   }
  },
  {
   "type": "Feature",
   "geometry": {
    "type": "Point",
    "coordinates": [
     147.06080011,
     -38.16562406
    ]
   },
   "properties": {
    "name": "2495 ROSEDALE-LONGFORD ROAD LONGFORD 3851",
    "locID": "LOC000125467570",
    "tech": "WIRELESS",
    "upgrade": "NULL_NA",
    "gnaf_pid": "GAVIC422187042"
   }
  },
  {
   "type": "Feature",
   "geometry": {
    "type": "Point",
    "coordinates": [
     147.07451045,
     -38.16344245
    ]
   },
   "properties": {
    "name": "2620 ROSEDALE-LONGFORD ROAD LONGFORD 3851",
    "locID": "LOC000082204393",
    "tech": "WIRELESS",
    "upgrade": "NULL_NA",
    "gnaf_pid": "GAVIC422187043"
   }
  },
  {
   "type": "Feature",
   "geometry": {
    "type": "Point",
    "coordinates": [
     147.07598687,
     -38.16128353
    ]
   },
   "properties": {
    "name": "2639 ROSEDALE-LONGFORD ROAD LONGFORD 3851",
    "locID": "ChIJAWZ4wsAoL2sR1JvHiRLqfrE",
    "tech": "WIRELESS",
    "upgrade": "UNKNOWN",
    "gnaf_pid": "GAVIC422187044"
   }
  },
  {
   "type": "Feature",
   "geometry": {
    "type": "Point",
    "coordinates": [
     147.07859404,
     -38.16056478
    ]
   },
   "properties": {
    "name": "2668 ROSEDALE-LONGFORD ROAD LONGFORD 3851",
    "locID": "LOC000028613401",
    "tech": "WIRELESS",
    "upgrade": "NULL_NA",
    "gnaf_pid": "GAVIC422187045"
   }
  },
  {
   "type": "Feature",
   "geometry": {
    "type": "Point",
    "coordinates": [
     147.07878801,
     -38.16050154
    ]
   },
   "properties": {
    "name": "2670 ROSEDALE-LONGFORD ROAD LONGFORD 3851",
    "locID": "LOC000125418379",
    "tech": "WIRELESS",
    "upgrade": "NULL_NA",
    "gnaf_pid": "GAVIC422187046"
   }
  },
  {
   "type": "Feature",
   "geometry": {
    "type": "Point",
    "coordinates": [
     147.08016929,
     -38.16057274
    ]
   },
   "properties": {
    "name": "2684 ROSEDALE-LONGFORD ROAD LONGFORD 3851",
    "locID": "LOC000067084380",
    "tech": "WIRELESS",
    "upgrade": "NULL_NA",
    "gnaf_pid": "GAVIC422187047"
   }
  },
  {
   "type": "Feature",
   "geometry": {
    "type": "Point",
    "coordinates": [
     147.08170918,
     -38.15956223
    ]
   },
   "properties": {
    "name": "2697 ROSEDALE-LONGFORD ROAD LONGFORD 3851",
    "locID": "LOC000063662041",
    "tech": "WIRELESS",
    "upgrade": "NULL_NA",
    "gnaf_pid": "GAVIC422187048"
   }
  },
  {
   "type": "Feature",
   "geometry": {
    "type": "Point",
    "coordinates": [
     147.08361593,
     -38.16001154
    ]
   },
   "properties": {
    "name": "2702 ROSEDALE-LONGFORD ROAD LONGFORD 3851",
    "locID": "LOC000125433326",
    "tech": "WIRELESS",
    "upgrade": "NULL_NA",
    "gnaf_pid": "GAVIC422187049"
   }
  },
  {
   "type": "Feature",
   "geometry": {
    "type": "Point",
    "coordinates": [
     147.08359231,
     -38.15930855
    ]
   },
   "properties": {
    "name": "2713 ROSEDALE-LONGFORD ROAD LONGFORD 3851",
    "locID": "LOC000034636870",
    "tech": "WIRELESS",
    "upgrade": "NULL_NA",
    "gnaf_pid": "GAVIC422187050"
   }
  },
  {
   "type": "Feature",
   "geometry": {
    "type": "Point",
    "coordinates": [
     147.08386706,
     -38.16000234
    ]
   },
   "properties": {
    "name": "2714 ROSEDALE-LONGFORD ROAD LONGFORD 3851",
    "locID": "LOC000058316662",
    "tech": "WIRELESS",
    "upgrade": "NULL_NA",
    "gnaf_pid": "GAVIC422187051"
   }
  },
  {
   "type": "Feature",
   "geometry": {
    "type": "Point",
    "coordinates": [
     147.13971131,
     -38.25746633
    ]
   },
   "properties": {
    "name": "1009 SEASPRAY ROAD LONGFORD 3851",
    "locID": "LOC000101144048",
    "tech": "SATELLITE",
    "upgrade": "NULL_NA",
    "gnaf_pid": "GAVIC422188972"
   }
  },
  {
   "type": "Feature",
   "geometry": {
    "type": "Point",
    "coordinates": [
     147.14724534,
     -38.2639462
    ]
   },
   "properties": {
    "name": "1107 SEASPRAY ROAD LONGFORD 3851",
    "locID": "ChIJTUqcy4rYLmsRvG0_R5J0U4k",
    "tech": "WIRELESS",
    "upgrade": "UNKNOWN",
    "gnaf_pid": "GAVIC422188973"
   }
  },
  {
   "type": "Feature",
   "geometry": {
    "type": "Point",
    "coordinates": [
     147.09149797,
     -38.18395342
    ]
   },
   "properties": {
    "name": "113 SEASPRAY ROAD LONGFORD 3851",
    "locID": "LOC000164461919",
    "tech": "WIRELESS",
    "upgrade": "NULL_NA",
    "gnaf_pid": "GAVIC422188974"
   }
  },
  {
   "type": "Feature",
   "geometry": {
    "type": "Point",
    "coordinates": [
     147.09155047,
     -38.18412137
    ]
   },
   "properties": {
    "name": "115 SEASPRAY ROAD LONGFORD 3851",
    "locID": "LOC000100716467",
    "tech": "WIRELESS",
    "upgrade": "NULL_NA",
    "gnaf_pid": "GAVIC422188975"
   }
  },
  {
   "type": "Feature",
   "geometry": {
    "type": "Point",
    "coordinates": [
     147.15007384,
     -38.27751559
    ]
   },
   "properties": {
    "name": "1300 SEASPRAY ROAD LONGFORD 3851",
    "locID": "LOC000033583315",
    "tech": "SATELLITE",
    "upgrade": "NULL_NA",
    "gnaf_pid": "GAVIC422188976"
   }
  },
  {
   "type": "Feature",
   "geometry": {
    "type": "Point",
    "coordinates": [
     147.09285135,
     -38.18776376
    ]
   },
   "properties": {
    "name": "157 SEASPRAY ROAD LONGFORD 3851",
    "locID": "LOC000125436823",
    "tech": "WIRELESS",
    "upgrade": "NULL_NA",
    "gnaf_pid": "GAVIC422188977"
   }
  },
  {
   "type": "Feature",
   "geometry": {
    "type": "Point",
    "coordinates": [
     147.09188312,
     -38.18704688
    ]
   },
   "properties": {
    "name": "158 SEASPRAY ROAD LONGFORD 3851",
    "locID": "LOC000083553313",
    "tech": "WIRELESS",
    "upgrade": "NULL_NA",
    "gnaf_pid": "GAVIC422188978"
   }
  },
  {
   "type": "Feature",
   "geometry": {
    "type": "Point",
    "coordinates": [
     147.09202961,
     -38.1881069
    ]
   },
   "properties": {
    "name": "160 SEASPRAY ROAD LONGFORD 3851",
    "locID": "LOC000059074735",
    "tech": "WIRELESS",
    "upgrade": "NULL_NA",
    "gnaf_pid": "GAVIC422188979"
   }
  },
  {
   "type": "Feature",
   "geometry": {
    "type": "Point",
    "coordinates": [
     147.09330175,
     -38.19173801
    ]
   },
   "properties": {
    "name": "202 SEASPRAY ROAD LONGFORD 3851",
    "locID": "LOC000052716989",
    "tech": "WIRELESS",
    "upgrade": "NULL_NA",
    "gnaf_pid": "GAVIC422188980"
   }
  },
  {
   "type": "Feature",
   "geometry": {
    "type": "Point",
    "coordinates": [
     147.09360734,
     -38.19244981
    ]
   },
   "properties": {
    "name": "210 SEASPRAY ROAD LONGFORD 3851",
    "locID": "LOC000080052349",
    "tech": "WIRELESS",
    "upgrade": "NULL_NA",
    "gnaf_pid": "GAVIC422188981"
   }
  },
  {
   "type": "Feature",
   "geometry": {
    "type": "Point",
    "coordinates": [
     147.09498413,
     -38.19457569
    ]
   },
   "properties": {
    "name": "233 SEASPRAY ROAD LONGFORD 3851",
    "locID": "LOC000015123240",
    "tech": "WIRELESS",
    "upgrade": "NULL_NA",
    "gnaf_pid": "GAVIC422188982"
   }
  },
  {
   "type": "Feature",
   "geometry": {
    "type": "Point",
    "coordinates": [
     147.09525925,
     -38.1953686
    ]
   },
   "properties": {
    "name": "245 SEASPRAY ROAD LONGFORD 3851",
    "locID": "LOC000002845035",
    "tech": "WIRELESS",
    "upgrade": "NULL_NA",
    "gnaf_pid": "GAVIC422188983"
   }
  },
  {
   "type": "Feature",
   "geometry": {
    "type": "Point",
    "coordinates": [
     147.09532156,
     -38.19814347
    ]
   },
   "properties": {
    "name": "276 SEASPRAY ROAD LONGFORD 3851",
    "locID": "LOC000034968851",
    "tech": "WIRELESS",
    "upgrade": "NULL_NA",
    "gnaf_pid": "GAVIC422188984"
   }
  },
  {
   "type": "Feature",
   "geometry": {
    "type": "Point",
    "coordinates": [
     147.09886784,
     -38.20369335
    ]
   },
   "properties": {
    "name": "341 SEASPRAY ROAD LONGFORD 3851",
    "locID": "LOC000011164819",
    "tech": "WIRELESS",
    "upgrade": "NULL_NA",
    "gnaf_pid": "GAVIC422188985"
   }
  },
  {
   "type": "Feature",
   "geometry": {
    "type": "Point",
    "coordinates": [
     147.09930319,
     -38.20468436
    ]
   },
   "properties": {
    "name": "355 SEASPRAY ROAD LONGFORD 3851",
    "locID": "LOC000022806835",
    "tech": "WIRELESS",
    "upgrade": "NULL_NA",
    "gnaf_pid": "GAVIC422188986"
   }
  },