{
 "type": "FeatureCollection",
 "generated": "2024-09-30T07:31:49.569003",
 "suburb": "MALDON",
 "features": [
  {
   "type": "Feature",
   "geometry": {
    "type": "Point",
    "coordinates": [
     144.05705377,
     -37.01149958
    ]
   },
   "properties": {
    "name": "115 PARKINS REEF ROAD MALDON 3463",
    "locID": "LOC000015187653",
    "tech": "NULL",
    "upgrade": "NULL_NA",
    "gnaf_pid": "GAVIC411742520",
    "tech_change_status": "Not Planned"
   }
  },
  {
   "type": "Feature",
   "geometry": {
    "type": "Point",
    "coordinates": [
     144.05342491,
     -37.01362943
    ]
   },
   "properties": {
    "name": "152 PARKINS REEF ROAD MALDON 3463",
    "locID": "LOC000062376211",
    "tech": "WIRELESS",
    "upgrade": "NULL_NA",
    "gnaf_pid": "GAVIC411742521",
    "tech_change_status": "Not Planned"
   }
  },
  {
   "type": "Feature",
   "geometry": {
    "type": "Point",
    "coordinates": [
     144.07246145,
     -37.00872595
    ]
   },
   "properties": {
    "name": "54 CASTLEMAINE-MALDON ROAD MALDON 3463",
    "locID": "LOC000098023019",
    "tech": "FTTN",
    "upgrade": "NULL_NA",
    "gnaf_pid": "GAVIC411742567",
    "tech_change_status": "Not Planned"
   }
  },
  {
   "type": "Feature",
   "geometry": {
    "type": "Point",
    "coordinates": [
     144.08635513,
     -36.97817054
    ]
   },
   "properties": {
    "name": "225 BELLS REEF ROAD MALDON 3463",
    "locID": "LOC000022051303",
    "tech": "SATELLITE",
    "upgrade": "NULL_NA",
    "gnaf_pid": "GAVIC411742575",
    "tech_change_status": "Not Planned"
   }
  },
  {
   "type": "Feature",
   "geometry": {
    "type": "Point",
    "coordinates": [
     144.06888884,
     -36.99830341
    ]
   },
   "properties": {
    "name": "26 HIGH STREET MALDON 3463",
    "locID": "LOC000114501774",
    "tech": "FTTN",
    "upgrade": "FTTP_NA",
    "gnaf_pid": "GAVIC411750797",
    "tech_change_status": "Committed",
    "program_type": "On-Demand N2P SDU/MDU Simple",
    "target_eligibility_quarter": "Dec 2024"
   }
  },
  {
   "type": "Feature",
   "geometry": {
    "type": "Point",
    "coordinates": [
     144.07315561,
     -37.00934143
    ]
   },
   "properties": {
    "name": "56 CASTLEMAINE-MALDON ROAD MALDON 3463",
    "locID": "LOC000101651877",
    "tech": "FTTN",
    "upgrade": "NULL_NA",
    "gnaf_pid": "GAVIC411750798",
    "tech_change_status": "Not Planned"
   }
  },
  {
   "type": "Feature",
   "geometry": {
    "type": "Point",
    "coordinates": [
     144.06715041,
     -36.98756164
    ]
   },
   "properties": {
    "name": "47 CHURCH STREET MALDON 3463",
    "locID": "LOC000011017960",
    "tech": "FTTN",
    "upgrade": "FTTP_NA",
    "gnaf_pid": "GAVIC411755604",
    "tech_change_status": "Committed",
    "program_type": "On-Demand N2P SDU/MDU Simple",
    "target_eligibility_quarter": "Dec 2024"
   }
  },
  {
   "type": "Feature",
   "geometry": {
    "type": "Point",
    "coordinates": [
     144.06389786,
     -36.98686359
    ]
   },
   "properties": {
    "name": "102 HIGH STREET MALDON 3463",
    "locID": "LOC000056222376",
    "tech": "FTTN",
    "upgrade": "FTTP_NA",
    "gnaf_pid": "GAVIC411755605",
    "tech_change_status": "Committed",
    "program_type": "On-Demand N2P SDU/MDU Simple",
    "target_eligibility_quarter": "Dec 2024"
   }
  },
  {
   "type": "Feature",
   "geometry": {
    "type": "Point",
    "coordinates": [
     144.06888884,
     -36.99830341
    ]
   },
   "properties": {
    "name": "22 HIGH STREET MALDON 3463",
    "locID": "LOC000077052927",
    "tech": "FTTN",
    "upgrade": "FTTP_NA",
    "gnaf_pid": "GAVIC411756415",
    "tech_change_status": "Committed",
    "program_type": "On-Demand N2P SDU/MDU Simple",
    "target_eligibility_quarter": "Dec 2024"
   }
  },
  {
   "type": "Feature",
   "geometry": {
    "type": "Point",
    "coordinates": [
     144.066208,
     -37.00384206
    ]
   },
   "properties": {
    "name": "UNIT 1, 1 COX STREET MALDON 3463",
    "locID": "LOC000033045503",
    "tech": "FTTN",
    "upgrade": "FTTP_NA",
    "gnaf_pid": "GAVIC411756419",
    "tech_change_status": "Committed",
    "program_type": "On-Demand N2P SDU/MDU Simple",
    "target_eligibility_quarter": "Dec 2025"
   }
  },
  {
   "type": "Feature",
   "geometry": {
    "type": "Point",
    "coordinates": [
     144.06849659,
     -37.00648566
    ]
   },
   "properties": {
    "name": "3 BAXTER STREET MALDON 3463",
    "locID": "LOC000070481307",
    "tech": "FTTN",
    "upgrade": "FTTP_NA",
    "gnaf_pid": "GAVIC411759225",
    "tech_change_status": "Committed",
    "program_type": "On-Demand N2P SDU/MDU Simple",
    "target_eligibility_quarter": "Dec 2024"
   }
  },
  {
   "type": "Feature",
   "geometry": {
    "type": "Point",
    "coordinates": [
     144.06374211,
     -36.9864523
    ]
   },
   "properties": {
    "name": "104A HIGH STREET MALDON 3463",
    "locID": "LOC000033892252",
    "tech": "FTTN",
    "upgrade": "FTTP_NA",
    "gnaf_pid": "GAVIC411765856",
    "tech_change_status": "Committed",
    "program_type": "On-Demand N2P SDU/MDU Simple",
    "target_eligibility_quarter": "Dec 2024"
   }
  },
  {
   "type": "Feature",
   "geometry": {
    "type": "Point",
    "coordinates": [
     144.0659964,
     -36.99150649
    ]
   },
   "properties": {
    "name": "36 ADAIR STREET MALDON 3463",
    "locID": "LOC000105833937",
    "tech": "FTTN",
    "upgrade": "FTTP_NA",
    "gnaf_pid": "GAVIC411765888",
    "tech_change_status": "Committed",
    "program_type": "On-Demand N2P SDU/MDU Simple",
    "target_eligibility_quarter": "Dec 2024"
   }
  },
  {
   "type": "Feature",
   "geometry": {
    "type": "Point",
    "coordinates": [
     144.06637142,
     -36.99711872
    ]
   },
   "properties": {
    "name": "3A FOUNTAIN STREET MALDON 3463",
    "locID": "LOC000040456497",
    "tech": "FTTN",
    "upgrade": "FTTP_NA",
    "gnaf_pid": "GAVIC411765890",
    "tech_change_status": "Committed",
    "program_type": "On-Demand N2P SDU/MDU Simple",
    "target_eligibility_quarter": "Dec 2024"
   }
  },
  {
   "type": "Feature",
   "geometry": {
    "type": "Point",
    "coordinates": [
     144.06616804,
     -36.99804186
    ]
   },
   "properties": {
    "name": "3 CHAPEL STREET SOUTH MALDON 3463",
    "locID": "LOC000115790454",
    "tech": "FTTN",
    "upgrade": "FTTP_NA",
    "gnaf_pid": "GAVIC411765896",
    "tech_change_status": "Committed",
    "program_type": "On-Demand N2P SDU/MDU Simple",
    "target_eligibility_quarter": "Dec 2024"
   }
  },
  {
   "type": "Feature",
   "geometry": {
    "type": "Point",
    "coordinates": [
     144.06472649,
     -37.01045191
    ]
   },
   "properties": {
    "name": "1163 MALDON-NEWSTEAD ROAD MALDON 3463",
    "locID": "LOC000106246126",
    "tech": "FTTN",
    "upgrade": "NULL_NA",
    "gnaf_pid": "GAVIC411766141",
    "tech_change_status": "Not Planned"
   }
  },
  {
   "type": "Feature",
   "geometry": {
    "type": "Point",
    "coordinates": [
     144.06426232,
     -37.01425022
    ]
   },
   "properties": {
    "name": "1133 MALDON-NEWSTEAD ROAD MALDON 3463",
    "locID": "LOC000104808354",
    "tech": "FTTN",
    "upgrade": "NULL_NA",
    "gnaf_pid": "GAVIC411766284",
    "tech_change_status": "Not Planned"
   }
  },
  {
   "type": "Feature",
   "geometry": {
    "type": "Point",
    "coordinates": [
     144.07042312,
     -37.00620221
    ]
   },
   "properties": {
    "name": "34 CASTLEMAINE-MALDON ROAD MALDON 3463",
    "locID": "LOC000044909049",
    "tech": "FTTN",
    "upgrade": "NULL_NA",
    "gnaf_pid": "GAVIC411766533",
    "tech_change_status": "Not Planned"
   }
  },
  {
   "type": "Feature",
   "geometry": {
    "type": "Point",
    "coordinates": [
     144.06875065,
     -36.99914365
    ]
   },
   "properties": {
    "name": "12 HIGH STREET MALDON 3463",
    "locID": "LOC000112975771",
    "tech": "FTTN",
    "upgrade": "FTTP_NA",
    "gnaf_pid": "GAVIC411766538",
    "tech_change_status": "Committed",
    "program_type": "On-Demand N2P SDU/MDU Simple",
    "target_eligibility_quarter": "Dec 2024"
   }
  },
  {
   "type": "Feature",
   "geometry": {
    "type": "Point",
    "coordinates": [
     144.07175819,
     -37.00648694
    ]
   },
   "properties": {
    "name": "5 CASTLEMAINE-MALDON ROAD MALDON 3463",
    "locID": "LOC000071456611",
    "tech": "FTTN",
    "upgrade": "NULL_NA",
    "gnaf_pid": "GAVIC411766541",
    "tech_change_status": "Not Planned"
   }
  },
  {
   "type": "Feature",
   "geometry": {
    "type": "Point",
    "coordinates": [
     144.06470155,
     -37.00642432
    ]
   },
   "properties": {
    "name": "9 PARKINS REEF ROAD MALDON 3463",
    "locID": "LOC000158780573",
    "tech": "FTTN",
    "upgrade": "FTTP_NA",
    "gnaf_pid": "GAVIC411766542",
    "tech_change_status": "Committed",
    "program_type": "On-Demand N2P SDU/MDU Simple",
    "target_eligibility_quarter": "Dec 2024"
   }
  },
  {
   "type": "Feature",
   "geometry": {
    "type": "Point",
    "coordinates": [
     144.06471627,
     -36.98818099
    ]
   },
   "properties": {
    "name": "39A FRANKLIN STREET MALDON 3463",
    "locID": "LOC000033771022",
    "tech": "FTTN",
    "upgrade": "FTTP_NA",
    "gnaf_pid": "GAVIC411767089",
    "tech_change_status": "Committed",
    "program_type": "On-Demand N2P SDU/MDU Simple",
    "target_eligibility_quarter": "Dec 2024"
   }
  },
  {
   "type": "Feature",
   "geometry": {
    "type": "Point",
    "coordinates": [
     144.06775384,
     -37.01349844
    ]
   },
   "properties": {
    "name": "55 POPEKS ROAD MALDON 3463",
    "locID": "LOC000010351576",
    "tech": "SATELLITE",
    "upgrade": "NULL_NA",
    "gnaf_pid": "GAVIC411767125",
    "tech_change_status": "Not Planned"
   }
  },
  {
   "type": "Feature",
   "geometry": {
    "type": "Point",
    "coordinates": [
     144.07501783,
     -36.98158692
    ]
   },
   "properties": {
    "name": "42 REEF STREET MALDON 3463",
    "locID": "LOC000056603977",
    "tech": "SATELLITE",
    "upgrade": "NULL_NA",
    "gnaf_pid": "GAVIC411768652",
    "tech_change_status": "Not Planned"
   }
  },
  {
   "type": "Feature",
   "geometry": {
    "type": "Point",
    "coordinates": [
     144.07443219,
     -37.0100928
    ]
   },
   "properties": {
    "name": "72 CASTLEMAINE-MALDON ROAD MALDON 3463",
    "locID": "LOC000096612371",
    "tech": "FTTN",
    "upgrade": "NULL_NA",
    "gnaf_pid": "GAVIC411768664",
    "tech_change_status": "Not Planned"
   }
  },
  {
   "type": "Feature",
   "geometry": {
    "type": "Point",
    "coordinates": [
     144.06914736,
     -37.00481592
    ]
   },
   "properties": {
    "name": "18 CASTLEMAINE-MALDON ROAD MALDON 3463",
    "locID": "LOC000067958554",
    "tech": "FTTN",
    "upgrade": "FTTP_NA",
    "gnaf_pid": "GAVIC411768665",
    "tech_change_status": "Committed",
    "program_type": "On-Demand N2P SDU/MDU Simple",
    "target_eligibility_quarter": "Dec 2024"
   }
  },
  {
   "type": "Feature",
   "geometry": {
    "type": "Point",
    "coordinates": [
     144.0732405,
     -36.9933626
    ]
   },
   "properties": {
    "name": "6A HORNSBY STREET MALDON 3463",
    "locID": "LOC000015235528",
    "tech": "FTTN",
    "upgrade": "FTTP_NA",
    "gnaf_pid": "GAVIC411768669",
    "tech_change_status": "Committed",
    "program_type": "On-Demand N2P SDU/MDU Simple",
    "target_eligibility_quarter": "Dec 2025"
   }
  },
  {
   "type": "Feature",
   "geometry": {
    "type": "Point",
    "coordinates": [
     144.06922181,
     -37.00498985
    ]
   },
   "properties": {
    "name": "20 CASTLEMAINE-MALDON ROAD MALDON 3463",
    "locID": "LOC000071854126",
    "tech": "FTTN",
    "upgrade": "FTTP_NA",
    "gnaf_pid": "GAVIC411768675",
    "tech_change_status": "Committed",
    "program_type": "On-Demand N2P SDU/MDU Simple",
    "target_eligibility_quarter": "Dec 2024"
   }
  },
  {
   "type": "Feature",
   "geometry": {
    "type": "Point",
    "coordinates": [
     144.0644771,
     -37.006176
    ]
   },
   "properties": {
    "name": "20 PARKINS REEF ROAD MALDON 3463",
    "locID": "LOC000070906055",
    "tech": "FTTN",
    "upgrade": "FTTP_NA",
    "gnaf_pid": "GAVIC411768685",
    "tech_change_status": "Committed",
    "program_type": "On-Demand N2P SDU/MDU Simple",
    "target_eligibility_quarter": "Dec 2024"
   }
  },
  {
   "type": "Feature",
   "geometry": {
    "type": "Point",
    "coordinates": [
     144.06921097,
     -36.99012683
    ]
   },
   "properties": {
    "name": "23 HARKER STREET MALDON 3463",
    "locID": "LOC000096308405",
    "tech": "FTTN",
    "upgrade": "FTTP_NA",
    "gnaf_pid": "GAVIC411769549",
    "tech_change_status": "Committed",
    "program_type": "On-Demand N2P SDU/MDU Simple",
    "target_eligibility_quarter": "Dec 2024"
   }
  },
  {
   "type": "Feature",
   "geometry": {
    "type": "Point",
    "coordinates": [
     144.052907,
     -37.04328499
    ]
   },
   "properties": {
    "name": "792 MALDON-NEWSTEAD ROAD MALDON 3463",
    "locID": "LOC000011040725",
    "tech": "SATELLITE",
    "upgrade": "NULL_NA",
    "gnaf_pid": "GAVIC411770025",
    "tech_change_status": "Not Planned"
   }
  },
  {
   "type": "Feature",
   "geometry": {
    "type": "Point",
    "coordinates": [
     144.04640714,
     -37.02731756
    ]
   },
   "properties": {
    "name": "139 SELLS LANE MALDON 3463",
    "locID": "LOC000020464596",
    "tech": "NULL",
    "upgrade": "NULL_NA",
    "gnaf_pid": "GAVIC411770027",
    "tech_change_status": "Not Planned"
   }
  },
  {
   "type": "Feature",
   "geometry": {
    "type": "Point",
    "coordinates": [
     144.05514429,
     -37.0388706
    ]
   },
   "properties": {
    "name": "841 MALDON-NEWSTEAD ROAD MALDON 3463",
    "locID": "LOC000003967856",
    "tech": "SATELLITE",
    "upgrade": "NULL_NA",
    "gnaf_pid": "GAVIC411770028",
    "tech_change_status": "Not Planned"
   }
  },
  {
   "type": "Feature",
   "geometry": {
    "type": "Point",
    "coordinates": [
     144.06025806,
     -37.03095633
    ]
   },
   "properties": {
    "name": "941 MALDON-NEWSTEAD ROAD MALDON 3463",
    "locID": "LOC000100399982",
    "tech": "WIRELESS",
    "upgrade": "NULL_NA",
    "gnaf_pid": "GAVIC411770030",
    "tech_change_status": "Not Planned"
   }
  },
  {
   "type": "Feature",
   "geometry": {
    "type": "Point",
    "coordinates": [
     144.07215963,
     -37.00819664
    ]
   },
   "properties": {
    "name": "48 CASTLEMAINE-MALDON ROAD MALDON 3463",
    "locID": "LOC000082822375",
    "tech": "WIRELESS",
    "upgrade": "NULL_NA",
    "gnaf_pid": "GAVIC411770412",
    "tech_change_status": "Not Planned"
   }
  },
  {
   "type": "Feature",
   "geometry": {
    "type": "Point",
    "coordinates": [
     144.07296804,
     -37.01288699
    ]
   },
   "properties": {
    "name": "2 DROVERS TRACK MALDON 3463",
    "locID": "LOC000101597409",
    "tech": "FTTN",
    "upgrade": "NULL_NA",
    "gnaf_pid": "GAVIC411770425",
    "tech_change_status": "Not Planned"
   }
  },
  {
   "type": "Feature",
   "geometry": {
    "type": "Point",
    "coordinates": [
     144.0662647,
     -37.00374978
    ]
   },
   "properties": {
    "name": "UNIT 2, 1 COX STREET MALDON 3463",
    "locID": "LOC000033062339",
    "tech": "FTTN",
    "upgrade": "FTTP_NA",
    "gnaf_pid": "GAVIC411770437",
    "tech_change_status": "Committed",
    "program_type": "On-Demand N2P SDU/MDU Simple",
    "target_eligibility_quarter": "Dec 2025"
   }
  },
  {
   "type": "Feature",
   "geometry": {
    "type": "Point",
    "coordinates": [
     144.05173421,
     -36.97729549
    ]
   },
   "properties": {
    "name": "32 NUGGETTY ROAD MALDON 3463",
    "locID": "LOC000069444122",
    "tech": "WIRELESS",
    "upgrade": "NULL_NA",
    "gnaf_pid": "GAVIC411772273",
    "tech_change_status": "Not Planned",
    "program_type": "Fixed Wireless and Satellite Upgrade Program",
    "target_eligibility_quarter": "NA"
   }
  },
  {
   "type": "Feature",
   "geometry": {
    "type": "Point",
    "coordinates": [
     144.06264514,
     -37.03095735
    ]
   },
   "properties": {
    "name": "20 BARHAM ROAD MALDON 3463",
    "locID": "LOC000088666121",
    "tech": "SATELLITE",
    "upgrade": "NULL_NA",
    "gnaf_pid": "GAVIC411772318",
    "tech_change_status": "Not Planned"
   }
  },
  {
   "type": "Feature",
   "geometry": {
    "type": "Point",
    "coordinates": [
     144.06399357,
     -37.00346826
    ]
   },
   "properties": {
    "name": "9 GRAY STREET MALDON 3463",
    "locID": "LOC000086317972",
    "tech": "FTTN",
    "upgrade": "FTTP_NA",
    "gnaf_pid": "GAVIC411772343",
    "tech_change_status": "Committed",
    "program_type": "On-Demand N2P SDU/MDU Simple",
    "target_eligibility_quarter": "Dec 2024"
   }
  },
  {
   "type": "Feature",
   "geometry": {
    "type": "Point",
    "coordinates": [
     144.06494615,
     -37.00413245
    ]
   },
   "properties": {
    "name": "16 GRAY STREET MALDON 3463",
    "locID": "LOC000056290366",
    "tech": "FTTN",
    "upgrade": "FTTP_NA",
    "gnaf_pid": "GAVIC411772345",
    "tech_change_status": "Committed",
    "program_type": "On-Demand N2P SDU/MDU Simple",
    "target_eligibility_quarter": "Dec 2024"
   }
  },
  {
   "type": "Feature",
   "geometry": {
    "type": "Point",
    "coordinates": [
     144.06603929,
     -37.00559162
    ]
   },
   "properties": {
    "name": "1B PARKINS REEF ROAD MALDON 3463",
    "locID": "LOC000021146042",
    "tech": "FTTN",
    "upgrade": "FTTP_NA",
    "gnaf_pid": "GAVIC411772352",
    "tech_change_status": "Committed",
    "program_type": "On-Demand N2P SDU/MDU Simple",
    "target_eligibility_quarter": "Dec 2024"
   }
  },
  {
   "type": "Feature",
   "geometry": {
    "type": "Point",
    "coordinates": [
     144.07043029,
     -36.99894102
    ]
   },
   "properties": {
    "name": "16 PHOENIX STREET MALDON 3463",
    "locID": "LOC000066934306",
    "tech": "FTTN",
    "upgrade": "FTTP_NA",
    "gnaf_pid": "GAVIC411772353",
    "tech_change_status": "Committed",
    "program_type": "On-Demand N2P SDU/MDU Simple",
    "target_eligibility_quarter": "Dec 2025"
   }
  },
  {
   "type": "Feature",
   "geometry": {
    "type": "Point",
    "coordinates": [
     144.08543767,
     -36.99229255
    ]
   },
   "properties": {
    "name": "32 MORRIS STREET MALDON 3463",
    "locID": "LOC000094387527",
    "tech": "FTTN",
    "upgrade": "NULL_NA",
    "gnaf_pid": "GAVIC411774811",
    "tech_change_status": "Not Planned"
   }
  },
  {
   "type": "Feature",
   "geometry": {
    "type": "Point",
    "coordinates": [
     144.08291251,
     -36.99287898
    ]
   },
   "properties": {
    "name": "30 MORRIS STREET MALDON 3463",
    "locID": "LOC000065660240",
    "tech": "FTTN",
    "upgrade": "NULL_NA",
    "gnaf_pid": "GAVIC411774812",
    "tech_change_status": "Not Planned"
   }
  },
  {
   "type": "Feature",
   "geometry": {
    "type": "Point",
    "coordinates": [
     144.07008798,
     -37.00610288
    ]
   },
   "properties": {
    "name": "32 CASTLEMAINE-MALDON ROAD MALDON 3463",
    "locID": "LOC000079591494",
    "tech": "FTTN",
    "upgrade": "NULL_NA",
    "gnaf_pid": "GAVIC411776196",
    "tech_change_status": "Not Planned"
   }
  },
  {
   "type": "Feature",
   "geometry": {
    "type": "Point",
    "coordinates": [
     144.0696411,
     -36.99488468
    ]
   },
   "properties": {
    "name": "3 EDWARDS STREET MALDON 3463",
    "locID": "LOC000041448172",
    "tech": "FTTN",
    "upgrade": "FTTP_NA",
    "gnaf_pid": "GAVIC411776723",
    "tech_change_status": "Committed",
    "program_type": "On-Demand N2P SDU/MDU Simple",
    "target_eligibility_quarter": "Dec 2024"
   }
  },
  {
   "type": "Feature",
   "geometry": {
    "type": "Point",
    "coordinates": [
     144.06646898,
     -36.98003481
    ]
   },
   "properties": {
    "name": "35 WATTLE GULLY ROAD MALDON 3463",
    "locID": "LOC000106426020",
    "tech": "FTTN",
    "upgrade": "FTTP_NA",
    "gnaf_pid": "GAVIC411776731",
    "tech_change_status": "Committed",
    "program_type": "On-Demand N2P SDU/MDU Simple",
    "target_eligibility_quarter": "Dec 2024"
   }
  },
  {
   "type": "Feature",
   "geometry": {
    "type": "Point",
    "coordinates": [
     144.09289276,
     -36.98543844
    ]
   },
   "properties": {
    "name": "38 PORCUPINE LANE MALDON 3463",
    "locID": "LOC000060598383",
    "tech": "WIRELESS",
    "upgrade": "NULL_NA",
    "gnaf_pid": "GAVIC411776733",
    "tech_change_status": "Not Planned",
    "program_type": "Fixed Wireless and Satellite Upgrade Program",
    "target_eligibility_quarter": "NA"
   }
  },
  {
   "type": "Feature",
   "geometry": {
    "type": "Point",
    "coordinates": [
     144.0639432,
     -36.98845652
    ]
   },
   "properties": {
    "name": "157 HIGH STREET MALDON 3463",
    "locID": "LOC000115087825",
    "tech": "FTTN",
    "upgrade": "FTTP_NA",
    "gnaf_pid": "GAVIC411778612",
    "tech_change_status": "Committed",
    "program_type": "On-Demand N2P SDU/MDU Simple",
    "target_eligibility_quarter": "Dec 2024"
   }
  },
  {
   "type": "Feature",
   "geometry": {
    "type": "Point",
    "coordinates": [
     144.06929504,
     -37.00516338
    ]
   },
   "properties": {
    "name": "22 CASTLEMAINE-MALDON ROAD MALDON 3463",
    "locID": "LOC000023549120",
    "tech": "FTTN",
    "upgrade": "FTTP_NA",
    "gnaf_pid": "GAVIC411778615",
    "tech_change_status": "Committed",
    "program_type": "On-Demand N2P SDU/MDU Simple",
    "target_eligibility_quarter": "Dec 2024"
   }
  },
  {
   "type": "Feature",
   "geometry": {
    "type": "Point",
    "coordinates": [
     144.06837454,
     -37.00369652
    ]
   },
   "properties": {
    "name": "4 CASTLEMAINE-MALDON ROAD MALDON 3463",
    "locID": "LOC000047641531",
    "tech": "FTTN",
    "upgrade": "FTTP_NA",
    "gnaf_pid": "GAVIC411778617",
    "tech_change_status": "Committed",
    "program_type": "On-Demand N2P SDU/MDU Simple",
    "target_eligibility_quarter": "Dec 2024"
   }
  },
  {
   "type": "Feature",
   "geometry": {
    "type": "Point",
    "coordinates": [
     144.07082352,
     -36.98000017
    ]
   },
   "properties": {
    "name": "52 CHURCH STREET MALDON 3463",
    "locID": "LOC000065722859",
    "tech": "WIRELESS",
    "upgrade": "NULL_NA",
    "gnaf_pid": "GAVIC411782436",
    "tech_change_status": "Not Planned",
    "program_type": "Fixed Wireless and Satellite Upgrade Program",
    "target_eligibility_quarter": "NA"
   }
  },
  {
   "type": "Feature",
   "geometry": {
    "type": "Point",
    "coordinates": [
     144.07089042,
     -36.98676092
    ]
   },
   "properties": {
    "name": "3 LOWTHER STREET MALDON 3463",
    "locID": "LOC000184354312",
    "tech": "FTTN",
    "upgrade": "FTTP_NA",
    "gnaf_pid": "GAVIC411785297",
    "tech_change_status": "Committed",
    "program_type": "On-Demand N2P SDU/MDU Simple",
    "target_eligibility_quarter": "Dec 2024"
   }
  },
  {
   "type": "Feature",
   "geometry": {
    "type": "Point",
    "coordinates": [
     144.07446085,
     -37.01302902
    ]
   },
   "properties": {
    "name": "12 DROVERS TRACK MALDON 3463",
    "locID": "LOC000069354203",
    "tech": "FTTN",
    "upgrade": "NULL_NA",
    "gnaf_pid": "GAVIC411785299",
    "tech_change_status": "Not Planned"
   }
  },
  {
   "type": "Feature",
   "geometry": {
    "type": "Point",
    "coordinates": [
     144.06931119,
     -36.99733543
    ]
   },
   "properties": {
    "name": "48 MAIN STREET MALDON 3463",
    "locID": "LOC000099908981",
    "tech": "FTTN",
    "upgrade": "FTTP_NA",
    "gnaf_pid": "GAVIC411785306",
    "tech_change_status": "Committed",
    "program_type": "On-Demand N2P SDU/MDU Simple",
    "target_eligibility_quarter": "Dec 2024"
   }
  },
  {
   "type": "Feature",
   "geometry": {
    "type": "Point",
    "coordinates": [
     144.06785579,
     -36.98593583
    ]
   },
   "properties": {
    "name": "32 CHURCH STREET MALDON 3463",
    "locID": "LOC000100582137",
    "tech": "FTTN",
    "upgrade": "FTTP_NA",
    "gnaf_pid": "GAVIC411785309",
    "tech_change_status": "Committed",
    "program_type": "On-Demand N2P SDU/MDU Simple",
    "target_eligibility_quarter": "Dec 2024"
   }
  },
  {
   "type": "Feature",
   "geometry": {
    "type": "Point",
    "coordinates": [
     144.06944293,
     -37.00550677
    ]
   },
   "properties": {
    "name": "26 CASTLEMAINE-MALDON ROAD MALDON 3463",
    "locID": "LOC000039063609",
    "tech": "FTTN",
    "upgrade": "FTTP_NA",
    "gnaf_pid": "GAVIC411785310",
    "tech_change_status": "Committed",
    "program_type": "On-Demand N2P SDU/MDU Simple",
    "target_eligibility_quarter": "Dec 2024"
   }
  },
  {
   "type": "Feature",
   "geometry": {
    "type": "Point",
    "coordinates": [
     144.07003685,
     -37.01220999
    ]
   },
   "properties": {
    "name": "23 ROWES ROAD MALDON 3463",
    "locID": "LOC000072069732",
    "tech": "FTTN",
    "upgrade": "NULL_NA",
    "gnaf_pid": "GAVIC411785321",
    "tech_change_status": "Not Planned"
   }
  },
  {
   "type": "Feature",
   "geometry": {
    "type": "Point",
    "coordinates": [
     144.08069649,
     -36.9977312
    ]
   },
   "properties": {
    "name": "50 OSWALD STREET MALDON 3463",
    "locID": "LOC000023532464",
    "tech": "WIRELESS",
    "upgrade": "NULL_NA",
    "gnaf_pid": "GAVIC411786162",
    "tech_change_status": "Not Planned",
    "program_type": "Fixed Wireless and Satellite Upgrade Program",
    "target_eligibility_quarter": "NA"
   }
  },
  {
   "type": "Feature",
   "geometry": {
    "type": "Point",
    "coordinates": [
     144.08091611,
     -36.9935968
    ]
   },
   "properties": {
    "name": "18 MORRIS STREET MALDON 3463",
    "locID": "LOC000017565475",
    "tech": "FTTN",
    "upgrade": "NULL_NA",
    "gnaf_pid": "GAVIC411787870",
    "tech_change_status": "Not Planned"
   }
  },
  {
   "type": "Feature",
   "geometry": {
    "type": "Point",
    "coordinates": [
     144.09249274,
     -36.98564057
    ]
   },
   "properties": {
    "name": "83 PORCUPINE LANE MALDON 3463",
    "locID": "LOC000019630287",
    "tech": "WIRELESS",
    "upgrade": "NULL_NA",
    "gnaf_pid": "GAVIC411787882",
    "tech_change_status": "Not Planned",
    "program_type": "Fixed Wireless and Satellite Upgrade Program",
    "target_eligibility_quarter": "NA"
   }
  },
  {
   "type": "Feature",
   "geometry": {
    "type": "Point",
    "coordinates": [
     144.05161439,
     -36.98011541
    ]
   },
   "properties": {
    "name": "120 BRIDGEWATER-MALDON ROAD MALDON 3463",
    "locID": "LOC000060430960",
    "tech": "WIRELESS",
    "upgrade": "NULL_NA",
    "gnaf_pid": "GAVIC411787883",
    "tech_change_status": "Not Planned"
   }
  },
  {
   "type": "Feature",
   "geometry": {
    "type": "Point",
    "coordinates": [
     144.06941506,
     -37.00648652
    ]
   },
   "properties": {
    "name": "2 POND DRIVE MALDON 3463",
    "locID": "LOC000043104291",
    "tech": "FTTN",
    "upgrade": "FTTP_NA",
    "gnaf_pid": "GAVIC411788594",
    "tech_change_status": "Committed",
    "program_type": "On-Demand N2P SDU/MDU Simple",
    "target_eligibility_quarter": "Dec 2024"
   }
  },
  {
   "type": "Feature",
   "geometry": {
    "type": "Point",
    "coordinates": [
     144.0735104,
     -36.9932496
    ]
   },
   "properties": {
    "name": "6B HORNSBY STREET MALDON 3463",
    "locID": "LOC000015272316",
    "tech": "FTTN",
    "upgrade": "FTTP_NA",
    "gnaf_pid": "GAVIC411789847",
    "tech_change_status": "Committed",
    "program_type": "On-Demand N2P SDU/MDU Simple",
    "target_eligibility_quarter": "Dec 2024"
   }
  },
  {
   "type": "Feature",
   "geometry": {
    "type": "Point",
    "coordinates": [
     144.06485999,
     -37.01281084
    ]
   },
   "properties": {
    "name": "1151 MALDON-NEWSTEAD ROAD MALDON 3463",
    "locID": "LOC000032151721",
    "tech": "FTTN",
    "upgrade": "NULL_NA",
    "gnaf_pid": "GAVIC411789859",
    "tech_change_status": "Not Planned"
   }
  },
  {
   "type": "Feature",
   "geometry": {
    "type": "Point",
    "coordinates": [
     144.07027091,
     -36.99568201
    ]
   },
   "properties": {
    "name": "1A REEF STREET MALDON 3463",
    "locID": "LOC000097117294",
    "tech": "FTTN",
    "upgrade": "FTTP_NA",
    "gnaf_pid": "GAVIC411789860",
    "tech_change_status": "Committed",
    "program_type": "On-Demand N2P SDU/MDU Simple",
    "target_eligibility_quarter": "Dec 2024"
   }
  },
  {
   "type": "Feature",
   "geometry": {
    "type": "Point",
    "coordinates": [
     144.09301554,
     -36.98487204
    ]
   },
   "properties": {
    "name": "29 PORCUPINE LANE MALDON 3463",
    "locID": "LOC000021250540",
    "tech": "SATELLITE",
    "upgrade": "NULL_NA",
    "gnaf_pid": "GAVIC411791573",
    "tech_change_status": "Not Planned"
   }
  },
  {
   "type": "Feature",
   "geometry": {
    "type": "Point",
    "coordinates": [
     144.0551399,
     -36.98574545
    ]
   },
   "properties": {
    "name": "28 MT TARRENGOWER ROAD MALDON 3463",
    "locID": "LOC000054397586",
    "tech": "WIRELESS",
    "upgrade": "NULL_NA",
    "gnaf_pid": "GAVIC411791574",
    "tech_change_status": "Not Planned",
    "program_type": "Fixed Wireless and Satellite Upgrade Program",
    "target_eligibility_quarter": "NA"
   }
  },
  {
   "type": "Feature",
   "geometry": {
    "type": "Point",
    "coordinates": [
     144.08795265,
     -36.98646275
    ]
   },
   "properties": {
    "name": "10 TELFORDS ROAD MALDON 3463",
    "locID": "LOC000070347218",
    "tech": "SATELLITE",
    "upgrade": "NULL_NA",
    "gnaf_pid": "GAVIC411791580",
    "tech_change_status": "Not Planned"
   }
  },
  {
   "type": "Feature",
   "geometry": {
    "type": "Point",
    "coordinates": [
     144.0758308,
     -37.00999201
    ]
   },
   "properties": {
    "name": "55 CASTLEMAINE-MALDON ROAD MALDON 3463",
    "locID": "LOC000075954393",
    "tech": "FTTN",
    "upgrade": "FTTP_NA",
    "gnaf_pid": "GAVIC411791581",
    "tech_change_status": "Committed",
    "program_type": "On-Demand N2P SDU/MDU Simple",
    "target_eligibility_quarter": "Dec 2024"
   }
  },
  {
   "type": "Feature",
   "geometry": {
    "type": "Point",
    "coordinates": [
     144.05922552,
     -36.98289674
    ]
   },
   "properties": {
    "name": "44 BRIDGEWATER-MALDON ROAD MALDON 3463",
    "locID": "LOC000014699385",
    "tech": "WIRELESS",
    "upgrade": "NULL_NA",
    "gnaf_pid": "GAVIC411791585",
    "tech_change_status": "Not Planned",
    "program_type": "Fixed Wireless and Satellite Upgrade Program",
    "target_eligibility_quarter": "NA"
   }
  },
  {
   "type": "Feature",
   "geometry": {
    "type": "Point",
    "coordinates": [
     144.06788329,
     -37.012328
    ]
   },
   "properties": {
    "name": "2 ROWES ROAD MALDON 3463",
    "locID": "LOC000036553148",
    "tech": "FTTN",
    "upgrade": "NULL_NA",
    "gnaf_pid": "GAVIC411805004",
    "tech_change_status": "Not Planned"
   }
  },
  {
   "type": "Feature",
   "geometry": {
    "type": "Point",
    "coordinates": [
     144.07865461,
     -36.9944946
    ]
   },
   "properties": {
    "name": "1 OSWALD STREET MALDON 3463",
    "locID": "LOC000027862377",
    "tech": "FTTN",
    "upgrade": "NULL_NA",
    "gnaf_pid": "GAVIC411805014",
    "tech_change_status": "Not Planned"
   }
  },
  {
   "type": "Feature",
   "geometry": {
    "type": "Point",
    "coordinates": [
     144.06978666,
     -36.9962789
    ]
   },
   "properties": {
    "name": "61 MAIN STREET MALDON 3463",
    "locID": "LOC000079096563",
    "tech": "FTTN",
    "upgrade": "FTTP_NA",
    "gnaf_pid": "GAVIC411805015",
    "tech_change_status": "Committed",
    "program_type": "On-Demand N2P SDU/MDU Simple",
    "target_eligibility_quarter": "Dec 2024"
   }
  },
  {
   "type": "Feature",
   "geometry": {
    "type": "Point",
    "coordinates": [
     144.069368,
     -37.00533483
    ]
   },
   "properties": {
    "name": "24 CASTLEMAINE-MALDON ROAD MALDON 3463",
    "locID": "LOC000091444946",
    "tech": "FTTN",
    "upgrade": "NULL_NA",
    "gnaf_pid": "GAVIC411805020",
    "tech_change_status": "Not Planned"
   }
  },
  {
   "type": "Feature",
   "geometry": {
    "type": "Point",
    "coordinates": [
     144.06898892,
     -37.00444751
    ]
   },
   "properties": {
    "name": "14 CASTLEMAINE-MALDON ROAD MALDON 3463",
    "locID": "LOC000060902907",
    "tech": "FTTN",
    "upgrade": "FTTP_NA",
    "gnaf_pid": "GAVIC411805022",
    "tech_change_status": "Committed",
    "program_type": "On-Demand N2P SDU/MDU Simple",
    "target_eligibility_quarter": "Dec 2024"
   }
  },
  {
   "type": "Feature",
   "geometry": {
    "type": "Point",
    "coordinates": [
     144.06866827,
     -36.98618204
    ]
   },
   "properties": {
    "name": "14 LOWTHER STREET MALDON 3463",
    "locID": "LOC000054591976",
    "tech": "FTTN",
    "upgrade": "FTTP_NA",
    "gnaf_pid": "GAVIC411805026",
    "tech_change_status": "Committed",
    "program_type": "On-Demand N2P SDU/MDU Simple",
    "target_eligibility_quarter": "Dec 2024"
   }
  },
  {
   "type": "Feature",
   "geometry": {
    "type": "Point",
    "coordinates": [
     144.06736034,
     -37.00649777
    ]
   },
   "properties": {
    "name": "LOT 2 JOHNS ROAD MALDON 3463",
    "locID": "LOC000050376238",
    "tech": "FTTN",
    "upgrade": "FTTP_NA",
    "gnaf_pid": "GAVIC412697602",
    "tech_change_status": "Committed",
    "program_type": "On-Demand N2P SDU/MDU Simple",
    "target_eligibility_quarter": "Dec 2024"
   }
  },
  {
   "type": "Feature",
   "geometry": {
    "type": "Point",
    "coordinates": [
     144.06736034,
     -37.00649777
    ]
   },
   "properties": {
    "name": "LOT 3 JOHNS ROAD MALDON 3463",
    "locID": "LOC000056846897",
    "tech": "FTTN",
    "upgrade": "FTTP_NA",
    "gnaf_pid": "GAVIC412697629",
    "tech_change_status": "Committed",
    "program_type": "On-Demand N2P SDU/MDU Simple",
    "target_eligibility_quarter": "Dec 2024"
   }
  },
  {
   "type": "Feature",
   "geometry": {
    "type": "Point",
    "coordinates": [
     144.06736034,
     -37.00649777
    ]
   },
   "properties": {
    "name": "LOT 1 JOHNS ROAD MALDON 3463",
    "locID": "LOC000002702965",
    "tech": "FTTN",
    "upgrade": "FTTP_NA",
    "gnaf_pid": "GAVIC412699648",
    "tech_change_status": "Committed",
    "program_type": "On-Demand N2P SDU/MDU Simple",
    "target_eligibility_quarter": "Dec 2024"
   }
  },
  {
   "type": "Feature",
   "geometry": {
    "type": "Point",
    "coordinates": [
     144.07080367,
     -36.99829695
    ]
   },
   "properties": {
    "name": "5 PHOENIX STREET MALDON 3463",
    "locID": "LOC000058525450",
    "tech": "FTTN",
    "upgrade": "FTTP_NA",
    "gnaf_pid": "GAVIC414308081",
    "tech_change_status": "Committed",
    "program_type": "On-Demand N2P SDU/MDU Simple",
    "target_eligibility_quarter": "Dec 2024"
   }
  },
  {
   "type": "Feature",
   "geometry": {
    "type": "Point",
    "coordinates": [
     144.06901916,
     -36.99538331
    ]
   },
   "properties": {
    "name": "5 TEMPLETON STREET MALDON 3463",
    "locID": "LOC000183187750",
    "tech": "FTTN",
    "upgrade": "FTTP_NA",
    "gnaf_pid": "GAVIC414313696",
    "tech_change_status": "Committed",
    "program_type": "On-Demand N2P SDU/MDU Simple",
    "target_eligibility_quarter": "Dec 2025"
   }
  },
  {
   "type": "Feature",
   "geometry": {
    "type": "Point",
    "coordinates": [
     144.06102324,
     -36.98889658
    ]
   },
   "properties": {
    "name": "27 WARNOCK STREET MALDON 3463",
    "locID": "LOC000101771845",
    "tech": "FTTN",
    "upgrade": "FTTP_NA",
    "gnaf_pid": "GAVIC414313721",
    "tech_change_status": "Committed",
    "program_type": "On-Demand N2P SDU/MDU Simple",
    "target_eligibility_quarter": "Dec 2024"
   }
  },
  {
   "type": "Feature",
   "geometry": {
    "type": "Point",
    "coordinates": [
     144.07865461,
     -36.9944946
    ]
   },
   "properties": {
    "name": "1B OSWALD STREET MALDON 3463",
    "locID": "LOC000027862377",
    "tech": "FTTN",
    "upgrade": "NULL_NA",
    "gnaf_pid": "GAVIC414318289",
    "tech_change_status": "Not Planned"
   }
  },
  {
   "type": "Feature",
   "geometry": {
    "type": "Point",
    "coordinates": [
     144.07008156,
     -36.9958297
    ]
   },
   "properties": {
    "name": "2 TEMPLETON STREET MALDON 3463",
    "locID": "LOC000098361630",
    "tech": "FTTN",
    "upgrade": "FTTP_NA",
    "gnaf_pid": "GAVIC414319152",
    "tech_change_status": "Committed",
    "program_type": "On-Demand N2P SDU/MDU Simple",
    "target_eligibility_quarter": "Dec 2024"
   }
  },
  {
   "type": "Feature",
   "geometry": {
    "type": "Point",
    "coordinates": [
     144.06991971,
     -36.99565435
    ]
   },
   "properties": {
    "name": "4 TEMPLETON STREET MALDON 3463",
    "locID": "LOC000023659117",
    "tech": "FTTN",
    "upgrade": "FTTP_NA",
    "gnaf_pid": "GAVIC414319153",
    "tech_change_status": "Committed",
    "program_type": "On-Demand N2P SDU/MDU Simple",
    "target_eligibility_quarter": "Dec 2024"
   }
  },
  {
   "type": "Feature",
   "geometry": {
    "type": "Point",
    "coordinates": [
     144.06921452,
     -36.997457
    ]
   },
   "properties": {
    "name": "40 MAIN STREET MALDON 3463",
    "locID": "LOC000096464356",
    "tech": "FTTN",
    "upgrade": "FTTP_NA",
    "gnaf_pid": "GAVIC414323533",
    "tech_change_status": "Committed",
    "program_type": "On-Demand N2P SDU/MDU Simple",
    "target_eligibility_quarter": "Dec 2024"
   }
  },
  {
   "type": "Feature",
   "geometry": {
    "type": "Point",
    "coordinates": [
     144.06921452,
     -36.997457
    ]
   },
   "properties": {
    "name": "42 MAIN STREET MALDON 3463",
    "locID": "LOC000096464356",
    "tech": "FTTN",
    "upgrade": "FTTP_NA",
    "gnaf_pid": "GAVIC414323535",
    "tech_change_status": "Committed",
    "program_type": "On-Demand N2P SDU/MDU Simple",
    "target_eligibility_quarter": "Dec 2024"
   }
  },
  {
   "type": "Feature",
   "geometry": {
    "type": "Point",
    "coordinates": [
     144.06804109,
     -36.99320411
    ]
   },
   "properties": {
    "name": "14 CAMP STREET MALDON 3463",
    "locID": "LOC000113267617",
    "tech": "FTTN",
    "upgrade": "FTTP_NA",
    "gnaf_pid": "GAVIC414327808",
    "tech_change_status": "Committed",
    "program_type": "On-Demand N2P SDU/MDU Simple",
    "target_eligibility_quarter": "Dec 2024"
   }
  },
  {
   "type": "Feature",
   "geometry": {
    "type": "Point",
    "coordinates": [
     144.06804109,
     -36.99320411
    ]
   },
   "properties": {
    "name": "16 CAMP STREET MALDON 3463",
    "locID": "LOC000114614948",
    "tech": "FTTN",
    "upgrade": "FTTP_NA",
    "gnaf_pid": "GAVIC414327809",
    "tech_change_status": "Committed",
    "program_type": "On-Demand N2P SDU/MDU Simple",
    "target_eligibility_quarter": "Dec 2024"
   }
  },
  {
   "type": "Feature",
   "geometry": {
    "type": "Point",
    "coordinates": [
     144.06319423,
     -36.99319423
    ]
   },
   "properties": {
    "name": "1 CHAPEL STREET MALDON 3463",
    "locID": "LOC000084882487",
    "tech": "FTTN",
    "upgrade": "FTTP_NA",
    "gnaf_pid": "GAVIC414332529",
    "tech_change_status": "Committed",
    "program_type": "Customer-initiated N2P MDU Complex",
    "target_eligibility_quarter": "Dec 2024"
   }
  },
  {
   "type": "Feature",
   "geometry": {
    "type": "Point",
    "coordinates": [
     144.06836385,
     -36.99788044
    ]
   },
   "properties": {
    "name": "75 HIGH STREET MALDON 3463",
    "locID": "LOC000095340687",
    "tech": "FTTN",
    "upgrade": "FTTP_NA",
    "gnaf_pid": "GAVIC414332896",
    "tech_change_status": "Committed",
    "program_type": "On-Demand N2P SDU/MDU Simple",
    "target_eligibility_quarter": "Dec 2024"
   }
  },
  {
   "type": "Feature",
   "geometry": {
    "type": "Point",
    "coordinates": [
     144.06888203,
     -36.9983447
    ]
   },
   "properties": {
    "name": "24 HIGH STREET MALDON 3463",
    "locID": "LOC000021176578",
    "tech": "FTTN",
    "upgrade": "FTTP_NA",
    "gnaf_pid": "GAVIC414332914",
    "tech_change_status": "Committed",
    "program_type": "On-Demand N2P SDU/MDU Simple",
    "target_eligibility_quarter": "Dec 2024"
   }
  },
  {
   "type": "Feature",
   "geometry": {
    "type": "Point",
    "coordinates": [
     144.06765329,
     -37.00431642
    ]
   },
   "properties": {
    "name": "4 JOHNS ROAD MALDON 3463",
    "locID": "LOC000095889877",
    "tech": "FTTN",
    "upgrade": "FTTP_NA",
    "gnaf_pid": "GAVIC414332937",
    "tech_change_status": "Committed",
    "program_type": "On-Demand N2P SDU/MDU Simple",
    "target_eligibility_quarter": "Dec 2024"
   }
  },
  {
   "type": "Feature",
   "geometry": {
    "type": "Point",
    "coordinates": [
     144.06817912,
     -37.00496787
    ]
   },
   "properties": {
    "name": "5 JOHNS ROAD MALDON 3463",
    "locID": "LOC000021808645",
    "tech": "FTTN",
    "upgrade": "FTTP_NA",
    "gnaf_pid": "GAVIC414332938",
    "tech_change_status": "Committed",
    "program_type": "On-Demand N2P SDU/MDU Simple",
    "target_eligibility_quarter": "Dec 2024"
   }
  },
  {
   "type": "Feature",
   "geometry": {
    "type": "Point",
    "coordinates": [
     144.06985037,
     -36.9968475
    ]
   },
   "properties": {
    "name": "66 MAIN STREET MALDON 3463",
    "locID": "LOC000079378980",
    "tech": "FTTN",
    "upgrade": "FTTP_NA",
    "gnaf_pid": "GAVIC414332989",
    "tech_change_status": "Committed",
    "program_type": "On-Demand N2P SDU/MDU Simple",
    "target_eligibility_quarter": "Dec 2024"
   }
  },
  {
   "type": "Feature",
   "geometry": {
    "type": "Point",
    "coordinates": [
     144.07034934,
     -36.99044573
    ]
   },
   "properties": {
    "name": "16 ADAIR STREET MALDON 3463",
    "locID": "LOC000091601343",
    "tech": "FTTN",
    "upgrade": "FTTP_NA",
    "gnaf_pid": "GAVIC414337079",
    "tech_change_status": "Committed",
    "program_type": "On-Demand N2P SDU/MDU Simple",
    "target_eligibility_quarter": "Dec 2024"
   }
  },
  {
   "type": "Feature",
   "geometry": {
    "type": "Point",
    "coordinates": [
     144.06618875,
     -36.99189556
    ]
   },
   "properties": {
    "name": "27 ADAIR STREET MALDON 3463",
    "locID": "LOC000097241119",
    "tech": "FTTN",
    "upgrade": "FTTP_NA",
    "gnaf_pid": "GAVIC414337088",
    "tech_change_status": "Committed",
    "program_type": "On-Demand N2P SDU/MDU Simple",
    "target_eligibility_quarter": "Dec 2024"
   }
  },
  {
   "type": "Feature",
   "geometry": {
    "type": "Point",
    "coordinates": [
     144.06826317,
     -36.99888165
    ]
   },
   "properties": {
    "name": "31 HIGH STREET MALDON 3463",
    "locID": "LOC000100918949",
    "tech": "FTTN",
    "upgrade": "FTTP_NA",
    "gnaf_pid": "GAVIC414337451",
    "tech_change_status": "Committed",
    "program_type": "On-Demand N2P SDU/MDU Simple",
    "target_eligibility_quarter": "Dec 2024"
   }
  },
  {
   "type": "Feature",
   "geometry": {
    "type": "Point",
    "coordinates": [
     144.06826317,
     -36.99888165
    ]
   },
   "properties": {
    "name": "37 HIGH STREET MALDON 3463",
    "locID": "LOC000100918949",
    "tech": "FTTN",
    "upgrade": "FTTP_NA",
    "gnaf_pid": "GAVIC414337472",
    "tech_change_status": "Committed",
    "program_type": "On-Demand N2P SDU/MDU Simple",
    "target_eligibility_quarter": "Dec 2024"
   }
  },
  {
   "type": "Feature",
   "geometry": {
    "type": "Point",
    "coordinates": [
     144.06892713,
     -36.99818349
    ]
   },
   "properties": {
    "name": "4 MAIN STREET MALDON 3463",
    "locID": "LOC000096464356",
    "tech": "FTTN",
    "upgrade": "FTTP_NA",
    "gnaf_pid": "GAVIC414341799",
    "tech_change_status": "Committed",
    "program_type": "On-Demand N2P SDU/MDU Simple",
    "target_eligibility_quarter": "Dec 2024"
   }
  },
  {
   "type": "Feature",
   "geometry": {
    "type": "Point",
    "coordinates": [
     144.06878888,
     -36.99719451
    ]
   },
   "properties": {
    "name": "7 MAIN STREET MALDON 3463",
    "locID": "LOC000076215633",
    "tech": "FTTN",
    "upgrade": "FTTP_NA",
    "gnaf_pid": "GAVIC414341802",
    "tech_change_status": "Committed",
    "program_type": "On-Demand N2P SDU/MDU Simple",
    "target_eligibility_quarter": "Dec 2024"
   }
  },
  {
   "type": "Feature",
   "geometry": {
    "type": "Point",
    "coordinates": [
     144.06906666,
     -36.99782497
    ]
   },
   "properties": {
    "name": "22 MAIN STREET MALDON 3463",
    "locID": "LOC000080310015",
    "tech": "FTTN",
    "upgrade": "FTTP_NA",
    "gnaf_pid": "GAVIC414341817",
    "tech_change_status": "Committed",
    "program_type": "On-Demand N2P SDU/MDU Simple",
    "target_eligibility_quarter": "Dec 2024"
   }
  },
  {
   "type": "Feature",
   "geometry": {
    "type": "Point",
    "coordinates": [
     144.06906666,
     -36.99782497
    ]
   },
   "properties": {
    "name": "24 MAIN STREET MALDON 3463",
    "locID": "LOC000080310015",
    "tech": "FTTN",
    "upgrade": "FTTP_NA",
    "gnaf_pid": "GAVIC414341819",
    "tech_change_status": "Committed",
    "program_type": "On-Demand N2P SDU/MDU Simple",
    "target_eligibility_quarter": "Dec 2024"
   }
  },
  {
   "type": "Feature",
   "geometry": {
    "type": "Point",
    "coordinates": [
     144.06900133,
     -36.99786246
    ]
   },
   "properties": {
    "name": "26 MAIN STREET MALDON 3463",
    "locID": "LOC000109104535",
    "tech": "FTTN",
    "upgrade": "FTTP_NA",
    "gnaf_pid": "GAVIC414341821",
    "tech_change_status": "Committed",
    "program_type": "On-Demand N2P SDU/MDU Simple",
    "target_eligibility_quarter": "Dec 2024"
   }
  },
  {
   "type": "Feature",
   "geometry": {
    "type": "Point",
    "coordinates": [
     144.06906666,
     -36.99782497
    ]
   },
   "properties": {
    "name": "28 MAIN STREET MALDON 3463",
    "locID": "LOC000109104535",
    "tech": "FTTN",
    "upgrade": "FTTP_NA",
    "gnaf_pid": "GAVIC414341823",
    "tech_change_status": "Committed",
    "program_type": "On-Demand N2P SDU/MDU Simple",
    "target_eligibility_quarter": "Dec 2024"
   }
  },
  {
   "type": "Feature",
   "geometry": {
    "type": "Point",
    "coordinates": [
     144.06634785,
     -37.0036087
    ]
   },
   "properties": {
    "name": "UNIT 3, 1 COX STREET MALDON 3463",
    "locID": "LOC000033045503",
    "tech": "FTTN",
    "upgrade": "FTTP_NA",
    "gnaf_pid": "GAVIC414345851",
    "tech_change_status": "Committed",
    "program_type": "On-Demand N2P SDU/MDU Simple",
    "target_eligibility_quarter": "Dec 2025"
   }
  },
  {
   "type": "Feature",
   "geometry": {
    "type": "Point",
    "coordinates": [
     144.06663615,
     -37.00371271
    ]
   },
   "properties": {
    "name": "UNIT 4, 1 COX STREET MALDON 3463",
    "locID": "LOC000032702394",
    "tech": "FTTN",
    "upgrade": "FTTP_NA",
    "gnaf_pid": "GAVIC414345852",
    "tech_change_status": "Committed",
    "program_type": "On-Demand N2P SDU/MDU Simple",
    "target_eligibility_quarter": "Dec 2025"
   }
  },
  {
   "type": "Feature",
   "geometry": {
    "type": "Point",
    "coordinates": [
     144.06837165,
     -36.99053529
    ]
   },
   "properties": {
    "name": "10 CHURCH STREET MALDON 3463",
    "locID": "LOC000056775664",
    "tech": "FTTN",
    "upgrade": "FTTP_NA",
    "gnaf_pid": "GAVIC414349402",
    "tech_change_status": "Committed",
    "program_type": "On-Demand N2P SDU/MDU Simple",
    "target_eligibility_quarter": "Dec 2024"
   }
  },
  {
   "type": "Feature",
   "geometry": {
    "type": "Point",
    "coordinates": [
     144.06773543,
     -36.99030184
    ]
   },
   "properties": {
    "name": "31 CHURCH STREET MALDON 3463",
    "locID": "LOC000075381810",
    "tech": "FTTN",
    "upgrade": "FTTP_NA",
    "gnaf_pid": "GAVIC414349408",
    "tech_change_status": "Committed",
    "program_type": "On-Demand N2P SDU/MDU Simple",
    "target_eligibility_quarter": "Dec 2024"
   }
  },
  {
   "type": "Feature",
   "geometry": {
    "type": "Point",
    "coordinates": [
     144.089796,
     -36.977954
    ]
   },
   "properties": {
    "name": "205 BELLS REEF ROAD MALDON 3463",
    "locID": "LOC000032459361",
    "tech": "WIRELESS",
    "upgrade": "NULL_NA",
    "gnaf_pid": "GAVIC419651615",
    "tech_change_status": "Not Planned"
   }
  },
  {
   "type": "Feature",
   "geometry": {
    "type": "Point",
    "coordinates": [
     144.087456,
     -36.98389508
    ]
   },
   "properties": {
    "name": "34 TELFORDS ROAD MALDON 3463",
    "locID": "LOC000096645652",
    "tech": "WIRELESS",
    "upgrade": "NULL_NA",
    "gnaf_pid": "GAVIC419651616",
    "tech_change_status": "Not Planned",
    "program_type": "Fixed Wireless and Satellite Upgrade Program",
    "target_eligibility_quarter": "NA"
   }
  },
  {
   "type": "Feature",
   "geometry": {
    "type": "Point",
    "coordinates": [
     144.05980106,
     -36.98828324
    ]
   },
   "properties": {
    "name": "34 LAWRENCE STREET MALDON 3463",
    "locID": "LOC000189695175",
    "tech": "FTTN",
    "upgrade": "FTTP_NA",
    "gnaf_pid": "GAVIC419651620",
    "tech_change_status": "Committed",
    "program_type": "On-Demand N2P SDU/MDU Simple",
    "target_eligibility_quarter": "Dec 2024"
   }
  },
  {
   "type": "Feature",
   "geometry": {
    "type": "Point",
    "coordinates": [
     144.06018834,
     -36.98723611
    ]
   },
   "properties": {
    "name": "66 FRANKLIN STREET MALDON 3463",
    "locID": "LOC000040218446",
    "tech": "FTTN",
    "upgrade": "FTTP_NA",
    "gnaf_pid": "GAVIC419651621",
    "tech_change_status": "Committed",
    "program_type": "On-Demand N2P SDU/MDU Simple",
    "target_eligibility_quarter": "Dec 2024"
   }
  },
  {
   "type": "Feature",
   "geometry": {
    "type": "Point",
    "coordinates": [
     144.06214726,
     -36.99185905
    ]
   },
   "properties": {
    "name": "3 WARNOCK STREET MALDON 3463",
    "locID": "LOC000051793428",
    "tech": "FTTN",
    "upgrade": "FTTP_NA",
    "gnaf_pid": "GAVIC419651622",
    "tech_change_status": "Committed",
    "program_type": "On-Demand N2P SDU/MDU Simple",
    "target_eligibility_quarter": "Dec 2024"
   }
  },
  {
   "type": "Feature",
   "geometry": {
    "type": "Point",
    "coordinates": [
     144.0628165,
     -36.98797076
    ]
   },
   "properties": {
    "name": "48 CHAPEL STREET MALDON 3463",
    "locID": "LOC000101848318",
    "tech": "FTTN",
    "upgrade": "FTTP_NA",
    "gnaf_pid": "GAVIC419651625",
    "tech_change_status": "Committed",
    "program_type": "On-Demand N2P SDU/MDU Simple",
    "target_eligibility_quarter": "Dec 2024"
   }
  },
  {
   "type": "Feature",
   "geometry": {
    "type": "Point",
    "coordinates": [
     144.06307008,
     -36.98877541
    ]
   },
   "properties": {
    "name": "40 CHAPEL STREET MALDON 3463",
    "locID": "LOC000012726278",
    "tech": "FTTN",
    "upgrade": "FTTP_NA",
    "gnaf_pid": "GAVIC419651626",
    "tech_change_status": "Committed",
    "program_type": "On-Demand N2P SDU/MDU Simple",
    "target_eligibility_quarter": "Dec 2024"
   }
  },
  {
   "type": "Feature",
   "geometry": {
    "type": "Point",
    "coordinates": [
     144.06318381,
     -36.98907993
    ]
   },
   "properties": {
    "name": "38 CHAPEL STREET MALDON 3463",
    "locID": "LOC000069180879",
    "tech": "FTTN",
    "upgrade": "FTTP_NA",
    "gnaf_pid": "GAVIC419652308",
    "tech_change_status": "Committed",
    "program_type": "On-Demand N2P SDU/MDU Simple",
    "target_eligibility_quarter": "Dec 2024"
   }
  },
  {
   "type": "Feature",
   "geometry": {
    "type": "Point",
    "coordinates": [
     144.06256065,
     -36.99059305
    ]
   },
   "properties": {
    "name": "37 PARKER STREET MALDON 3463",
    "locID": "LOC000107847302",
    "tech": "FTTN",
    "upgrade": "FTTP_NA",
    "gnaf_pid": "GAVIC419652310",
    "tech_change_status": "Committed",
    "program_type": "On-Demand N2P SDU/MDU Simple",
    "target_eligibility_quarter": "Dec 2024"
   }
  },
  {
   "type": "Feature",
   "geometry": {
    "type": "Point",
    "coordinates": [
     144.0629754,
     -36.990492
    ]
   },
   "properties": {
    "name": "33 PARKER STREET MALDON 3463",
    "locID": "LOC000077170020",
    "tech": "FTTN",
    "upgrade": "FTTP_NA",
    "gnaf_pid": "GAVIC419652311",
    "tech_change_status": "Committed",
    "program_type": "On-Demand N2P SDU/MDU Simple",
    "target_eligibility_quarter": "Dec 2024"
   }
  },
  {
   "type": "Feature",
   "geometry": {
    "type": "Point",
    "coordinates": [
     144.03715551,
     -37.01906714
    ]
   },
   "properties": {
    "name": "408 SOUTH PARKINS REEF ROAD MALDON 3463",
    "locID": "LOC000047882465",
    "tech": "WIRELESS",
    "upgrade": "NULL_NA",
    "gnaf_pid": "GAVIC419652322",
    "tech_change_status": "Not Planned",
    "program_type": "Fixed Wireless and Satellite Upgrade Program",
    "target_eligibility_quarter": "NA"
   }
  },
  {
   "type": "Feature",
   "geometry": {
    "type": "Point",
    "coordinates": [
     144.06660743,
     -36.98999988
    ]
   },
   "properties": {
    "name": "36 TEMPLETON STREET MALDON 3463",
    "locID": "LOC000034623469",
    "tech": "FTTN",
    "upgrade": "FTTP_NA",
    "gnaf_pid": "GAVIC419663128",
    "tech_change_status": "Committed",
    "program_type": "On-Demand N2P SDU/MDU Simple",
    "target_eligibility_quarter": "Dec 2024"
   }
  },
  {
   "type": "Feature",
   "geometry": {
    "type": "Point",
    "coordinates": [
     144.06688834,
     -36.9906941
    ]
   },
   "properties": {
    "name": "28 TEMPLETON STREET MALDON 3463",
    "locID": "LOC000042559887",
    "tech": "FTTN",
    "upgrade": "FTTP_NA",
    "gnaf_pid": "GAVIC419663965",
    "tech_change_status": "Committed",
    "program_type": "On-Demand N2P SDU/MDU Simple",
    "target_eligibility_quarter": "Dec 2025"
   }
  },
  {
   "type": "Feature",
   "geometry": {
    "type": "Point",
    "coordinates": [
     144.06803488,
     -36.98965561
    ]
   },
   "properties": {
    "name": "20 CHURCH STREET MALDON 3463",
    "locID": "LOC000083210003",
    "tech": "FTTN",
    "upgrade": "FTTP_NA",
    "gnaf_pid": "GAVIC419663966",
    "tech_change_status": "Committed",
    "program_type": "On-Demand N2P SDU/MDU Simple",
    "target_eligibility_quarter": "Dec 2024"
   }
  },
  {
   "type": "Feature",
   "geometry": {
    "type": "Point",
    "coordinates": [
     144.06854857,
     -36.98862205
    ]
   },
   "properties": {
    "name": "27 FRANKLIN STREET MALDON 3463",
    "locID": "LOC000063797857",
    "tech": "FTTN",
    "upgrade": "FTTP_NA",
    "gnaf_pid": "GAVIC419663967",
    "tech_change_status": "Committed",
    "program_type": "On-Demand N2P SDU/MDU Simple",
    "target_eligibility_quarter": "Dec 2024"
   }
  },
  {
   "type": "Feature",
   "geometry": {
    "type": "Point",
    "coordinates": [
     144.06743145,
     -36.99117255
    ]
   },
   "properties": {
    "name": "30 ADAIR STREET MALDON 3463",
    "locID": "LOC000093977192",
    "tech": "FTTN",
    "upgrade": "FTTP_NA",
    "gnaf_pid": "GAVIC419663968",
    "tech_change_status": "Committed",
    "program_type": "On-Demand N2P SDU/MDU Simple",
    "target_eligibility_quarter": "Dec 2024"
   }
  },
  {
   "type": "Feature",
   "geometry": {
    "type": "Point",
    "coordinates": [
     144.06391141,
     -37.00650014
    ]
   },
   "properties": {
    "name": "24 PARKINS REEF ROAD MALDON 3463",
    "locID": "LOC000058436383",
    "tech": "FTTN",
    "upgrade": "FTTP_NA",
    "gnaf_pid": "GAVIC419663973",
    "tech_change_status": "Committed",
    "program_type": "On-Demand N2P SDU/MDU Simple",
    "target_eligibility_quarter": "Dec 2024"
   }
  },
  {
   "type": "Feature",
   "geometry": {
    "type": "Point",
    "coordinates": [
     144.064677,
     -36.98067964
    ]
   },
   "properties": {
    "name": "137 BACK CEMETERY ROAD MALDON 3463",
    "locID": "LOC000096930118",
    "tech": "FTTN",
    "upgrade": "FTTP_NA",
    "gnaf_pid": "GAVIC419664953",
    "tech_change_status": "Committed",
    "program_type": "On-Demand N2P SDU/MDU Simple",
    "target_eligibility_quarter": "Dec 2024"
   }
  },
  {
   "type": "Feature",
   "geometry": {
    "type": "Point",
    "coordinates": [
     144.06755595,
     -36.99499908
    ]
   },
   "properties": {
    "name": "54 HIGH STREET MALDON 3463",
    "locID": "LOC000085557670",
    "tech": "FTTN",
    "upgrade": "FTTP_NA",
    "gnaf_pid": "GAVIC419664958",
    "tech_change_status": "Committed",
    "program_type": "On-Demand N2P SDU/MDU Simple",
    "target_eligibility_quarter": "Dec 2024"
   }
  },
  {
   "type": "Feature",
   "geometry": {
    "type": "Point",
    "coordinates": [
     144.0679123,
     -36.99538556
    ]
   },
   "properties": {
    "name": "50 HIGH STREET MALDON 3463",
    "locID": "LOC000014673396",
    "tech": "FTTN",
    "upgrade": "FTTP_NA",
    "gnaf_pid": "GAVIC419664959",
    "tech_change_status": "Committed",
    "program_type": "On-Demand N2P SDU/MDU Simple",
    "target_eligibility_quarter": "Dec 2024"
   }
  },
  {
   "type": "Feature",
   "geometry": {
    "type": "Point",
    "coordinates": [
     144.06845471,
     -36.9931296
    ]
   },
   "properties": {
    "name": "12 CAMP STREET MALDON 3463",
    "locID": "LOC000074863187",
    "tech": "FTTN",
    "upgrade": "FTTP_NA",
    "gnaf_pid": "GAVIC419664960",
    "tech_change_status": "Committed",
    "program_type": "On-Demand N2P SDU/MDU Simple",
    "target_eligibility_quarter": "Dec 2024"
   }
  },
  {
   "type": "Feature",
   "geometry": {
    "type": "Point",
    "coordinates": [
     144.06701538,
     -36.9923815
    ]
   },
   "properties": {
    "name": "29 TEMPLETON STREET MALDON 3463",
    "locID": "LOC000026823471",
    "tech": "FTTN",
    "upgrade": "FTTP_NA",
    "gnaf_pid": "GAVIC419664961",
    "tech_change_status": "Committed",
    "program_type": "On-Demand N2P SDU/MDU Simple",
    "target_eligibility_quarter": "Dec 2024"
   }
  },
  {
   "type": "Feature",
   "geometry": {
    "type": "Point",
    "coordinates": [
     144.06461989,
     -36.99286944
    ]
   },
   "properties": {
    "name": "14 CHAPEL STREET MALDON 3463",
    "locID": "LOC000088481363",
    "tech": "FTTN",
    "upgrade": "FTTP_NA",
    "gnaf_pid": "GAVIC419664962",
    "tech_change_status": "Committed",
    "program_type": "On-Demand N2P SDU/MDU Simple",
    "target_eligibility_quarter": "Dec 2024"
   }
  },
  {
   "type": "Feature",
   "geometry": {
    "type": "Point",
    "coordinates": [
     144.06422806,
     -36.99182249
    ]
   },
   "properties": {
    "name": "18 CHAPEL STREET MALDON 3463",
    "locID": "LOC000071476806",
    "tech": "FTTN",
    "upgrade": "FTTP_NA",
    "gnaf_pid": "GAVIC419664963",
    "tech_change_status": "Committed",
    "program_type": "On-Demand N2P SDU/MDU Simple",
    "target_eligibility_quarter": "Dec 2024"
   }
  },
  {
   "type": "Feature",
   "geometry": {
    "type": "Point",
    "coordinates": [
     144.06901436,
     -36.98960709
    ]
   },
   "properties": {
    "name": "29 HARKER STREET MALDON 3463",
    "locID": "LOC000023020957",
    "tech": "FTTN",
    "upgrade": "FTTP_NA",
    "gnaf_pid": "GAVIC419668369",
    "tech_change_status": "Committed",
    "program_type": "On-Demand N2P SDU/MDU Simple",
    "target_eligibility_quarter": "Dec 2024"
   }
  },
  {
   "type": "Feature",
   "geometry": {
    "type": "Point",
    "coordinates": [
     144.06862421,
     -36.9942664
    ]
   },
   "properties": {
    "name": "12 TEMPLETON STREET MALDON 3463",
    "locID": "LOC000069464115",
    "tech": "FTTN",
    "upgrade": "FTTP_NA",
    "gnaf_pid": "GAVIC419668370",
    "tech_change_status": "Committed",
    "program_type": "On-Demand N2P SDU/MDU Simple",
    "target_eligibility_quarter": "Dec 2024"
   }
  },
  {
   "type": "Feature",
   "geometry": {
    "type": "Point",
    "coordinates": [
     144.06977536,
     -36.9916172
    ]
   },
   "properties": {
    "name": "17 HARKER STREET MALDON 3463",
    "locID": "LOC000098168202",
    "tech": "FTTN",
    "upgrade": "FTTP_NA",
    "gnaf_pid": "GAVIC419668371",
    "tech_change_status": "Committed",
    "program_type": "On-Demand N2P SDU/MDU Simple",
    "target_eligibility_quarter": "Dec 2025"
   }
  },
  {
   "type": "Feature",
   "geometry": {
    "type": "Point",
    "coordinates": [
     144.06966311,
     -36.98629271
    ]
   },
   "properties": {
    "name": "6 LOWTHER STREET MALDON 3463",
    "locID": "LOC000088415667",
    "tech": "FTTN",
    "upgrade": "FTTP_NA",
    "gnaf_pid": "GAVIC419668372",
    "tech_change_status": "Committed",
    "program_type": "On-Demand N2P SDU/MDU Simple",
    "target_eligibility_quarter": "Dec 2024"
   }
  },
  {
   "type": "Feature",
   "geometry": {
    "type": "Point",
    "coordinates": [
     144.07027446,
     -36.9888958
    ]
   },
   "properties": {
    "name": "25 IRELAND STREET MALDON 3463",
    "locID": "LOC000016925959",
    "tech": "FTTN",
    "upgrade": "FTTP_NA",
    "gnaf_pid": "GAVIC419668373",
    "tech_change_status": "Committed",
    "program_type": "On-Demand N2P SDU/MDU Simple",
    "target_eligibility_quarter": "Dec 2024"
   }
  },
  {
   "type": "Feature",
   "geometry": {
    "type": "Point",
    "coordinates": [
     144.07050193,
     -36.9904009
    ]
   },
   "properties": {
    "name": "14 ADAIR STREET MALDON 3463",
    "locID": "LOC000069780548",
    "tech": "FTTN",
    "upgrade": "FTTP_NA",
    "gnaf_pid": "GAVIC419668374",
    "tech_change_status": "Committed",
    "program_type": "On-Demand N2P SDU/MDU Simple",
    "target_eligibility_quarter": "Dec 2024"
   }
  },
  {
   "type": "Feature",
   "geometry": {
    "type": "Point",
    "coordinates": [
     144.07078255,
     -36.99415114
    ]
   },
   "properties": {
    "name": "9 REEF STREET MALDON 3463",
    "locID": "LOC000070339531",
    "tech": "FTTN",
    "upgrade": "FTTP_NA",
    "gnaf_pid": "GAVIC419668376",
    "tech_change_status": "Committed",
    "program_type": "On-Demand N2P SDU/MDU Simple",
    "target_eligibility_quarter": "Dec 2024"
   }
  },
  {
   "type": "Feature",
   "geometry": {
    "type": "Point",
    "coordinates": [
     144.070868,
     -36.992516
    ]
   },
   "properties": {
    "name": "2 CAMP STREET MALDON 3463",
    "locID": "LOC000090390277",
    "tech": "FTTN",
    "upgrade": "FTTP_NA",
    "gnaf_pid": "GAVIC419668378",
    "tech_change_status": "Committed",
    "program_type": "On-Demand N2P SDU/MDU Simple",
    "target_eligibility_quarter": "Dec 2024"
   }
  },
  {
   "type": "Feature",
   "geometry": {
    "type": "Point",
    "coordinates": [
     144.071174,
     -36.9912729
    ]
   },
   "properties": {
    "name": "9 IRELAND STREET MALDON 3463",
    "locID": "LOC000020493287",
    "tech": "FTTN",
    "upgrade": "FTTP_NA",
    "gnaf_pid": "GAVIC419668379",
    "tech_change_status": "Committed",
    "program_type": "On-Demand N2P SDU/MDU Simple",
    "target_eligibility_quarter": "Dec 2024"
   }
  },
  {
   "type": "Feature",
   "geometry": {
    "type": "Point",
    "coordinates": [
     144.07111985,
     -36.99109959
    ]
   },
   "properties": {
    "name": "11 IRELAND STREET MALDON 3463",
    "locID": "LOC000097038909",
    "tech": "FTTN",
    "upgrade": "FTTP_NA",
    "gnaf_pid": "GAVIC419668380",
    "tech_change_status": "Committed",
    "program_type": "On-Demand N2P SDU/MDU Simple",
    "target_eligibility_quarter": "Dec 2024"
   }
  },
  {
   "type": "Feature",
   "geometry": {
    "type": "Point",
    "coordinates": [
     144.07426465,
     -36.99311731
    ]
   },
   "properties": {
    "name": "20 HORNSBY STREET MALDON 3463",
    "locID": "LOC000074380098",
    "tech": "FTTN",
    "upgrade": "FTTP_NA",
    "gnaf_pid": "GAVIC419668382",
    "tech_change_status": "Committed",
    "program_type": "On-Demand N2P SDU/MDU Simple",
    "target_eligibility_quarter": "Dec 2024"
   }
  },
  {
   "type": "Feature",
   "geometry": {
    "type": "Point",
    "coordinates": [
     144.07535258,
     -36.98254151
    ]
   },
   "properties": {
    "name": "38 REEF STREET MALDON 3463",
    "locID": "LOC000046721909",
    "tech": "WIRELESS",
    "upgrade": "NULL_NA",
    "gnaf_pid": "GAVIC419668383",
    "tech_change_status": "Not Planned",
    "program_type": "Fixed Wireless and Satellite Upgrade Program",
    "target_eligibility_quarter": "NA"
   }
  },
  {
   "type": "Feature",
   "geometry": {
    "type": "Point",
    "coordinates": [
     144.07455271,
     -36.98614555
    ]
   },
   "properties": {
    "name": "22 STUMP STREET MALDON 3463",
    "locID": "LOC000066847741",
    "tech": "FTTN",
    "upgrade": "NULL_NA",
    "gnaf_pid": "GAVIC419668385",
    "tech_change_status": "Not Planned"
   }
  },
  {
   "type": "Feature",
   "geometry": {
    "type": "Point",
    "coordinates": [
     144.07709852,
     -36.98619245
    ]
   },
   "properties": {
    "name": "12 STUMP STREET MALDON 3463",
    "locID": "LOC000095348938",
    "tech": "FTTN",
    "upgrade": "NULL_NA",
    "gnaf_pid": "GAVIC419668386",
    "tech_change_status": "Not Planned"
   }
  },
  {
   "type": "Feature",
   "geometry": {
    "type": "Point",
    "coordinates": [
     144.07463245,
     -36.98395181
    ]
   },
   "properties": {
    "name": "43-45 REEF STREET MALDON 3463",
    "locID": "LOC000070904948",
    "tech": "FTTN",
    "upgrade": "NULL_NA",
    "gnaf_pid": "GAVIC419669256",
    "tech_change_status": "Not Planned"
   }
  },
  {
   "type": "Feature",
   "geometry": {
    "type": "Point",
    "coordinates": [
     144.07704744,
     -36.98652124
    ]
   },
   "properties": {
    "name": "9 STUMP STREET MALDON 3463",
    "locID": "LOC000030152934",
    "tech": "FTTN",
    "upgrade": "NULL_NA",
    "gnaf_pid": "GAVIC419669257",
    "tech_change_status": "Not Planned"
   }
  },
  {
   "type": "Feature",
   "geometry": {
    "type": "Point",
    "coordinates": [
     144.07667144,
     -36.9889364
    ]
   },
   "properties": {
    "name": "1 TAILINGS LANE MALDON 3463",
    "locID": "LOC000103165244",
    "tech": "FTTN",
    "upgrade": "FTTP_NA",
    "gnaf_pid": "GAVIC419669258",
    "tech_change_status": "Committed",
    "program_type": "On-Demand N2P SDU/MDU Simple",
    "target_eligibility_quarter": "Dec 2025"
   }
  },
  {
   "type": "Feature",
   "geometry": {
    "type": "Point",
    "coordinates": [
     144.07227577,
     -36.99089356
    ]
   },
   "properties": {
    "name": "18 REEF STREET MALDON 3463",
    "locID": "LOC000022947498",
    "tech": "FTTN",
    "upgrade": "FTTP_NA",
    "gnaf_pid": "GAVIC419669259",
    "tech_change_status": "Committed",
    "program_type": "On-Demand N2P SDU/MDU Simple",
    "target_eligibility_quarter": "Dec 2024"
   }
  },
  {
   "type": "Feature",
   "geometry": {
    "type": "Point",
    "coordinates": [
     144.07220976,
     -36.99111161
    ]
   },
   "properties": {
    "name": "16 REEF STREET MALDON 3463",
    "locID": "LOC000062394514",
    "tech": "FTTN",
    "upgrade": "FTTP_NA",
    "gnaf_pid": "GAVIC419669260",
    "tech_change_status": "Committed",
    "program_type": "On-Demand N2P SDU/MDU Simple",
    "target_eligibility_quarter": "Dec 2024"
   }
  },
  {
   "type": "Feature",
   "geometry": {
    "type": "Point",
    "coordinates": [
     144.07818054,
     -36.99499927
    ]
   },
   "properties": {
    "name": "8 OSWALD STREET MALDON 3463",
    "locID": "LOC000089922707",
    "tech": "FTTN",
    "upgrade": "FTTP_NA",
    "gnaf_pid": "GAVIC419669262",
    "tech_change_status": "Committed",
    "program_type": "On-Demand N2P SDU/MDU Simple",
    "target_eligibility_quarter": "Dec 2024"
   }
  },
  {
   "type": "Feature",
   "geometry": {
    "type": "Point",
    "coordinates": [
     144.07828219,
     -36.99410096
    ]
   },
   "properties": {
    "name": "4 OSWALD STREET MALDON 3463",
    "locID": "LOC000124951645",
    "tech": "FTTN",
    "upgrade": "FTTP_NA",
    "gnaf_pid": "GAVIC419669263",
    "tech_change_status": "Committed",
    "program_type": "On-Demand N2P SDU/MDU Simple",
    "target_eligibility_quarter": "Dec 2024"
   }
  },
  {
   "type": "Feature",
   "geometry": {
    "type": "Point",
    "coordinates": [
     144.07831476,
     -36.99383389
    ]
   },
   "properties": {
    "name": "2 OSWALD STREET MALDON 3463",
    "locID": "LOC000108051080",
    "tech": "FTTN",
    "upgrade": "FTTP_NA",
    "gnaf_pid": "GAVIC419669264",
    "tech_change_status": "Committed",
    "program_type": "On-Demand N2P SDU/MDU Simple",
    "target_eligibility_quarter": "Dec 2024"
   }
  },
  {
   "type": "Feature",
   "geometry": {
    "type": "Point",
    "coordinates": [
     144.07888081,
     -36.98650224
    ]
   },
   "properties": {
    "name": "6 STUMP STREET MALDON 3463",
    "locID": "LOC000080946905",
    "tech": "FTTN",
    "upgrade": "NULL_NA",
    "gnaf_pid": "GAVIC419669266",
    "tech_change_status": "Not Planned"
   }
  },
  {
   "type": "Feature",
   "geometry": {
    "type": "Point",
    "coordinates": [
     144.06142369,
     -37.00833833
    ]
   },
   "properties": {
    "name": "35 PARKINS REEF ROAD MALDON 3463",
    "locID": "LOC000052941829",
    "tech": "FTTN",
    "upgrade": "FTTP_NA",
    "gnaf_pid": "GAVIC419669278",
    "tech_change_status": "Committed",
    "program_type": "On-Demand N2P SDU/MDU Simple",
    "target_eligibility_quarter": "Dec 2024"
   }
  },
  {
   "type": "Feature",
   "geometry": {
    "type": "Point",
    "coordinates": [
     144.06106308,
     -37.0085457
    ]
   },
   "properties": {
    "name": "37 PARKINS REEF ROAD MALDON 3463",
    "locID": "LOC000015147541",
    "tech": "FTTN",
    "upgrade": "FTTP_NA",
    "gnaf_pid": "GAVIC419669279",
    "tech_change_status": "Committed",
    "program_type": "On-Demand N2P SDU/MDU Simple",
    "target_eligibility_quarter": "Dec 2024"
   }
  },
  {
   "type": "Feature",
   "geometry": {
    "type": "Point",
    "coordinates": [
     144.067214,
     -37.00503673
    ]
   },
   "properties": {
    "name": "8-10 GRAY STREET MALDON 3463",
    "locID": "LOC000124969129",
    "tech": "FTTN",
    "upgrade": "FTTP_NA",
    "gnaf_pid": "GAVIC419669339",
    "tech_change_status": "Committed",
    "program_type": "On-Demand N2P SDU/MDU Simple",
    "target_eligibility_quarter": "Dec 2024"
   }
  },
  {
   "type": "Feature",
   "geometry": {
    "type": "Point",
    "coordinates": [
     144.07101808,
     -37.00350813
    ]
   },
   "properties": {
    "name": "4 UNION STREET MALDON 3463",
    "locID": "LOC000091073022",
    "tech": "FTTN",
    "upgrade": "FTTP_NA",
    "gnaf_pid": "GAVIC419669345",
    "tech_change_status": "Committed",
    "program_type": "On-Demand N2P SDU/MDU Simple",
    "target_eligibility_quarter": "Dec 2024"
   }
  },
  {
   "type": "Feature",
   "geometry": {
    "type": "Point",
    "coordinates": [
     144.071821,
     -36.9923907
    ]
   },
   "properties": {
    "name": "12 REEF STREET MALDON 3463",
    "locID": "LOC000101550551",
    "tech": "FTTN",
    "upgrade": "FTTP_NA",
    "gnaf_pid": "GAVIC419670444",
    "tech_change_status": "Committed",
    "program_type": "On-Demand N2P SDU/MDU Simple",
    "target_eligibility_quarter": "Dec 2024"
   }
  },
  {
   "type": "Feature",
   "geometry": {
    "type": "Point",
    "coordinates": [
     144.07293504,
     -37.01734256
    ]
   },
   "properties": {
    "name": "119 POPEKS ROAD MALDON 3463",
    "locID": "LOC000094906731",
    "tech": "WIRELESS",
    "upgrade": "NULL_NA",
    "gnaf_pid": "GAVIC419670445",
    "tech_change_status": "Not Planned"
   }
  },
  {
   "type": "Feature",
   "geometry": {
    "type": "Point",
    "coordinates": [
     144.06595525,
     -36.99881885
    ]
   },
   "properties": {
    "name": "13 SPRING STREET MALDON 3463",
    "locID": "LOC000065986282",
    "tech": "FTTN",
    "upgrade": "FTTP_NA",
    "gnaf_pid": "GAVIC419671056",
    "tech_change_status": "Committed",
    "program_type": "On-Demand N2P SDU/MDU Simple",
    "target_eligibility_quarter": "Dec 2024"
   }
  },
  {
   "type": "Feature",
   "geometry": {
    "type": "Point",
    "coordinates": [
     144.07353075,
     -36.97457225
    ]
   },
   "properties": {
    "name": "92 DAVIES LANE MALDON 3463",
    "locID": "LOC000070140517",
    "tech": "WIRELESS",
    "upgrade": "NULL_NA",
    "gnaf_pid": "GAVIC419673104",
    "tech_change_status": "Not Planned",
    "program_type": "Fixed Wireless and Satellite Upgrade Program",
    "target_eligibility_quarter": "NA"
   }
  },
  {
   "type": "Feature",
   "geometry": {
    "type": "Point",
    "coordinates": [
     144.07204164,
     -36.9793287
    ]
   },
   "properties": {
    "name": "58 CHURCH STREET MALDON 3463",
    "locID": "LOC000061999107",
    "tech": "WIRELESS",
    "upgrade": "NULL_NA",
    "gnaf_pid": "GAVIC419673106",
    "tech_change_status": "Not Planned",
    "program_type": "Fixed Wireless and Satellite Upgrade Program",
    "target_eligibility_quarter": "NA"
   }
  },
  {
   "type": "Feature",
   "geometry": {
    "type": "Point",
    "coordinates": [
     144.07153902,
     -36.97956651
    ]
   },
   "properties": {
    "name": "56 CHURCH STREET MALDON 3463",
    "locID": "LOC000045124146",
    "tech": "SATELLITE",
    "upgrade": "NULL_NA",
    "gnaf_pid": "GAVIC419673107",
    "tech_change_status": "Not Planned"
   }
  },
  {
   "type": "Feature",
   "geometry": {
    "type": "Point",
    "coordinates": [
     144.07571204,
     -36.97186861
    ]
   },
   "properties": {
    "name": "62 DAVIES LANE MALDON 3463",
    "locID": "LOC000022598696",
    "tech": "SATELLITE",
    "upgrade": "NULL_NA",
    "gnaf_pid": "GAVIC419673111",
    "tech_change_status": "Not Planned"
   }
  },
  {
   "type": "Feature",
   "geometry": {
    "type": "Point",
    "coordinates": [
     144.06314386,
     -37.00694444
    ]
   },
   "properties": {
    "name": "30 PARKINS REEF ROAD MALDON 3463",
    "locID": "LOC000033561235",
    "tech": "FTTN",
    "upgrade": "FTTP_NA",
    "gnaf_pid": "GAVIC419673122",
    "tech_change_status": "Committed",
    "program_type": "On-Demand N2P SDU/MDU Simple",
    "target_eligibility_quarter": "Dec 2024"
   }
  },
  {
   "type": "Feature",
   "geometry": {
    "type": "Point",
    "coordinates": [
     144.06766326,
     -37.00209289
    ]
   },
   "properties": {
    "name": "5 HIGH STREET MALDON 3463",
    "locID": "LOC000043646026",
    "tech": "FTTN",
    "upgrade": "FTTP_NA",
    "gnaf_pid": "GAVIC419673124",
    "tech_change_status": "Committed",
    "program_type": "On-Demand N2P SDU/MDU Simple",
    "target_eligibility_quarter": "Dec 2024"
   }
  },
  {
   "type": "Feature",
   "geometry": {
    "type": "Point",
    "coordinates": [
     144.064071,
     -36.996571
    ]
   },
   "properties": {
    "name": "19 FOUNTAIN STREET MALDON 3463",
    "locID": "LOC000071641364",
    "tech": "FTTN",
    "upgrade": "FTTP_NA",
    "gnaf_pid": "GAVIC419673125",
    "tech_change_status": "Committed",
    "program_type": "On-Demand N2P SDU/MDU Simple",
    "target_eligibility_quarter": "Dec 2024"
   }
  },
  {
   "type": "Feature",
   "geometry": {
    "type": "Point",
    "coordinates": [
     144.06429163,
     -36.98933034
    ]
   },
   "properties": {
    "name": "149 HIGH STREET MALDON 3463",
    "locID": "LOC000102495253",
    "tech": "FTTN",
    "upgrade": "FTTP_NA",
    "gnaf_pid": "GAVIC419673718",
    "tech_change_status": "Committed",
    "program_type": "On-Demand N2P SDU/MDU Simple",
    "target_eligibility_quarter": "Dec 2024"
   }
  },
  {
   "type": "Feature",
   "geometry": {
    "type": "Point",
    "coordinates": [
     144.06460248,
     -36.99228525
    ]
   },
   "properties": {
    "name": "39 ADAIR STREET MALDON 3463",
    "locID": "LOC000089671445",
    "tech": "FTTN",
    "upgrade": "FTTP_NA",
    "gnaf_pid": "GAVIC419673720",
    "tech_change_status": "Committed",
    "program_type": "On-Demand N2P SDU/MDU Simple",
    "target_eligibility_quarter": "Dec 2024"
   }
  },
  {
   "type": "Feature",
   "geometry": {
    "type": "Point",
    "coordinates": [
     144.06463207,
     -36.99019747
    ]
   },
   "properties": {
    "name": "145 HIGH STREET MALDON 3463",
    "locID": "LOC000103121234",
    "tech": "FTTN",
    "upgrade": "FTTP_NA",
    "gnaf_pid": "GAVIC419673721",
    "tech_change_status": "Committed",
    "program_type": "On-Demand N2P SDU/MDU Simple",
    "target_eligibility_quarter": "Dec 2024"
   }
  },
  {
   "type": "Feature",
   "geometry": {
    "type": "Point",
    "coordinates": [
     144.06392809,
     -36.9910409
    ]
   },
   "properties": {
    "name": "26 CHAPEL STREET MALDON 3463",
    "locID": "LOC000031776480",
    "tech": "FTTN",
    "upgrade": "FTTP_NA",
    "gnaf_pid": "GAVIC419673722",
    "tech_change_status": "Committed",
    "program_type": "On-Demand N2P SDU/MDU Simple",
    "target_eligibility_quarter": "Dec 2024"
   }
  },
  {
   "type": "Feature",
   "geometry": {
    "type": "Point",
    "coordinates": [
     144.06527492,
     -36.99052536
    ]
   },
   "properties": {
    "name": "80 HIGH STREET MALDON 3463",
    "locID": "LOC000103193859",
    "tech": "FTTN",
    "upgrade": "FTTP_NA",
    "gnaf_pid": "GAVIC419673725",
    "tech_change_status": "Committed",
    "program_type": "On-Demand N2P SDU/MDU Simple",
    "target_eligibility_quarter": "Dec 2024"
   }
  },
  {
   "type": "Feature",
   "geometry": {
    "type": "Point",
    "coordinates": [
     144.06689805,
     -36.9942654
    ]
   },
   "properties": {
    "name": "60 HIGH STREET MALDON 3463",
    "locID": "LOC000029307545",
    "tech": "FTTN",
    "upgrade": "FTTP_NA",
    "gnaf_pid": "GAVIC419673726",
    "tech_change_status": "Committed",
    "program_type": "On-Demand N2P SDU/MDU Simple",
    "target_eligibility_quarter": "Dec 2024"
   }
  },
  {
   "type": "Feature",
   "geometry": {
    "type": "Point",
    "coordinates": [
     144.06666449,
     -36.9862892
    ]
   },
   "properties": {
    "name": "27 LOWTHER STREET MALDON 3463",
    "locID": "LOC000009373935",
    "tech": "FTTN",
    "upgrade": "FTTP_NA",
    "gnaf_pid": "GAVIC419673727",
    "tech_change_status": "Committed",
    "program_type": "On-Demand N2P SDU/MDU Simple",
    "target_eligibility_quarter": "Dec 2024"
   }
  },
  {
   "type": "Feature",
   "geometry": {
    "type": "Point",
    "coordinates": [
     144.06572609,
     -36.99157271
    ]
   },
   "properties": {
    "name": "38 ADAIR STREET MALDON 3463",
    "locID": "LOC000029160027",
    "tech": "FTTN",
    "upgrade": "FTTP_NA",
    "gnaf_pid": "GAVIC419677474",
    "tech_change_status": "Committed",
    "program_type": "On-Demand N2P SDU/MDU Simple",
    "target_eligibility_quarter": "Dec 2024"
   }
  },
  {
   "type": "Feature",
   "geometry": {
    "type": "Point",
    "coordinates": [
     144.06884227,
     -36.99858157
    ]
   },
   "properties": {
    "name": "18 HIGH STREET MALDON 3463",
    "locID": "LOC000013873149",
    "tech": "FTTN",
    "upgrade": "FTTP_NA",
    "gnaf_pid": "GAVIC419677475",
    "tech_change_status": "Committed",
    "program_type": "On-Demand N2P SDU/MDU Simple",
    "target_eligibility_quarter": "Dec 2024"
   }
  },
  {
   "type": "Feature",
   "geometry": {
    "type": "Point",
    "coordinates": [
     144.0695723,
     -36.9965034
    ]
   },
   "properties": {
    "name": "39 MAIN STREET MALDON 3463",
    "locID": "LOC000106530632",
    "tech": "FTTN",
    "upgrade": "FTTP_NA",
    "gnaf_pid": "GAVIC419728660",
    "tech_change_status": "Committed",
    "program_type": "On-Demand N2P SDU/MDU Simple",
    "target_eligibility_quarter": "Dec 2024"
   }
  },
  {
   "type": "Feature",
   "geometry": {
    "type": "Point",
    "coordinates": [
     144.06671519,
     -36.997957
    ]
   },
   "properties": {
    "name": "UNIT 2, 4 CHAPEL STREET SOUTH MALDON 3463",
    "locID": "LOC000029244839",
    "tech": "FTTN",
    "upgrade": "FTTP_NA",
    "gnaf_pid": "GAVIC419728954",
    "tech_change_status": "Committed",
    "program_type": "Customer-initiated N2P MDU Complex",
    "target_eligibility_quarter": "Dec 2024"
   }
  },
  {
   "type": "Feature",
   "geometry": {
    "type": "Point",
    "coordinates": [
     144.06704396,
     -36.99344082
    ]
   },
   "properties": {
    "name": "20 CAMP STREET MALDON 3463",
    "locID": "LOC000071776399",
    "tech": "FTTN",
    "upgrade": "FTTP_NA",
    "gnaf_pid": "GAVIC419731492",
    "tech_change_status": "Committed",
    "program_type": "On-Demand N2P SDU/MDU Simple",
    "target_eligibility_quarter": "Dec 2025"
   }
  },
  {
   "type": "Feature",
   "geometry": {
    "type": "Point",
    "coordinates": [
     144.06221275,
     -36.99203175
    ]
   },
   "properties": {
    "name": "1 WARNOCK STREET MALDON 3463",
    "locID": "LOC000079855878",
    "tech": "FTTN",
    "upgrade": "FTTP_NA",
    "gnaf_pid": "GAVIC419736965",
    "tech_change_status": "Committed",
    "program_type": "On-Demand N2P SDU/MDU Simple",
    "target_eligibility_quarter": "Dec 2024"
   }
  },
  {
   "type": "Feature",
   "geometry": {
    "type": "Point",
    "coordinates": [
     144.06661913,
     -36.98838218
    ]
   },
   "properties": {
    "name": "35 FRANKLIN STREET MALDON 3463",
    "locID": "LOC000021034954",
    "tech": "FTTN",
    "upgrade": "FTTP_NA",
    "gnaf_pid": "GAVIC419736966",
    "tech_change_status": "Committed",
    "program_type": "On-Demand N2P SDU/MDU Simple",
    "target_eligibility_quarter": "Dec 2024"
   }
  },
  {
   "type": "Feature",
   "geometry": {
    "type": "Point",
    "coordinates": [
     144.06938968,
     -36.99727762
    ]
   },
   "properties": {
    "name": "52 MAIN STREET MALDON 3463",
    "locID": "LOC000012018878",
    "tech": "FTTN",
    "upgrade": "FTTP_NA",
    "gnaf_pid": "GAVIC419736967",
    "tech_change_status": "Committed",
    "program_type": "On-Demand N2P SDU/MDU Simple",
    "target_eligibility_quarter": "Dec 2024"
   }
  },
  {
   "type": "Feature",
   "geometry": {
    "type": "Point",
    "coordinates": [
     144.06942966,
     -36.99723928
    ]
   },
   "properties": {
    "name": "54 MAIN STREET MALDON 3463",
    "locID": "LOC000093961234",
    "tech": "FTTN",
    "upgrade": "FTTP_NA",
    "gnaf_pid": "GAVIC419736968",
    "tech_change_status": "Committed",
    "program_type": "On-Demand N2P SDU/MDU Simple",
    "target_eligibility_quarter": "Dec 2024"
   }
  },
  {
   "type": "Feature",
   "geometry": {
    "type": "Point",
    "coordinates": [
     144.0724357,
     -36.98861075
    ]
   },
   "properties": {
    "name": "35 REEF STREET MALDON 3463",
    "locID": "LOC000057983150",
    "tech": "FTTN",
    "upgrade": "FTTP_NA",
    "gnaf_pid": "GAVIC419741539",
    "tech_change_status": "Committed",
    "program_type": "On-Demand N2P SDU/MDU Simple",
    "target_eligibility_quarter": "Dec 2024"
   }
  },
  {
   "type": "Feature",
   "geometry": {
    "type": "Point",
    "coordinates": [
     144.07069517,
     -37.00628536
    ]
   },
   "properties": {
    "name": "36 CASTLEMAINE-MALDON ROAD MALDON 3463",
    "locID": "LOC000009761554",
    "tech": "FTTN",
    "upgrade": "NULL_NA",
    "gnaf_pid": "GAVIC419751520",
    "tech_change_status": "Not Planned"
   }
  },
  {
   "type": "Feature",
   "geometry": {
    "type": "Point",
    "coordinates": [
     144.06071203,
     -37.00878362
    ]
   },
   "properties": {
    "name": "41 PARKINS REEF ROAD MALDON 3463",
    "locID": "LOC000053844243",
    "tech": "FTTN",
    "upgrade": "FTTP_NA",
    "gnaf_pid": "GAVIC419752734",
    "tech_change_status": "Committed",
    "program_type": "On-Demand N2P SDU/MDU Simple",
    "target_eligibility_quarter": "Dec 2024"
   }
  },
  {
   "type": "Feature",
   "geometry": {
    "type": "Point",
    "coordinates": [
     144.06833366,
     -36.99791549
    ]
   },
   "properties": {
    "name": "73 HIGH STREET MALDON 3463",
    "locID": "LOC000088982261",
    "tech": "FTTN",
    "upgrade": "FTTP_NA",
    "gnaf_pid": "GAVIC419752896",
    "tech_change_status": "Committed",
    "program_type": "On-Demand N2P SDU/MDU Simple",
    "target_eligibility_quarter": "Dec 2024"
   }
  },
  {
   "type": "Feature",
   "geometry": {
    "type": "Point",
    "coordinates": [
     144.07477592,
     -36.98210641
    ]
   },
   "properties": {
    "name": "51 REEF STREET MALDON 3463",
    "locID": "LOC000066608270",
    "tech": "WIRELESS",
    "upgrade": "NULL_NA",
    "gnaf_pid": "GAVIC419754133",
    "tech_change_status": "Not Planned",
    "program_type": "Fixed Wireless and Satellite Upgrade Program",
    "target_eligibility_quarter": "NA"
   }
  },
  {
   "type": "Feature",
   "geometry": {
    "type": "Point",
    "coordinates": [
     144.07920788,
     -36.99346457
    ]
   },
   "properties": {
    "name": "4 MORRIS STREET MALDON 3463",
    "locID": "LOC000037840389",
    "tech": "FTTN",
    "upgrade": "NULL_NA",
    "gnaf_pid": "GAVIC419754134",
    "tech_change_status": "Not Planned"
   }
  },
  {
   "type": "Feature",
   "geometry": {
    "type": "Point",
    "coordinates": [
     144.06130286,
     -36.99365564
    ]
   },
   "properties": {
    "name": "3 LAWRENCE STREET MALDON 3463",
    "locID": "LOC000071571286",
    "tech": "FTTN",
    "upgrade": "FTTP_NA",
    "gnaf_pid": "GAVIC419762265",
    "tech_change_status": "Committed",
    "program_type": "On-Demand N2P SDU/MDU Simple",
    "target_eligibility_quarter": "Dec 2024"
   }
  },
  {
   "type": "Feature",
   "geometry": {
    "type": "Point",
    "coordinates": [
     144.065491,
     -36.98615416
    ]
   },
   "properties": {
    "name": "31 LOWTHER STREET MALDON 3463",
    "locID": "LOC000058198521",
    "tech": "FTTN",
    "upgrade": "FTTP_NA",
    "gnaf_pid": "GAVIC419823507",
    "tech_change_status": "Committed",
    "program_type": "On-Demand N2P SDU/MDU Simple",
    "target_eligibility_quarter": "Dec 2024"
   }
  },
  {
   "type": "Feature",
   "geometry": {
    "type": "Point",
    "coordinates": [
     144.06195484,
     -36.9899007
    ]
   },
   "properties": {
    "name": "10 WARNOCK STREET MALDON 3463",
    "locID": "LOC000026228207",
    "tech": "FTTN",
    "upgrade": "FTTP_NA",
    "gnaf_pid": "GAVIC419823509",
    "tech_change_status": "Committed",
    "program_type": "On-Demand N2P SDU/MDU Simple",
    "target_eligibility_quarter": "Dec 2024"
   }
  },
  {
   "type": "Feature",
   "geometry": {
    "type": "Point",
    "coordinates": [
     144.06672206,
     -36.99802175
    ]
   },
   "properties": {
    "name": "4 CHAPEL STREET SOUTH MALDON 3463",
    "locID": "LOC000029244839",
    "tech": "FTTN",
    "upgrade": "FTTP_NA",
    "gnaf_pid": "GAVIC419838234",
    "tech_change_status": "Committed",
    "program_type": "Customer-initiated N2P MDU Complex",
    "target_eligibility_quarter": "Dec 2024"
   }
  },
  {
   "type": "Feature",
   "geometry": {
    "type": "Point",
    "coordinates": [
     144.07912685,
     -36.9805267
    ]
   },
   "properties": {
    "name": "304 BELLS REEF ROAD MALDON 3463",
    "locID": "LOC000066105958",
    "tech": "WIRELESS",
    "upgrade": "NULL_NA",
    "gnaf_pid": "GAVIC419950255",
    "tech_change_status": "Not Planned",
    "program_type": "Fixed Wireless and Satellite Upgrade Program",
    "target_eligibility_quarter": "NA"
   }
  },
  {
   "type": "Feature",
   "geometry": {
    "type": "Point",
    "coordinates": [
     144.08031458,
     -36.97903638
    ]
   },
   "properties": {
    "name": "290 BELLS REEF ROAD MALDON 3463",
    "locID": "LOC000070425697",
    "tech": "WIRELESS",
    "upgrade": "NULL_NA",
    "gnaf_pid": "GAVIC419950256",
    "tech_change_status": "Not Planned",
    "program_type": "Fixed Wireless and Satellite Upgrade Program",
    "target_eligibility_quarter": "NA"
   }
  },
  {
   "type": "Feature",
   "geometry": {
    "type": "Point",
    "coordinates": [
     144.07061507,
     -36.99779925
    ]
   },
   "properties": {
    "name": "12 PHOENIX STREET MALDON 3463",
    "locID": "LOC000192135183",
    "tech": "FTTN",
    "upgrade": "FTTP_NA",
    "gnaf_pid": "GAVIC419950265",
    "tech_change_status": "Committed",
    "program_type": "On-Demand N2P SDU/MDU Simple",
    "target_eligibility_quarter": "Dec 2024"
   }
  },
  {
   "type": "Feature",
   "geometry": {
    "type": "Point",
    "coordinates": [
     144.07053184,
     -37.01671551
    ]
   },
   "properties": {
    "name": "105 POPEKS ROAD MALDON 3463",
    "locID": "LOC000061701871",
    "tech": "FTTN",
    "upgrade": "NULL_NA",
    "gnaf_pid": "GAVIC419950266",
    "tech_change_status": "Not Planned"
   }
  },
  {
   "type": "Feature",
   "geometry": {
    "type": "Point",
    "coordinates": [
     144.0688366,
     -36.9820958
    ]
   },
   "properties": {
    "name": "48 CHURCH STREET MALDON 3463",
    "locID": "LOC000087162316",
    "tech": "FTTN",
    "upgrade": "FTTP_NA",
    "gnaf_pid": "GAVIC419950749",
    "tech_change_status": "Committed",
    "program_type": "On-Demand N2P SDU/MDU Simple",
    "target_eligibility_quarter": "Dec 2024"
   }
  },
  {
   "type": "Feature",
   "geometry": {
    "type": "Point",
    "coordinates": [
     144.06822329,
     -36.99019961
    ]
   },
   "properties": {
    "name": "14 CHURCH STREET MALDON 3463",
    "locID": "LOC000024370740",
    "tech": "FTTN",
    "upgrade": "FTTP_NA",
    "gnaf_pid": "GAVIC419950751",
    "tech_change_status": "Committed",
    "program_type": "On-Demand N2P SDU/MDU Simple",
    "target_eligibility_quarter": "Dec 2024"
   }
  },
  {
   "type": "Feature",
   "geometry": {
    "type": "Point",
    "coordinates": [
     144.06954144,
     -36.99712302
    ]
   },
   "properties": {
    "name": "58 MAIN STREET MALDON 3463",
    "locID": "LOC000066407530",
    "tech": "FTTN",
    "upgrade": "FTTP_NA",
    "gnaf_pid": "GAVIC419950752",
    "tech_change_status": "Committed",
    "program_type": "On-Demand N2P SDU/MDU Simple",
    "target_eligibility_quarter": "Dec 2024"
   }
  },
  {
   "type": "Feature",
   "geometry": {
    "type": "Point",
    "coordinates": [
     144.07000874,
     -36.99274195
    ]
   },
   "properties": {
    "name": "4 CAMP STREET MALDON 3463",
    "locID": "LOC000098017361",
    "tech": "FTTN",
    "upgrade": "FTTP_NA",
    "gnaf_pid": "GAVIC419950753",
    "tech_change_status": "Committed",
    "program_type": "On-Demand N2P SDU/MDU Simple",
    "target_eligibility_quarter": "Dec 2024"
   }
  },
  {
   "type": "Feature",
   "geometry": {
    "type": "Point",
    "coordinates": [
     144.06952645,
     -36.9894957
    ]
   },
   "properties": {
    "name": "24 HARKER STREET MALDON 3463",
    "locID": "LOC000055951661",
    "tech": "FTTN",
    "upgrade": "FTTP_NA",
    "gnaf_pid": "GAVIC419950755",
    "tech_change_status": "Committed",
    "program_type": "On-Demand N2P SDU/MDU Simple",
    "target_eligibility_quarter": "Dec 2024"
   }
  },
  {
   "type": "Feature",
   "geometry": {
    "type": "Point",
    "coordinates": [
     144.07067938,
     -36.98995509
    ]
   },
   "properties": {
    "name": "13 IRELAND STREET MALDON 3463",
    "locID": "LOC000102838728",
    "tech": "FTTN",
    "upgrade": "FTTP_NA",
    "gnaf_pid": "GAVIC419950756",
    "tech_change_status": "Committed",
    "program_type": "On-Demand N2P SDU/MDU Simple",
    "target_eligibility_quarter": "Dec 2025"
   }
  },
  {
   "type": "Feature",
   "geometry": {
    "type": "Point",
    "coordinates": [
     144.07077696,
     -36.99033696
    ]
   },
   "properties": {
    "name": "12 ADAIR STREET MALDON 3463",
    "locID": "LOC000002798327",
    "tech": "FTTN",
    "upgrade": "FTTP_NA",
    "gnaf_pid": "GAVIC419950757",
    "tech_change_status": "Committed",
    "program_type": "On-Demand N2P SDU/MDU Simple",
    "target_eligibility_quarter": "Dec 2024"
   }
  },
  {
   "type": "Feature",
   "geometry": {
    "type": "Point",
    "coordinates": [
     144.0773799,
     -36.99432531
    ]
   },
   "properties": {
    "name": "3 MCINTYRE STREET MALDON 3463",
    "locID": "LOC000012719400",
    "tech": "FTTN",
    "upgrade": "FTTP_NA",
    "gnaf_pid": "GAVIC419950761",
    "tech_change_status": "Committed",
    "program_type": "On-Demand N2P SDU/MDU Simple",
    "target_eligibility_quarter": "Dec 2024"
   }
  },
  {
   "type": "Feature",
   "geometry": {
    "type": "Point",
    "coordinates": [
     144.07681814,
     -36.99517114
    ]
   },
   "properties": {
    "name": "2 MCFARLANE STREET MALDON 3463",
    "locID": "LOC000067829011",
    "tech": "FTTN",
    "upgrade": "FTTP_NA",
    "gnaf_pid": "GAVIC419950762",
    "tech_change_status": "Committed",
    "program_type": "On-Demand N2P SDU/MDU Simple",
    "target_eligibility_quarter": "Dec 2024"
   }
  },
  {
   "type": "Feature",
   "geometry": {
    "type": "Point",
    "coordinates": [
     144.06657122,
     -36.99714068
    ]
   },
   "properties": {
    "name": "3 FOUNTAIN STREET MALDON 3463",
    "locID": "LOC000043470989",
    "tech": "FTTN",
    "upgrade": "FTTP_NA",
    "gnaf_pid": "GAVIC419950768",
    "tech_change_status": "Committed",
    "program_type": "On-Demand N2P SDU/MDU Simple",
    "target_eligibility_quarter": "Dec 2025"
   }
  },
  {
   "type": "Feature",
   "geometry": {
    "type": "Point",
    "coordinates": [
     144.06807829,
     -36.9978925
    ]
   },
   "properties": {
    "name": "71 HIGH STREET MALDON 3463",
    "locID": "LOC000010673405",
    "tech": "FTTN",
    "upgrade": "FTTP_NA",
    "gnaf_pid": "GAVIC419950769",
    "tech_change_status": "Committed",
    "program_type": "On-Demand N2P SDU/MDU Simple",
    "target_eligibility_quarter": "Dec 2024"
   }
  },
  {
   "type": "Feature",
   "geometry": {
    "type": "Point",
    "coordinates": [
     144.06830569,
     -36.99037617
    ]
   },
   "properties": {
    "name": "12 CHURCH STREET MALDON 3463",
    "locID": "LOC000067698241",
    "tech": "FTTN",
    "upgrade": "FTTP_NA",
    "gnaf_pid": "GAVIC419954652",
    "tech_change_status": "Committed",
    "program_type": "On-Demand N2P SDU/MDU Simple",
    "target_eligibility_quarter": "Dec 2024"
   }
  },
  {
   "type": "Feature",
   "geometry": {
    "type": "Point",
    "coordinates": [
     144.07151935,
     -36.98895965
    ]
   },
   "properties": {
    "name": "25 FRANKLIN STREET MALDON 3463",
    "locID": "LOC000043446764",
    "tech": "FTTN",
    "upgrade": "FTTP_NA",
    "gnaf_pid": "GAVIC419954653",
    "tech_change_status": "Committed",
    "program_type": "On-Demand N2P SDU/MDU Simple",
    "target_eligibility_quarter": "Dec 2024"
   }
  },
  {
   "type": "Feature",
   "geometry": {
    "type": "Point",
    "coordinates": [
     144.06898796,
     -36.99802906
    ]
   },
   "properties": {
    "name": "10 MAIN STREET MALDON 3463",
    "locID": "LOC000088749278",
    "tech": "FTTN",
    "upgrade": "FTTP_NA",
    "gnaf_pid": "GAVIC419954654",
    "tech_change_status": "Committed",
    "program_type": "On-Demand N2P SDU/MDU Simple",
    "target_eligibility_quarter": "Dec 2024"
   }
  },
  {
   "type": "Feature",
   "geometry": {
    "type": "Point",
    "coordinates": [
     144.049193,
     -37.02830631
    ]
   },
   "properties": {
    "name": "109 SELLS LANE MALDON 3463",
    "locID": "LOC000095047944",
    "tech": "WIRELESS",
    "upgrade": "NULL_NA",
    "gnaf_pid": "GAVIC419961712",
    "tech_change_status": "Not Planned"
   }
  },
  {
   "type": "Feature",
   "geometry": {
    "type": "Point",
    "coordinates": [
     144.06214034,
     -36.99026028
    ]
   },
   "properties": {
    "name": "28 PARKER STREET MALDON 3463",
    "locID": "LOC000016106356",
    "tech": "FTTN",
    "upgrade": "FTTP_NA",
    "gnaf_pid": "GAVIC419961773",
    "tech_change_status": "Committed",
    "program_type": "On-Demand N2P SDU/MDU Simple",
    "target_eligibility_quarter": "Dec 2024"
   }
  },
  {
   "type": "Feature",
   "geometry": {
    "type": "Point",
    "coordinates": [
     144.06273973,
     -36.98933274
    ]
   },
   "properties": {
    "name": "21 CHAPEL STREET MALDON 3463",
    "locID": "LOC000091510316",
    "tech": "FTTN",
    "upgrade": "FTTP_NA",
    "gnaf_pid": "GAVIC419961774",
    "tech_change_status": "Committed",
    "program_type": "On-Demand N2P SDU/MDU Simple",
    "target_eligibility_quarter": "Dec 2025"
   }
  },
  {
   "type": "Feature",
   "geometry": {
    "type": "Point",
    "coordinates": [
     144.06312268,
     -36.98794222
    ]
   },
   "properties": {
    "name": "43 FRANKLIN STREET MALDON 3463",
    "locID": "LOC000047729700",
    "tech": "FTTN",
    "upgrade": "FTTP_NA",
    "gnaf_pid": "GAVIC419961775",
    "tech_change_status": "Committed",
    "program_type": "On-Demand N2P SDU/MDU Simple",
    "target_eligibility_quarter": "Dec 2024"
   }
  },
  {
   "type": "Feature",
   "geometry": {
    "type": "Point",
    "coordinates": [
     144.06244924,
     -36.99120785
    ]
   },
   "properties": {
    "name": "6 WARNOCK STREET MALDON 3463",
    "locID": "LOC000028802425",
    "tech": "FTTN",
    "upgrade": "FTTP_NA",
    "gnaf_pid": "GAVIC419961776",
    "tech_change_status": "Committed",
    "program_type": "On-Demand N2P SDU/MDU Simple",
    "target_eligibility_quarter": "Dec 2024"
   }
  },
  {
   "type": "Feature",
   "geometry": {
    "type": "Point",
    "coordinates": [
     144.06371848,
     -36.99030755
    ]
   },
   "properties": {
    "name": "31 PARKER STREET MALDON 3463",
    "locID": "LOC000071966962",
    "tech": "FTTN",
    "upgrade": "FTTP_NA",
    "gnaf_pid": "GAVIC419961777",
    "tech_change_status": "Committed",
    "program_type": "On-Demand N2P SDU/MDU Simple",
    "target_eligibility_quarter": "Dec 2024"
   }
  },
  {
   "type": "Feature",
   "geometry": {
    "type": "Point",
    "coordinates": [
     144.06377896,
     -37.00697725
    ]
   },
   "properties": {
    "name": "19 PARKINS REEF ROAD MALDON 3463",
    "locID": "LOC000031718233",
    "tech": "FTTN",
    "upgrade": "FTTP_NA",
    "gnaf_pid": "GAVIC419962758",
    "tech_change_status": "Committed",
    "program_type": "On-Demand N2P SDU/MDU Simple",
    "target_eligibility_quarter": "Dec 2024"
   }
  },
  {
   "type": "Feature",
   "geometry": {
    "type": "Point",
    "coordinates": [
     144.07240764,
     -36.99045965
    ]
   },
   "properties": {
    "name": "22 REEF STREET MALDON 3463",
    "locID": "LOC000040454652",
    "tech": "FTTN",
    "upgrade": "FTTP_NA",
    "gnaf_pid": "GAVIC419963134",
    "tech_change_status": "Committed",
    "program_type": "On-Demand N2P SDU/MDU Simple",
    "target_eligibility_quarter": "Dec 2024"
   }
  },
  {
   "type": "Feature",
   "geometry": {
    "type": "Point",
    "coordinates": [
     144.0782499,
     -36.99436564
    ]
   },
   "properties": {
    "name": "6 OSWALD STREET MALDON 3463",
    "locID": "LOC000016213949",
    "tech": "FTTN",
    "upgrade": "FTTP_NA",
    "gnaf_pid": "GAVIC419963135",
    "tech_change_status": "Committed",
    "program_type": "On-Demand N2P SDU/MDU Simple",
    "target_eligibility_quarter": "Dec 2024"
   }
  },
  {
   "type": "Feature",
   "geometry": {
    "type": "Point",
    "coordinates": [
     144.07873832,
     -36.99370886
    ]
   },
   "properties": {
    "name": "1A OSWALD STREET MALDON 3463",
    "locID": "LOC000027851570",
    "tech": "FTTN",
    "upgrade": "NULL_NA",
    "gnaf_pid": "GAVIC419963137",
    "tech_change_status": "Not Planned"
   }
  },
  {
   "type": "Feature",
   "geometry": {
    "type": "Point",
    "coordinates": [
     144.08768524,
     -36.99174433
    ]
   },
   "properties": {
    "name": "38 MORRIS STREET MALDON 3463",
    "locID": "LOC000081270398",
    "tech": "FTTN",
    "upgrade": "NULL_NA",
    "gnaf_pid": "GAVIC419963138",
    "tech_change_status": "Not Planned"
   }
  },
  {
   "type": "Feature",
   "geometry": {
    "type": "Point",
    "coordinates": [
     144.07883123,
     -36.9868309
    ]
   },
   "properties": {
    "name": "3 STUMP STREET MALDON 3463",
    "locID": "LOC000085119964",
    "tech": "FTTN",
    "upgrade": "NULL_NA",
    "gnaf_pid": "GAVIC419964422",
    "tech_change_status": "Not Planned"
   }
  },
  {
   "type": "Feature",
   "geometry": {
    "type": "Point",
    "coordinates": [
     144.06915443,
     -36.99760325
    ]
   },