{
 "type": "FeatureCollection",
 "generated": "2023-10-24T16:24:21.215756",
 "suburb": "MASSEY",
 "features": [
  {
   "type": "Feature",
   "geometry": {
    "type": "Point",
    "coordinates": [
     142.8574066,
     -36.24320786
    ]
   },
   "properties": {
    "name": "5968 SUNRAYSIA HIGHWAY MASSEY 3482",
    "locID": "LOC000047540459",
    "tech": "SATELLITE",
    "upgrade": "NULL_NA",
    "gnaf_pid": "GAVIC422025308"
   }
  },
  {
   "type": "Feature",
   "geometry": {
    "type": "Point",
    "coordinates": [
     142.85930925,
     -36.23202918
    ]
   },
   "properties": {
    "name": "6102 SUNRAYSIA HIGHWAY MASSEY 3482",
    "locID": "LOC000035732549",
    "tech": "SATELLITE",
    "upgrade": "NULL_NA",
    "gnaf_pid": "GAVIC422030265"
   }
  },
  {
   "type": "Feature",
   "geometry": {
    "type": "Point",
    "coordinates": [
     142.85341283,
     -36.22251924
    ]
   },
   "properties": {
    "name": "6273 SUNRAYSIA HIGHWAY MASSEY 3482",
    "locID": "LOC000079083658",
    "tech": "WIRELESS",
    "upgrade": "NULL_NA",
    "gnaf_pid": "GAVIC422030270"
   }
  },
  {
   "type": "Feature",
   "geometry": {
    "type": "Point",
    "coordinates": [
     142.89511653,
     -36.23363358
    ]
   },
   "properties": {
    "name": "1068 SINGLE TREE ROAD MASSEY 3482",
    "locID": "ChIJB0WGZkEI0GoR6bW6ShADbmg",
    "tech": "SATELLITE",
    "upgrade": "UNKNOWN",
    "gnaf_pid": "GAVIC422031383"
   }
  },
  {
   "type": "Feature",
   "geometry": {
    "type": "Point",
    "coordinates": [
     142.85457223,
     -36.22178148
    ]
   },
   "properties": {
    "name": "6260 SUNRAYSIA HIGHWAY MASSEY 3482",
    "locID": "LOC000072065568",
    "tech": "WIRELESS",
    "upgrade": "NULL_NA",
    "gnaf_pid": "GAVIC422036291"
   }
  },
  {
   "type": "Feature",
   "geometry": {
    "type": "Point",
    "coordinates": [
     142.8766741,
     -36.20906934
    ]
   },
   "properties": {
    "name": "251 GILCHRISTS ROAD MASSEY 3482",
    "locID": "ChIJGc9OAQII0GoR2mcxmWhDADU",
    "tech": "SATELLITE",
    "upgrade": "UNKNOWN",
    "gnaf_pid": "GAVIC422149197"
   }
  },
  {
   "type": "Feature",
   "geometry": {
    "type": "Point",
    "coordinates": [
     142.81247583,
     -36.20202725
    ]
   },
   "properties": {
    "name": "1053 MASSEY-BANGERANG ROAD MASSEY 3482",
    "locID": "LOC000124939258",
    "tech": "WIRELESS",
    "upgrade": "NULL_NA",
    "gnaf_pid": "GAVIC422168887"
   }
  },
  {
   "type": "Feature",
   "geometry": {
    "type": "Point",
    "coordinates": [
     142.7961666,
     -36.20087594
    ]
   },
   "properties": {
    "name": "908 MASSEY-BANGERANG ROAD MASSEY 3482",
    "locID": "LOC000088464462",
    "tech": "SATELLITE",
    "upgrade": "NULL_NA",
    "gnaf_pid": "GAVIC422168888"
   }
  },
  {
   "type": "Feature",
   "geometry": {
    "type": "Point",
    "coordinates": [
     142.8554692,
     -36.24279764
    ]
   },
   "properties": {
    "name": "5979 SUNRAYSIA HIGHWAY MASSEY 3482",
    "locID": "LOC000008499609",
    "tech": "SATELLITE",
    "upgrade": "NULL_NA",
    "gnaf_pid": "GAVIC422193914"
   }
  },
  {
   "type": "Feature",
   "geometry": {
    "type": "Point",
    "coordinates": [
     142.81945513,
     -36.2229336
    ]
   },
   "properties": {
    "name": "500 VOGELS ROAD MASSEY 3482",
    "locID": "LOC000108940011",
    "tech": "SATELLITE",
    "upgrade": "NULL_NA",
    "gnaf_pid": "GAVIC422199932"
   }
  },
  {
   "type": "Feature",
   "geometry": {
    "type": "Point",
    "coordinates": [
     142.81543801,
     -36.18810825
    ]
   },
   "properties": {
    "name": "238 E NICHOLLS ROAD MASSEY 3482",
    "locID": "ChIJsz7-mWsH0GoRz1QJ-GH6_0I",
    "tech": "WIRELESS",
    "upgrade": "UNKNOWN",
    "gnaf_pid": "GAVIC423824949"
   }
  }
 ]
}