{
 "type": "FeatureCollection",
 "generated": "2023-10-24T16:43:02.647029",
 "suburb": "MEERING WEST",
 "features": [
  {
   "type": "Feature",
   "geometry": {
    "type": "Point",
    "coordinates": [
     143.72325555,
     -35.90541598
    ]
   },
   "properties": {
    "name": "496 MEERING WEST ROAD MEERING WEST 3579",
    "locID": "LOC000010069195",
    "tech": "SATELLITE",
    "upgrade": "NULL_NA",
    "gnaf_pid": "GAVIC411808564"
   }
  },
  {
   "type": "Feature",
   "geometry": {
    "type": "Point",
    "coordinates": [
     143.65117174,
     -35.91694155
    ]
   },
   "properties": {
    "name": "135 NOSKE ROAD MEERING WEST 3579",
    "locID": "LOC000068504843",
    "tech": "SATELLITE",
    "upgrade": "NULL_NA",
    "gnaf_pid": "GAVIC411808565"
   }
  },
  {
   "type": "Feature",
   "geometry": {
    "type": "Point",
    "coordinates": [
     143.67786235,
     -35.87024844
    ]
   },
   "properties": {
    "name": "1031 MERAN ROAD MEERING WEST 3579",
    "locID": "LOC000038024271",
    "tech": "SATELLITE",
    "upgrade": "NULL_NA",
    "gnaf_pid": "GAVIC411808566"
   }
  },
  {
   "type": "Feature",
   "geometry": {
    "type": "Point",
    "coordinates": [
     143.74197772,
     -35.90617947
    ]
   },
   "properties": {
    "name": "325 MEERING WEST ROAD MEERING WEST 3579",
    "locID": "LOC000035611067",
    "tech": "SATELLITE",
    "upgrade": "NULL_NA",
    "gnaf_pid": "GAVIC411808570"
   }
  },
  {
   "type": "Feature",
   "geometry": {
    "type": "Point",
    "coordinates": [
     143.70809734,
     -35.88818555
    ]
   },
   "properties": {
    "name": "193 DEAR ROAD MEERING WEST 3579",
    "locID": "LOC000085382017",
    "tech": "SATELLITE",
    "upgrade": "NULL_NA",
    "gnaf_pid": "GAVIC411819175"
   }
  },
  {
   "type": "Feature",
   "geometry": {
    "type": "Point",
    "coordinates": [
     143.75718954,
     -35.90658024
    ]
   },
   "properties": {
    "name": "189 MEERING WEST ROAD MEERING WEST 3579",
    "locID": "LOC000010208719",
    "tech": "SATELLITE",
    "upgrade": "NULL_NA",
    "gnaf_pid": "GAVIC411819178"
   }
  },
  {
   "type": "Feature",
   "geometry": {
    "type": "Point",
    "coordinates": [
     143.6432147,
     -35.90522976
    ]
   },
   "properties": {
    "name": "1216 MEERING WEST ROAD MEERING WEST 3579",
    "locID": "ChIJ44jg3pxM2moR7XwzfG_f2dM",
    "tech": "SATELLITE",
    "upgrade": "UNKNOWN",
    "gnaf_pid": "GAVIC422170522"
   }
  },
  {
   "type": "Feature",
   "geometry": {
    "type": "Point",
    "coordinates": [
     143.68046775,
     -35.869897
    ]
   },
   "properties": {
    "name": "1010 MERAN ROAD MEERING WEST 3579",
    "locID": "ChIJM0-DE-a022oRLDgl7Bo_ItU",
    "tech": "SATELLITE",
    "upgrade": "UNKNOWN",
    "gnaf_pid": "GAVIC422170822"
   }
  },
  {
   "type": "Feature",
   "geometry": {
    "type": "Point",
    "coordinates": [
     143.68082165,
     -35.92480275
    ]
   },
   "properties": {
    "name": "214 LEHMANN ROAD MEERING WEST 3579",
    "locID": "LOC000079248479",
    "tech": "SATELLITE",
    "upgrade": "NULL_NA",
    "gnaf_pid": "GAVIC423721171"
   }
  },
  {
   "type": "Feature",
   "geometry": {
    "type": "Point",
    "coordinates": [
     143.72760175,
     -35.90616403
    ]
   },
   "properties": {
    "name": "457 MEERING WEST ROAD MEERING WEST 3579",
    "locID": "ChIJS4s6Mq5K2moRxl-fOFqNt8o",
    "tech": "SATELLITE",
    "upgrade": "UNKNOWN",
    "gnaf_pid": "GAVIC423795961"
   }
  },
  {
   "type": "Feature",
   "geometry": {
    "type": "Point",
    "coordinates": [
     143.72779924,
     -35.92282409
    ]
   },
   "properties": {
    "name": "190 LESTER SMITH ROAD MEERING WEST 3579",
    "locID": "ChIJGQnQdJJK2moREiYd5wjxwII",
    "tech": "SATELLITE",
    "upgrade": "UNKNOWN",
    "gnaf_pid": "GAVIC424449488"
   }
  },
  {
   "type": "Feature",
   "geometry": {
    "type": "Point",
    "coordinates": [
     143.72802418,
     -35.92440181
    ]
   },
   "properties": {
    "name": "206 LESTER SMITH ROAD MEERING WEST 3579",
    "locID": "LOC000029353144",
    "tech": "SATELLITE",
    "upgrade": "NULL_NA",
    "gnaf_pid": "GAVIC424449489"
   }
  }
 ]
}