{
 "type": "FeatureCollection",
 "generated": "2024-08-13T04:14:09.130376",
 "suburb": "MEERING WEST",
 "features": [
  {
   "type": "Feature",
   "geometry": {
    "type": "Point",
    "coordinates": [
     143.72325555,
     -35.90541598
    ]
   },
   "properties": {
    "name": "496 MEERING WEST ROAD MEERING WEST 3579",
    "locID": "LOC000010069195",
    "tech": "SATELLITE",
    "upgrade": "NULL_NA",
    "gnaf_pid": "GAVIC411808564",
    "tech_change_status": "Not Planned"
   }
  },
  {
   "type": "Feature",
   "geometry": {
    "type": "Point",
    "coordinates": [
     143.65117174,
     -35.91694155
    ]
   },
   "properties": {
    "name": "135 NOSKE ROAD MEERING WEST 3579",
    "locID": "LOC000068504843",
    "tech": "SATELLITE",
    "upgrade": "NULL_NA",
    "gnaf_pid": "GAVIC411808565",
    "tech_change_status": "Not Planned"
   }
  },
  {
   "type": "Feature",
   "geometry": {
    "type": "Point",
    "coordinates": [
     143.67786235,
     -35.87024844
    ]
   },
   "properties": {
    "name": "1031 MERAN ROAD MEERING WEST 3579",
    "locID": "LOC000038024271",
    "tech": "SATELLITE",
    "upgrade": "NULL_NA",
    "gnaf_pid": "GAVIC411808566",
    "tech_change_status": "Not Planned"
   }
  },
  {
   "type": "Feature",
   "geometry": {
    "type": "Point",
    "coordinates": [
     143.74197772,
     -35.90617947
    ]
   },
   "properties": {
    "name": "325 MEERING WEST ROAD MEERING WEST 3579",
    "locID": "LOC000035611067",
    "tech": "SATELLITE",
    "upgrade": "NULL_NA",
    "gnaf_pid": "GAVIC411808570",
    "tech_change_status": "Not Planned"
   }
  },
  {
   "type": "Feature",
   "geometry": {
    "type": "Point",
    "coordinates": [
     143.70809734,
     -35.88818555
    ]
   },
   "properties": {
    "name": "193 DEAR ROAD MEERING WEST 3579",
    "locID": "LOC000085382017",
    "tech": "SATELLITE",
    "upgrade": "NULL_NA",
    "gnaf_pid": "GAVIC411819175",
    "tech_change_status": "Not Planned"
   }
  },
  {
   "type": "Feature",
   "geometry": {
    "type": "Point",
    "coordinates": [
     143.75718954,
     -35.90658024
    ]
   },
   "properties": {
    "name": "189 MEERING WEST ROAD MEERING WEST 3579",
    "locID": "LOC000010208719",
    "tech": "SATELLITE",
    "upgrade": "NULL_NA",
    "gnaf_pid": "GAVIC411819178",
    "tech_change_status": "Not Planned"
   }
  },
  {
   "type": "Feature",
   "geometry": {
    "type": "Point",
    "coordinates": [
     143.68082165,
     -35.92480275
    ]
   },
   "properties": {
    "name": "214 LEHMANN ROAD MEERING WEST 3579",
    "locID": "LOC000079248479",
    "tech": "SATELLITE",
    "upgrade": "NULL_NA",
    "gnaf_pid": "GAVIC423721171",
    "tech_change_status": "Not Planned"
   }
  },
  {
   "type": "Feature",
   "geometry": {
    "type": "Point",
    "coordinates": [
     143.72802418,
     -35.92440181
    ]
   },
   "properties": {
    "name": "206 LESTER SMITH ROAD MEERING WEST 3579",
    "locID": "LOC000029353144",
    "tech": "SATELLITE",
    "upgrade": "NULL_NA",
    "gnaf_pid": "GAVIC424449489",
    "tech_change_status": "Not Planned"
   }
  }
 ]
}