{
 "type": "FeatureCollection",
 "generated": "2024-09-04T18:57:34.974455",
 "suburb": "MITTYACK",
 "features": [
  {
   "type": "Feature",
   "geometry": {
    "type": "Point",
    "coordinates": [
     142.57610605,
     -35.16791764
    ]
   },
   "properties": {
    "name": "128 KERR ROAD MITTYACK 3490",
    "locID": "LOC000093192515",
    "tech": "SATELLITE",
    "upgrade": "NULL_NA",
    "gnaf_pid": "GAVIC422403667",
    "tech_change_status": "Not Planned"
   }
  },
  {
   "type": "Feature",
   "geometry": {
    "type": "Point",
    "coordinates": [
     142.53590148,
     -35.14357676
    ]
   },
   "properties": {
    "name": "211 WAREHAM ROAD MITTYACK 3490",
    "locID": "LOC000100710073",
    "tech": "SATELLITE",
    "upgrade": "NULL_NA",
    "gnaf_pid": "GAVIC422433420",
    "tech_change_status": "Not Planned"
   }
  },
  {
   "type": "Feature",
   "geometry": {
    "type": "Point",
    "coordinates": [
     142.53720081,
     -35.1437947
    ]
   },
   "properties": {
    "name": "224 WAREHAM ROAD MITTYACK 3490",
    "locID": "LOC000047105480",
    "tech": "SATELLITE",
    "upgrade": "NULL_NA",
    "gnaf_pid": "GAVIC422433421",
    "tech_change_status": "Not Planned"
   }
  },
  {
   "type": "Feature",
   "geometry": {
    "type": "Point",
    "coordinates": [
     142.65669309,
     -35.13252744
    ]
   },
   "properties": {
    "name": "275 JULIAN ROAD MITTYACK 3490",
    "locID": "LOC000053956844",
    "tech": "SATELLITE",
    "upgrade": "NULL_NA",
    "gnaf_pid": "GAVIC423848401",
    "tech_change_status": "Not Planned"
   }
  },
  {
   "type": "Feature",
   "geometry": {
    "type": "Point",
    "coordinates": [
     142.62793415,
     -35.15598916
    ]
   },
   "properties": {
    "name": "5407 CALDER HIGHWAY MITTYACK 3490",
    "locID": "LOC100078658992",
    "tech": "SATELLITE",
    "upgrade": "NULL_NA",
    "gnaf_pid": "GAVIC424022381",
    "tech_change_status": "Not Planned"
   }
  },
  {
   "type": "Feature",
   "geometry": {
    "type": "Point",
    "coordinates": [
     142.5910303,
     -35.15565907
    ]
   },
   "properties": {
    "name": "5746 CALDER HIGHWAY MITTYACK 3490",
    "locID": "LOC000115064720",
    "tech": "SATELLITE",
    "upgrade": "NULL_NA",
    "gnaf_pid": "GAVIC424022382",
    "tech_change_status": "Not Planned"
   }
  },
  {
   "type": "Feature",
   "geometry": {
    "type": "Point",
    "coordinates": [
     142.57586,
     -35.11530305
    ]
   },
   "properties": {
    "name": "2104 COCAMBA ROAD MITTYACK 3490",
    "locID": "LOC000124792358",
    "tech": "SATELLITE",
    "upgrade": "NULL_NA",
    "gnaf_pid": "GAVIC424023291",
    "tech_change_status": "Not Planned"
   }
  },
  {
   "type": "Feature",
   "geometry": {
    "type": "Point",
    "coordinates": [
     142.65731738,
     -35.13300575
    ]
   },
   "properties": {
    "name": "270 JULIAN ROAD MITTYACK 3490",
    "locID": "LOC000124792481",
    "tech": "SATELLITE",
    "upgrade": "NULL_NA",
    "gnaf_pid": "GAVIC424028818",
    "tech_change_status": "Not Planned"
   }
  },
  {
   "type": "Feature",
   "geometry": {
    "type": "Point",
    "coordinates": [
     142.65756839,
     -35.15675031
    ]
   },
   "properties": {
    "name": "6 MCERVALE STREET MITTYACK 3490",
    "locID": "LOC000014549882",
    "tech": "SATELLITE",
    "upgrade": "NULL_NA",
    "gnaf_pid": "GAVIC424031307",
    "tech_change_status": "Not Planned"
   }
  },
  {
   "type": "Feature",
   "geometry": {
    "type": "Point",
    "coordinates": [
     142.60685152,
     -35.17807134
    ]
   },
   "properties": {
    "name": "285 PATCHING ROAD MITTYACK 3490",
    "locID": "LOC000124796552",
    "tech": "SATELLITE",
    "upgrade": "NULL_NA",
    "gnaf_pid": "GAVIC424033410",
    "tech_change_status": "Not Planned"
   }
  },
  {
   "type": "Feature",
   "geometry": {
    "type": "Point",
    "coordinates": [
     142.71805213,
     -35.17058526
    ]
   },
   "properties": {
    "name": "286 POWELL ROAD MITTYACK 3490",
    "locID": "LOC000068006163",
    "tech": "SATELLITE",
    "upgrade": "NULL_NA",
    "gnaf_pid": "GAVIC424033847",
    "tech_change_status": "Not Planned"
   }
  },
  {
   "type": "Feature",
   "geometry": {
    "type": "Point",
    "coordinates": [
     142.65833474,
     -35.15480318
    ]
   },
   "properties": {
    "name": "3 COURT STREET MITTYACK 3490",
    "locID": "LOC000115795436",
    "tech": "SATELLITE",
    "upgrade": "NULL_NA",
    "gnaf_pid": "GAVIC424894083",
    "tech_change_status": "Not Planned"
   }
  }
 ]
}