{
 "type": "FeatureCollection",
 "generated": "2024-07-25T06:44:07.246946",
 "suburb": "MOOLERR",
 "features": [
  {
   "type": "Feature",
   "geometry": {
    "type": "Point",
    "coordinates": [
     143.1950042,
     -36.64159974
    ]
   },
   "properties": {
    "name": "48 FITHALL ROAD MOOLERR 3477",
    "locID": "LOC000124792679",
    "tech": "WIRELESS",
    "upgrade": "NULL_NA",
    "gnaf_pid": "GAVIC422029998",
    "tech_change_status": "Not Planned",
    "program_type": "Fixed Wireless and Satellite Upgrade Program",
    "target_eligibility_quarter": "Dec 2024"
   }
  },
  {
   "type": "Feature",
   "geometry": {
    "type": "Point",
    "coordinates": [
     143.20510639,
     -36.66919005
    ]
   },
   "properties": {
    "name": "181 OLD SANDY CREEK ROAD MOOLERR 3477",
    "locID": "LOC000080452804",
    "tech": "SATELLITE",
    "upgrade": "NULL_NA",
    "gnaf_pid": "GAVIC422178848",
    "tech_change_status": "Not Planned"
   }
  },
  {
   "type": "Feature",
   "geometry": {
    "type": "Point",
    "coordinates": [
     143.19283031,
     -36.64952449
    ]
   },
   "properties": {
    "name": "5 WATERLOO PLAINS ROAD MOOLERR 3477",
    "locID": "LOC000124796872",
    "tech": "WIRELESS",
    "upgrade": "NULL_NA",
    "gnaf_pid": "GAVIC422201434",
    "tech_change_status": "Not Planned",
    "program_type": "Fixed Wireless and Satellite Upgrade Program",
    "target_eligibility_quarter": "Dec 2024"
   }
  },
  {
   "type": "Feature",
   "geometry": {
    "type": "Point",
    "coordinates": [
     143.21203788,
     -36.63355623
    ]
   },
   "properties": {
    "name": "470 WIMMERA HIGHWAY MOOLERR 3477",
    "locID": "LOC000010236951",
    "tech": "SATELLITE",
    "upgrade": "NULL_NA",
    "gnaf_pid": "GAVIC422204290",
    "tech_change_status": "Not Planned"
   }
  },
  {
   "type": "Feature",
   "geometry": {
    "type": "Point",
    "coordinates": [
     143.21030709,
     -36.63620704
    ]
   },
   "properties": {
    "name": "505 WIMMERA HIGHWAY MOOLERR 3477",
    "locID": "LOC000092141965",
    "tech": "WIRELESS",
    "upgrade": "NULL_NA",
    "gnaf_pid": "GAVIC422204291",
    "tech_change_status": "Not Planned",
    "program_type": "Fixed Wireless and Satellite Upgrade Program",
    "target_eligibility_quarter": "Dec 2024"
   }
  },
  {
   "type": "Feature",
   "geometry": {
    "type": "Point",
    "coordinates": [
     143.19586785,
     -36.63688148
    ]
   },
   "properties": {
    "name": "652 WIMMERA HIGHWAY MOOLERR 3477",
    "locID": "LOC000026223755",
    "tech": "WIRELESS",
    "upgrade": "NULL_NA",
    "gnaf_pid": "GAVIC422204292",
    "tech_change_status": "Not Planned",
    "program_type": "Fixed Wireless and Satellite Upgrade Program",
    "target_eligibility_quarter": "Dec 2024"
   }
  },
  {
   "type": "Feature",
   "geometry": {
    "type": "Point",
    "coordinates": [
     143.18441316,
     -36.63559117
    ]
   },
   "properties": {
    "name": "755 WIMMERA HIGHWAY MOOLERR 3477",
    "locID": "LOC000036521777",
    "tech": "WIRELESS",
    "upgrade": "NULL_NA",
    "gnaf_pid": "GAVIC422204294",
    "tech_change_status": "Not Planned",
    "program_type": "Fixed Wireless and Satellite Upgrade Program",
    "target_eligibility_quarter": "Dec 2024"
   }
  },
  {
   "type": "Feature",
   "geometry": {
    "type": "Point",
    "coordinates": [
     143.16316549,
     -36.63373246
    ]
   },
   "properties": {
    "name": "945 WIMMERA HIGHWAY MOOLERR 3477",
    "locID": "LOC000098283609",
    "tech": "WIRELESS",
    "upgrade": "NULL_NA",
    "gnaf_pid": "GAVIC422204295",
    "tech_change_status": "Not Planned",
    "program_type": "Fixed Wireless and Satellite Upgrade Program",
    "target_eligibility_quarter": "Dec 2024"
   }
  },
  {
   "type": "Feature",
   "geometry": {
    "type": "Point",
    "coordinates": [
     143.20890542,
     -36.64076565
    ]
   },
   "properties": {
    "name": "6969 ARARAT-ST ARNAUD ROAD MOOLERR 3477",
    "locID": "LOC000067212230",
    "tech": "SATELLITE",
    "upgrade": "NULL_NA",
    "gnaf_pid": "GAVIC422274474",
    "tech_change_status": "Not Planned"
   }
  },
  {
   "type": "Feature",
   "geometry": {
    "type": "Point",
    "coordinates": [
     143.20271785,
     -36.63817686
    ]
   },
   "properties": {
    "name": "589 WIMMERA HIGHWAY MOOLERR 3477",
    "locID": "LOC000075259736",
    "tech": "SATELLITE",
    "upgrade": "NULL_NA",
    "gnaf_pid": "GAVIC422334495",
    "tech_change_status": "Not Planned"
   }
  },
  {
   "type": "Feature",
   "geometry": {
    "type": "Point",
    "coordinates": [
     143.145521,
     -36.637089
    ]
   },
   "properties": {
    "name": "63 BRAIN ROAD MOOLERR 3477",
    "locID": "LOC000018470752",
    "tech": "WIRELESS",
    "upgrade": "NULL_NA",
    "gnaf_pid": "GAVIC423207364",
    "tech_change_status": "Not Planned",
    "program_type": "Fixed Wireless and Satellite Upgrade Program",
    "target_eligibility_quarter": "Dec 2024"
   }
  },
  {
   "type": "Feature",
   "geometry": {
    "type": "Point",
    "coordinates": [
     143.16676553,
     -36.63363735
    ]
   },
   "properties": {
    "name": "LOT 2 WIMMERA HIGHWAY MOOLERR 3477",
    "locID": "LOC000036521777",
    "tech": "WIRELESS",
    "upgrade": "NULL_NA",
    "gnaf_pid": "GAVIC425178133",
    "tech_change_status": "Not Planned",
    "program_type": "Fixed Wireless and Satellite Upgrade Program",
    "target_eligibility_quarter": "Dec 2024"
   }
  }
 ]
}