{
 "type": "FeatureCollection",
 "generated": "2024-09-04T22:24:20.461531",
 "suburb": "MURNUNGIN",
 "features": [
  {
   "type": "Feature",
   "geometry": {
    "type": "Point",
    "coordinates": [
     143.22686136,
     -35.60299505
    ]
   },
   "properties": {
    "name": "1178 OLIVER ROAD MURNUNGIN 3544",
    "locID": "LOC000085474060",
    "tech": "SATELLITE",
    "upgrade": "NULL_NA",
    "gnaf_pid": "GAVIC411977796",
    "tech_change_status": "Not Planned"
   }
  },
  {
   "type": "Feature",
   "geometry": {
    "type": "Point",
    "coordinates": [
     143.28715193,
     -35.6314143
    ]
   },
   "properties": {
    "name": "261 OMEARA ROAD MURNUNGIN 3544",
    "locID": "LOC000019549884",
    "tech": "SATELLITE",
    "upgrade": "NULL_NA",
    "gnaf_pid": "GAVIC411977797",
    "tech_change_status": "Not Planned"
   }
  },
  {
   "type": "Feature",
   "geometry": {
    "type": "Point",
    "coordinates": [
     143.28689091,
     -35.62225179
    ]
   },
   "properties": {
    "name": "365 OMEARA ROAD MURNUNGIN 3544",
    "locID": "LOC000037664728",
    "tech": "SATELLITE",
    "upgrade": "NULL_NA",
    "gnaf_pid": "GAVIC411977798",
    "tech_change_status": "Not Planned"
   }
  },
  {
   "type": "Feature",
   "geometry": {
    "type": "Point",
    "coordinates": [
     143.24355,
     -35.62308
    ]
   },
   "properties": {
    "name": "314 WOODVILLE ROAD MURNUNGIN 3544",
    "locID": "LOC000065592920",
    "tech": "SATELLITE",
    "upgrade": "NULL_NA",
    "gnaf_pid": "GAVIC411977799",
    "tech_change_status": "Not Planned"
   }
  },
  {
   "type": "Feature",
   "geometry": {
    "type": "Point",
    "coordinates": [
     143.2048437,
     -35.6030845
    ]
   },
   "properties": {
    "name": "978 OLIVER ROAD MURNUNGIN 3544",
    "locID": "LOC000015350956",
    "tech": "SATELLITE",
    "upgrade": "NULL_NA",
    "gnaf_pid": "GAVIC411977800",
    "tech_change_status": "Not Planned"
   }
  },
  {
   "type": "Feature",
   "geometry": {
    "type": "Point",
    "coordinates": [
     143.25009755,
     -35.59557723
    ]
   },
   "properties": {
    "name": "230 OLD SCHOOL ROAD MURNUNGIN 3544",
    "locID": "LOC000086765819",
    "tech": "SATELLITE",
    "upgrade": "NULL_NA",
    "gnaf_pid": "GAVIC411977801",
    "tech_change_status": "Not Planned"
   }
  },
  {
   "type": "Feature",
   "geometry": {
    "type": "Point",
    "coordinates": [
     143.25184505,
     -35.6121693
    ]
   },
   "properties": {
    "name": "104 MURNUNGIN ROAD MURNUNGIN 3544",
    "locID": "LOC000088551059",
    "tech": "SATELLITE",
    "upgrade": "NULL_NA",
    "gnaf_pid": "GAVIC411977802",
    "tech_change_status": "Not Planned"
   }
  },
  {
   "type": "Feature",
   "geometry": {
    "type": "Point",
    "coordinates": [
     143.22920265,
     -35.60304189
    ]
   },
   "properties": {
    "name": "16 WOODVILLE ROAD MURNUNGIN 3544",
    "locID": "LOC000056374265",
    "tech": "SATELLITE",
    "upgrade": "NULL_NA",
    "gnaf_pid": "GAVIC411977803",
    "tech_change_status": "Not Planned"
   }
  },
  {
   "type": "Feature",
   "geometry": {
    "type": "Point",
    "coordinates": [
     143.2006273,
     -35.60227815
    ]
   },
   "properties": {
    "name": "939 OLIVER ROAD MURNUNGIN 3544",
    "locID": "LOC000124871710",
    "tech": "SATELLITE",
    "upgrade": "NULL_NA",
    "gnaf_pid": "GAVIC422179050",
    "tech_change_status": "Not Planned"
   }
  },
  {
   "type": "Feature",
   "geometry": {
    "type": "Point",
    "coordinates": [
     143.22246071,
     -35.63076804
    ]
   },
   "properties": {
    "name": "1230 POWER ROAD MURNUNGIN 3544",
    "locID": "LOC000124853509",
    "tech": "SATELLITE",
    "upgrade": "NULL_NA",
    "gnaf_pid": "GAVIC422182826",
    "tech_change_status": "Not Planned"
   }
  },
  {
   "type": "Feature",
   "geometry": {
    "type": "Point",
    "coordinates": [
     143.28671208,
     -35.65019836
    ]
   },
   "properties": {
    "name": "69 OMEARA ROAD MURNUNGIN 3544",
    "locID": "LOC000010181610",
    "tech": "SATELLITE",
    "upgrade": "NULL_NA",
    "gnaf_pid": "GAVIC423643549",
    "tech_change_status": "Not Planned"
   }
  }
 ]
}