{
 "type": "FeatureCollection",
 "generated": "2023-10-24T21:34:54.008965",
 "suburb": "NARRUNG",
 "features": [
  {
   "type": "Feature",
   "geometry": {
    "type": "Point",
    "coordinates": [
     143.21088033,
     -34.7640453
    ]
   },
   "properties": {
    "name": "8045 MURRAY VALLEY HIGHWAY NARRUNG 3597",
    "locID": "LOC000060587309",
    "tech": "SATELLITE",
    "upgrade": "NULL_NA",
    "gnaf_pid": "GAVIC411986235"
   }
  },
  {
   "type": "Feature",
   "geometry": {
    "type": "Point",
    "coordinates": [
     143.23626209,
     -34.78565125
    ]
   },
   "properties": {
    "name": "103 HEYWOOD LAKE ROAD NARRUNG 3597",
    "locID": "LOC000092068221",
    "tech": "SATELLITE",
    "upgrade": "NULL_NA",
    "gnaf_pid": "GAVIC422155356"
   }
  },
  {
   "type": "Feature",
   "geometry": {
    "type": "Point",
    "coordinates": [
     143.24411615,
     -34.78297555
    ]
   },
   "properties": {
    "name": "33 HEYWOOD LAKE ROAD NARRUNG 3597",
    "locID": "LOC000124901349",
    "tech": "SATELLITE",
    "upgrade": "NULL_NA",
    "gnaf_pid": "GAVIC422155357"
   }
  },
  {
   "type": "Feature",
   "geometry": {
    "type": "Point",
    "coordinates": [
     143.24045844,
     -34.78412612
    ]
   },
   "properties": {
    "name": "99 HEYWOOD LAKE ROAD NARRUNG 3597",
    "locID": "LOC000095957450",
    "tech": "SATELLITE",
    "upgrade": "NULL_NA",
    "gnaf_pid": "GAVIC422155358"
   }
  },
  {
   "type": "Feature",
   "geometry": {
    "type": "Point",
    "coordinates": [
     143.247488,
     -34.79464006
    ]
   },
   "properties": {
    "name": "7413 MURRAY VALLEY HIGHWAY NARRUNG 3597",
    "locID": "LOC000016147257",
    "tech": "SATELLITE",
    "upgrade": "NULL_NA",
    "gnaf_pid": "GAVIC422174823"
   }
  },
  {
   "type": "Feature",
   "geometry": {
    "type": "Point",
    "coordinates": [
     143.24753441,
     -34.7808416
    ]
   },
   "properties": {
    "name": "7566 MURRAY VALLEY HIGHWAY NARRUNG 3597",
    "locID": "LOC000087596917",
    "tech": "SATELLITE",
    "upgrade": "NULL_NA",
    "gnaf_pid": "GAVIC422174824"
   }
  },
  {
   "type": "Feature",
   "geometry": {
    "type": "Point",
    "coordinates": [
     143.24668101,
     -34.77657921
    ]
   },
   "properties": {
    "name": "7616 MURRAY VALLEY HIGHWAY NARRUNG 3597",
    "locID": "LOC000007761369",
    "tech": "SATELLITE",
    "upgrade": "NULL_NA",
    "gnaf_pid": "GAVIC422174825"
   }
  },
  {
   "type": "Feature",
   "geometry": {
    "type": "Point",
    "coordinates": [
     143.24888795,
     -34.77998778
    ]
   },
   "properties": {
    "name": "19 FISHER ROAD NARRUNG 3597",
    "locID": "LOC000124901331",
    "tech": "SATELLITE",
    "upgrade": "NULL_NA",
    "gnaf_pid": "GAVIC424250789"
   }
  },
  {
   "type": "Feature",
   "geometry": {
    "type": "Point",
    "coordinates": [
     143.24888795,
     -34.77998778
    ]
   },
   "properties": {
    "name": "39 FISHER ROAD NARRUNG 3597",
    "locID": "LOC000124901331",
    "tech": "SATELLITE",
    "upgrade": "NULL_NA",
    "gnaf_pid": "GAVIC424250790"
   }
  },
  {
   "type": "Feature",
   "geometry": {
    "type": "Point",
    "coordinates": [
     143.25614588,
     -34.78003609
    ]
   },
   "properties": {
    "name": "50A FISHER ROAD NARRUNG 3597",
    "locID": "LOC000059553435",
    "tech": "SATELLITE",
    "upgrade": "NULL_NA",
    "gnaf_pid": "GAVIC424250792"
   }
  },
  {
   "type": "Feature",
   "geometry": {
    "type": "Point",
    "coordinates": [
     143.24888795,
     -34.77998778
    ]
   },
   "properties": {
    "name": "19-39 FISHER ROAD NARRUNG 3597",
    "locID": "LOC000124901331",
    "tech": "SATELLITE",
    "upgrade": "NULL_NA",
    "gnaf_pid": "GAVIC424263563"
   }
  },
  {
   "type": "Feature",
   "geometry": {
    "type": "Point",
    "coordinates": [
     143.25223131,
     -34.78003086
    ]
   },
   "properties": {
    "name": "49A FISHER ROAD NARRUNG 3597",
    "locID": "LOC000113063576",
    "tech": "SATELLITE",
    "upgrade": "NULL_NA",
    "gnaf_pid": "GAVIC424263564"
   }
  },
  {
   "type": "Feature",
   "geometry": {
    "type": "Point",
    "coordinates": [
     143.25223131,
     -34.78003086
    ]
   },
   "properties": {
    "name": "49B FISHER ROAD NARRUNG 3597",
    "locID": "ChIJ1S6ruVfy3GoRYKdqV0RDzis",
    "tech": "SATELLITE",
    "upgrade": "UNKNOWN",
    "gnaf_pid": "GAVIC425516416"
   }
  },
  {
   "type": "Feature",
   "geometry": {
    "type": "Point",
    "coordinates": [
     143.25216954,
     -34.78001439
    ]
   },
   "properties": {
    "name": "49 FISHER ROAD NARRUNG 3597",
    "locID": "LOC000113063576",
    "tech": "SATELLITE",
    "upgrade": "NULL_NA",
    "gnaf_pid": "GAVIC719212217"
   }
  },
  {
   "type": "Feature",
   "geometry": {
    "type": "Point",
    "coordinates": [
     143.2380523,
     -34.76956738
    ]
   },
   "properties": {
    "name": "7912 MURRAY VALLEY HIGHWAY NARRUNG 3597",
    "locID": "ChIJj497DGfy3GoRwhFl-v_DmlM",
    "tech": "SATELLITE",
    "upgrade": "UNKNOWN",
    "gnaf_pid": "GAVIC720588830"
   }
  }
 ]
}