{
 "type": "FeatureCollection",
 "generated": "2024-07-06T16:57:08.973806",
 "suburb": "NURRABIEL",
 "features": [
  {
   "type": "Feature",
   "geometry": {
    "type": "Point",
    "coordinates": [
     142.1007645,
     -36.97216345
    ]
   },
   "properties": {
    "name": "365 BELLS ROAD NURRABIEL 3401",
    "locID": "LOC000071484998",
    "tech": "SATELLITE",
    "upgrade": "NULL_NA",
    "gnaf_pid": "GAVIC422277234",
    "tech_change_status": "Not Planned"
   }
  },
  {
   "type": "Feature",
   "geometry": {
    "type": "Point",
    "coordinates": [
     142.0304542,
     -36.94920505
    ]
   },
   "properties": {
    "name": "95 CONNANGORACH ROAD NURRABIEL 3401",
    "locID": "LOC000002853533",
    "tech": "SATELLITE",
    "upgrade": "NULL_NA",
    "gnaf_pid": "GAVIC422285150",
    "tech_change_status": "Not Planned"
   }
  },
  {
   "type": "Feature",
   "geometry": {
    "type": "Point",
    "coordinates": [
     142.11466226,
     -36.95526768
    ]
   },
   "properties": {
    "name": "21 HILLS ROAD NURRABIEL 3401",
    "locID": "LOC000020998935",
    "tech": "SATELLITE",
    "upgrade": "NULL_NA",
    "gnaf_pid": "GAVIC422298693",
    "tech_change_status": "Not Planned"
   }
  },
  {
   "type": "Feature",
   "geometry": {
    "type": "Point",
    "coordinates": [
     142.01167299,
     -36.93453828
    ]
   },
   "properties": {
    "name": "47 HUTCHINSONS ROAD NURRABIEL 3401",
    "locID": "LOC000017788665",
    "tech": "SATELLITE",
    "upgrade": "NULL_NA",
    "gnaf_pid": "GAVIC422299833",
    "tech_change_status": "Not Planned"
   }
  },
  {
   "type": "Feature",
   "geometry": {
    "type": "Point",
    "coordinates": [
     142.04419776,
     -36.89825565
    ]
   },
   "properties": {
    "name": "1303 LOWER NORTON-NURRABIEL ROAD NURRABIEL 3401",
    "locID": "LOC000048898778",
    "tech": "SATELLITE",
    "upgrade": "NULL_NA",
    "gnaf_pid": "GAVIC422305524",
    "tech_change_status": "Not Planned"
   }
  },
  {
   "type": "Feature",
   "geometry": {
    "type": "Point",
    "coordinates": [
     142.0150081,
     -36.8948249
    ]
   },
   "properties": {
    "name": "61 MCDONALDS ROAD NURRABIEL 3401",
    "locID": "LOC000011927617",
    "tech": "SATELLITE",
    "upgrade": "NULL_NA",
    "gnaf_pid": "GAVIC422308439",
    "tech_change_status": "Not Planned"
   }
  },
  {
   "type": "Feature",
   "geometry": {
    "type": "Point",
    "coordinates": [
     142.05554111,
     -37.02138555
    ]
   },
   "properties": {
    "name": "305 MT TALBOT RESERVE ROAD NURRABIEL 3401",
    "locID": "LOC000016965678",
    "tech": "SATELLITE",
    "upgrade": "NULL_NA",
    "gnaf_pid": "GAVIC422311677",
    "tech_change_status": "Not Planned"
   }
  },
  {
   "type": "Feature",
   "geometry": {
    "type": "Point",
    "coordinates": [
     142.01402509,
     -36.91118944
    ]
   },
   "properties": {
    "name": "520 NURRABIEL CHURCH ROAD NURRABIEL 3401",
    "locID": "LOC000003617193",
    "tech": "SATELLITE",
    "upgrade": "NULL_NA",
    "gnaf_pid": "GAVIC422314173",
    "tech_change_status": "Not Planned"
   }
  },
  {
   "type": "Feature",
   "geometry": {
    "type": "Point",
    "coordinates": [
     142.00527185,
     -36.9524407
    ]
   },
   "properties": {
    "name": "112 RUSSELLS ROAD NURRABIEL 3401",
    "locID": "LOC000050808808",
    "tech": "SATELLITE",
    "upgrade": "NULL_NA",
    "gnaf_pid": "GAVIC422321029",
    "tech_change_status": "Not Planned"
   }
  },
  {
   "type": "Feature",
   "geometry": {
    "type": "Point",
    "coordinates": [
     142.08078258,
     -36.98532103
    ]
   },
   "properties": {
    "name": "214 SPEIRS ROAD NURRABIEL 3401",
    "locID": "LOC000045426713",
    "tech": "SATELLITE",
    "upgrade": "NULL_NA",
    "gnaf_pid": "GAVIC422324581",
    "tech_change_status": "Not Planned"
   }
  },
  {
   "type": "Feature",
   "geometry": {
    "type": "Point",
    "coordinates": [
     142.04138871,
     -36.91172796
    ]
   },
   "properties": {
    "name": "1003 WONWONDAH-TOOLONDO ROAD NURRABIEL 3401",
    "locID": "LOC000103825145",
    "tech": "SATELLITE",
    "upgrade": "NULL_NA",
    "gnaf_pid": "GAVIC422334838",
    "tech_change_status": "Not Planned"
   }
  },
  {
   "type": "Feature",
   "geometry": {
    "type": "Point",
    "coordinates": [
     142.0096614,
     -36.96335563
    ]
   },
   "properties": {
    "name": "1657 WONWONDAH-TOOLONDO ROAD NURRABIEL 3401",
    "locID": "LOC000046669513",
    "tech": "SATELLITE",
    "upgrade": "NULL_NA",
    "gnaf_pid": "GAVIC422334840",
    "tech_change_status": "Not Planned"
   }
  },
  {
   "type": "Feature",
   "geometry": {
    "type": "Point",
    "coordinates": [
     142.0159638,
     -36.88818229
    ]
   },
   "properties": {
    "name": "135 MCDONALDS ROAD NURRABIEL 3401",
    "locID": "LOC000092513843",
    "tech": "SATELLITE",
    "upgrade": "NULL_NA",
    "gnaf_pid": "GAVIC423105693",
    "tech_change_status": "Not Planned"
   }
  },
  {
   "type": "Feature",
   "geometry": {
    "type": "Point",
    "coordinates": [
     142.01722895,
     -36.90984596
    ]
   },
   "properties": {
    "name": "545 NURRABIEL CHURCH ROAD NURRABIEL 3401",
    "locID": "LOC000124580579",
    "tech": "SATELLITE",
    "upgrade": "NULL_NA",
    "gnaf_pid": "GAVIC423151625",
    "tech_change_status": "Not Planned"
   }
  },
  {
   "type": "Feature",
   "geometry": {
    "type": "Point",
    "coordinates": [
     142.0427663,
     -36.93963009
    ]
   },
   "properties": {
    "name": "1058 JALLUMBA-MOCKINYA ROAD NURRABIEL 3401",
    "locID": "LOC000019535957",
    "tech": "SATELLITE",
    "upgrade": "NULL_NA",
    "gnaf_pid": "GAVIC423463826",
    "tech_change_status": "Not Planned"
   }
  },
  {
   "type": "Feature",
   "geometry": {
    "type": "Point",
    "coordinates": [
     142.03436196,
     -36.94085103
    ]
   },
   "properties": {
    "name": "1129 JALLUMBA-MOCKINYA ROAD NURRABIEL 3401",
    "locID": "LOC000062399807",
    "tech": "SATELLITE",
    "upgrade": "NULL_NA",
    "gnaf_pid": "GAVIC423463827",
    "tech_change_status": "Not Planned"
   }
  },
  {
   "type": "Feature",
   "geometry": {
    "type": "Point",
    "coordinates": [
     142.07539495,
     -36.86929694
    ]
   },
   "properties": {
    "name": "234 MOTTS ROAD NURRABIEL 3401",
    "locID": "LOC000069563669",
    "tech": "SATELLITE",
    "upgrade": "NULL_NA",
    "gnaf_pid": "GAVIC423476374",
    "tech_change_status": "Not Planned"
   }
  },
  {
   "type": "Feature",
   "geometry": {
    "type": "Point",
    "coordinates": [
     142.03354208,
     -36.92679156
    ]
   },
   "properties": {
    "name": "1192 WONWONDAH-TOOLONDO ROAD NURRABIEL 3401",
    "locID": "LOC000009707788",
    "tech": "SATELLITE",
    "upgrade": "NULL_NA",
    "gnaf_pid": "GAVIC423657065",
    "tech_change_status": "Not Planned"
   }
  },
  {
   "type": "Feature",
   "geometry": {
    "type": "Point",
    "coordinates": [
     142.02000004,
     -36.95195888
    ]
   },
   "properties": {
    "name": "1503 WONWONDAH-TOOLONDO ROAD NURRABIEL 3401",
    "locID": "LOC000020491533",
    "tech": "SATELLITE",
    "upgrade": "NULL_NA",
    "gnaf_pid": "GAVIC423657066",
    "tech_change_status": "Not Planned"
   }
  },
  {
   "type": "Feature",
   "geometry": {
    "type": "Point",
    "coordinates": [
     142.00909555,
     -36.96396869
    ]
   },
   "properties": {
    "name": "1667 WONWONDAH-TOOLONDO ROAD NURRABIEL 3401",
    "locID": "LOC000073883076",
    "tech": "SATELLITE",
    "upgrade": "NULL_NA",
    "gnaf_pid": "GAVIC423657067",
    "tech_change_status": "Not Planned"
   }
  },
  {
   "type": "Feature",
   "geometry": {
    "type": "Point",
    "coordinates": [
     142.01973297,
     -36.99424618
    ]
   },
   "properties": {
    "name": "388 CAMERONS ROAD NURRABIEL 3401",
    "locID": "LOC000071721020",
    "tech": "SATELLITE",
    "upgrade": "NULL_NA",
    "gnaf_pid": "GAVIC423672872",
    "tech_change_status": "Not Planned"
   }
  },
  {
   "type": "Feature",
   "geometry": {
    "type": "Point",
    "coordinates": [
     142.00578925,
     -36.96633824
    ]
   },
   "properties": {
    "name": "1722 WONWONDAH-TOOLONDO ROAD NURRABIEL 3401",
    "locID": "LOC000048690010",
    "tech": "SATELLITE",
    "upgrade": "NULL_NA",
    "gnaf_pid": "GAVIC423933610",
    "tech_change_status": "Not Planned"
   }
  },
  {
   "type": "Feature",
   "geometry": {
    "type": "Point",
    "coordinates": [
     142.05032166,
     -37.03670573
    ]
   },
   "properties": {
    "name": "1101 MT TALBOT ROAD NURRABIEL 3401",
    "locID": "LOC000066088169",
    "tech": "SATELLITE",
    "upgrade": "NULL_NA",
    "gnaf_pid": "GAVIC424032152",
    "tech_change_status": "Not Planned"
   }
  },
  {
   "type": "Feature",
   "geometry": {
    "type": "Point",
    "coordinates": [
     142.03443415,
     -36.92467449
    ]
   },
   "properties": {
    "name": "1168 WONWONDAH-TOOLONDO ROAD NURRABIEL 3401",
    "locID": "LOC000124610737",
    "tech": "SATELLITE",
    "upgrade": "NULL_NA",
    "gnaf_pid": "GAVIC424271851",
    "tech_change_status": "Not Planned"
   }
  },
  {
   "type": "Feature",
   "geometry": {
    "type": "Point",
    "coordinates": [
     142.0206635,
     -36.95117795
    ]
   },
   "properties": {
    "name": "1493 WONWONDAH-TOOLONDO ROAD NURRABIEL 3401",
    "locID": "LOC000124615214",
    "tech": "SATELLITE",
    "upgrade": "NULL_NA",
    "gnaf_pid": "GAVIC424548521",
    "tech_change_status": "Not Planned"
   }
  }
 ]
}