{
 "type": "FeatureCollection",
 "generated": "2023-10-24T23:26:20.824909",
 "suburb": "NYRRABY",
 "features": [
  {
   "type": "Feature",
   "geometry": {
    "type": "Point",
    "coordinates": [
     143.16691179,
     -35.1864535
    ]
   },
   "properties": {
    "name": "2184 CHINKAPOOK-NYAH WEST ROAD NYRRABY 3585",
    "locID": "LOC000058037000",
    "tech": "SATELLITE",
    "upgrade": "NULL_NA",
    "gnaf_pid": "GAVIC412051359"
   }
  },
  {
   "type": "Feature",
   "geometry": {
    "type": "Point",
    "coordinates": [
     143.15803635,
     -35.25712809
    ]
   },
   "properties": {
    "name": "3232 CHILLINGOLLAH ROAD NYRRABY 3585",
    "locID": "LOC000051954845",
    "tech": "SATELLITE",
    "upgrade": "NULL_NA",
    "gnaf_pid": "GAVIC412051360"
   }
  },
  {
   "type": "Feature",
   "geometry": {
    "type": "Point",
    "coordinates": [
     143.244624,
     -35.22037591
    ]
   },
   "properties": {
    "name": "409 COCKFIELD ROAD NYRRABY 3585",
    "locID": "LOC000030960059",
    "tech": "SATELLITE",
    "upgrade": "NULL_NA",
    "gnaf_pid": "GAVIC412051362"
   }
  },
  {
   "type": "Feature",
   "geometry": {
    "type": "Point",
    "coordinates": [
     143.15312564,
     -35.2572066
    ]
   },
   "properties": {
    "name": "3276 CHILLINGOLLAH ROAD NYRRABY 3585",
    "locID": "LOC000103535533",
    "tech": "SATELLITE",
    "upgrade": "NULL_NA",
    "gnaf_pid": "GAVIC412061925"
   }
  },
  {
   "type": "Feature",
   "geometry": {
    "type": "Point",
    "coordinates": [
     143.28181696,
     -35.22722631
    ]
   },
   "properties": {
    "name": "336 EVANS ROAD NYRRABY 3585",
    "locID": "LOC000046531760",
    "tech": "SATELLITE",
    "upgrade": "NULL_NA",
    "gnaf_pid": "GAVIC421169089"
   }
  },
  {
   "type": "Feature",
   "geometry": {
    "type": "Point",
    "coordinates": [
     143.21930351,
     -35.25710955
    ]
   },
   "properties": {
    "name": "2674 CHILLINGOLLAH ROAD NYRRABY 3585",
    "locID": "LOC000075731082",
    "tech": "SATELLITE",
    "upgrade": "NULL_NA",
    "gnaf_pid": "GAVIC422002592"
   }
  },
  {
   "type": "Feature",
   "geometry": {
    "type": "Point",
    "coordinates": [
     143.29068337,
     -35.18598594
    ]
   },
   "properties": {
    "name": "3310 CHINKAPOOK-NYAH WEST ROAD NYRRABY 3585",
    "locID": "ChIJf-S_1j1822oR2PdCLMBh_Aw",
    "tech": "SATELLITE",
    "upgrade": "UNKNOWN",
    "gnaf_pid": "GAVIC422136265"
   }
  },
  {
   "type": "Feature",
   "geometry": {
    "type": "Point",
    "coordinates": [
     143.24496538,
     -35.2016548
    ]
   },
   "properties": {
    "name": "619 COCKFIELD ROAD NYRRABY 3585",
    "locID": "LOC000002740157",
    "tech": "SATELLITE",
    "upgrade": "NULL_NA",
    "gnaf_pid": "GAVIC422137586"
   }
  },
  {
   "type": "Feature",
   "geometry": {
    "type": "Point",
    "coordinates": [
     143.1545763,
     -35.20902293
    ]
   },
   "properties": {
    "name": "555 NYRRABY ROAD NYRRABY 3585",
    "locID": "LOC000124852564",
    "tech": "SATELLITE",
    "upgrade": "NULL_NA",
    "gnaf_pid": "GAVIC424543251"
   }
  },
  {
   "type": "Feature",
   "geometry": {
    "type": "Point",
    "coordinates": [
     143.19907427,
     -35.25710109
    ]
   },
   "properties": {
    "name": "2858 CHILLINGOLLAH ROAD NYRRABY 3585",
    "locID": "LOC000041639722",
    "tech": "SATELLITE",
    "upgrade": "NULL_NA",
    "gnaf_pid": "GAVIC424579011"
   }
  },
  {
   "type": "Feature",
   "geometry": {
    "type": "Point",
    "coordinates": [
     143.20060387,
     -35.22139252
    ]
   },
   "properties": {
    "name": "327 HOPKINS LANE NYRRABY 3585",
    "locID": "LOC000124879220",
    "tech": "SATELLITE",
    "upgrade": "NULL_NA",
    "gnaf_pid": "GAVIC424922636"
   }
  },
  {
   "type": "Feature",
   "geometry": {
    "type": "Point",
    "coordinates": [
     143.28131693,
     -35.23305521
    ]
   },
   "properties": {
    "name": "271 EVANS ROAD NYRRABY 3585",
    "locID": "LOC000150790553",
    "tech": "SATELLITE",
    "upgrade": "NULL_NA",
    "gnaf_pid": "GAVIC425516265"
   }
  },
  {
   "type": "Feature",
   "geometry": {
    "type": "Point",
    "coordinates": [
     143.30849387,
     -35.22132299
    ]
   },
   "properties": {
    "name": "3686 WILLOUGHBY ROAD NYRRABY 3585",
    "locID": "LOC100078659157",
    "tech": "SATELLITE",
    "upgrade": "NULL_NA",
    "gnaf_pid": "GAVIC720360437"
   }
  }
 ]
}