{
 "type": "FeatureCollection",
 "generated": "2024-07-06T17:45:11.699264",
 "suburb": "PANITYA",
 "features": [
  {
   "type": "Feature",
   "geometry": {
    "type": "Point",
    "coordinates": [
     141.02800865,
     -35.34697738
    ]
   },
   "properties": {
    "name": "564 BRIDGE ROAD PANITYA 3512",
    "locID": "LOC000044299405",
    "tech": "SATELLITE",
    "upgrade": "WIRELESS",
    "gnaf_pid": "GAVIC422382392",
    "tech_change_status": "Eligible To Order"
   }
  },
  {
   "type": "Feature",
   "geometry": {
    "type": "Point",
    "coordinates": [
     141.02330856,
     -35.15219165
    ]
   },
   "properties": {
    "name": "722 MICKAN ROAD PANITYA 3512",
    "locID": "LOC000016999408",
    "tech": "WIRELESS",
    "upgrade": "NULL_NA",
    "gnaf_pid": "GAVIC422411499",
    "tech_change_status": "Not Planned"
   }
  },
  {
   "type": "Feature",
   "geometry": {
    "type": "Point",
    "coordinates": [
     141.00468485,
     -35.2875587
    ]
   },
   "properties": {
    "name": "1669 NGALLO ROAD PANITYA 3512",
    "locID": "LOC000023498439",
    "tech": "WIRELESS",
    "upgrade": "NULL_NA",
    "gnaf_pid": "GAVIC422415541",
    "tech_change_status": "Not Planned"
   }
  },
  {
   "type": "Feature",
   "geometry": {
    "type": "Point",
    "coordinates": [
     141.0442734,
     -34.93935776
    ]
   },
   "properties": {
    "name": "1834 BELLBIRD BORE ROAD PANITYA 3512",
    "locID": "LOC000036927316",
    "tech": "SATELLITE",
    "upgrade": "NULL_NA",
    "gnaf_pid": "GAVIC423101058",
    "tech_change_status": "Not Planned"
   }
  },
  {
   "type": "Feature",
   "geometry": {
    "type": "Point",
    "coordinates": [
     140.99655011,
     -35.21018326
    ]
   },
   "properties": {
    "name": "261 PANITYA NORTH ROAD PANITYA 3512",
    "locID": "LOC000008902060",
    "tech": "WIRELESS",
    "upgrade": "NULL_NA",
    "gnaf_pid": "GAVIC423106896",
    "tech_change_status": "Not Planned"
   }
  },
  {
   "type": "Feature",
   "geometry": {
    "type": "Point",
    "coordinates": [
     141.0338285,
     -35.34221495
    ]
   },
   "properties": {
    "name": "281 THOMAS ROAD PANITYA 3512",
    "locID": "LOC000001978740",
    "tech": "SATELLITE",
    "upgrade": "WIRELESS",
    "gnaf_pid": "GAVIC423108939",
    "tech_change_status": "Eligible To Order"
   }
  },
  {
   "type": "Feature",
   "geometry": {
    "type": "Point",
    "coordinates": [
     141.04065525,
     -35.23989686
    ]
   },
   "properties": {
    "name": "7332 MALLEE HIGHWAY PANITYA 3512",
    "locID": "LOC000038681064",
    "tech": "WIRELESS",
    "upgrade": "NULL_NA",
    "gnaf_pid": "GAVIC423281574",
    "tech_change_status": "Not Planned"
   }
  },
  {
   "type": "Feature",
   "geometry": {
    "type": "Point",
    "coordinates": [
     140.99661479,
     -35.24012908
    ]
   },
   "properties": {
    "name": "68 PANITYA SOUTH ROAD PANITYA 3512",
    "locID": "LOC000021946542",
    "tech": "WIRELESS",
    "upgrade": "NULL_NA",
    "gnaf_pid": "GAVIC423286239",
    "tech_change_status": "Not Planned"
   }
  },
  {
   "type": "Feature",
   "geometry": {
    "type": "Point",
    "coordinates": [
     140.99509836,
     -35.23482698
    ]
   },
   "properties": {
    "name": "7761 MALLEE HIGHWAY PANITYA 3512",
    "locID": "LOC000041446720",
    "tech": "WIRELESS",
    "upgrade": "NULL_NA",
    "gnaf_pid": "GAVIC423663365",
    "tech_change_status": "Not Planned"
   }
  },
  {
   "type": "Feature",
   "geometry": {
    "type": "Point",
    "coordinates": [
     141.03354801,
     -35.24926779
    ]
   },
   "properties": {
    "name": "139 ROSS ROAD PANITYA 3512",
    "locID": "LOC000006036670",
    "tech": "WIRELESS",
    "upgrade": "NULL_NA",
    "gnaf_pid": "GAVIC423757953",
    "tech_change_status": "Not Planned"
   }
  },
  {
   "type": "Feature",
   "geometry": {
    "type": "Point",
    "coordinates": [
     141.02890455,
     -35.23577041
    ]
   },
   "properties": {
    "name": "7450 MALLEE HIGHWAY PANITYA 3512",
    "locID": "LOC000074209109",
    "tech": "WIRELESS",
    "upgrade": "NULL_NA",
    "gnaf_pid": "GAVIC423795553",
    "tech_change_status": "Not Planned"
   }
  },
  {
   "type": "Feature",
   "geometry": {
    "type": "Point",
    "coordinates": [
     141.00846224,
     -35.2327799
    ]
   },
   "properties": {
    "name": "7640 MALLEE HIGHWAY PANITYA 3512",
    "locID": "LOC000115775432",
    "tech": "WIRELESS",
    "upgrade": "NULL_NA",
    "gnaf_pid": "GAVIC423795554",
    "tech_change_status": "Not Planned"
   }
  },
  {
   "type": "Feature",
   "geometry": {
    "type": "Point",
    "coordinates": [
     140.98584445,
     -35.2358542
    ]
   },
   "properties": {
    "name": "7850 MALLEE HIGHWAY PANITYA 3512",
    "locID": "LOC000092752615",
    "tech": "WIRELESS",
    "upgrade": "NULL_NA",
    "gnaf_pid": "GAVIC423795555",
    "tech_change_status": "Not Planned"
   }
  },
  {
   "type": "Feature",
   "geometry": {
    "type": "Point",
    "coordinates": [
     141.01558305,
     -35.28684545
    ]
   },
   "properties": {
    "name": "1568 NGALLO ROAD PANITYA 3512",
    "locID": "LOC000124786035",
    "tech": "WIRELESS",
    "upgrade": "NULL_NA",
    "gnaf_pid": "GAVIC423796943",
    "tech_change_status": "Not Planned"
   }
  },
  {
   "type": "Feature",
   "geometry": {
    "type": "Point",
    "coordinates": [
     140.97578405,
     -35.2870424
    ]
   },
   "properties": {
    "name": "1932 NGALLO ROAD PANITYA 3512",
    "locID": "LOC000152948909",
    "tech": "SATELLITE",
    "upgrade": "WIRELESS",
    "gnaf_pid": "GAVIC423796944",
    "tech_change_status": "Eligible To Order"
   }
  },
  {
   "type": "Feature",
   "geometry": {
    "type": "Point",
    "coordinates": [
     141.02263805,
     -35.06997225
    ]
   },
   "properties": {
    "name": "1966 PANITYA NORTH ROAD PANITYA 3512",
    "locID": "LOC000020302291",
    "tech": "SATELLITE",
    "upgrade": "NULL_NA",
    "gnaf_pid": "GAVIC423849859",
    "tech_change_status": "Not Planned"
   }
  },
  {
   "type": "Feature",
   "geometry": {
    "type": "Point",
    "coordinates": [
     140.99660104,
     -35.30642231
    ]
   },
   "properties": {
    "name": "806 PANITYA SOUTH ROAD PANITYA 3512",
    "locID": "LOC000006930106",
    "tech": "WIRELESS",
    "upgrade": "NULL_NA",
    "gnaf_pid": "GAVIC423849860",
    "tech_change_status": "Not Planned"
   }
  },
  {
   "type": "Feature",
   "geometry": {
    "type": "Point",
    "coordinates": [
     140.99136144,
     -35.23731549
    ]
   },
   "properties": {
    "name": "228 HEWITT ROAD PANITYA 3512",
    "locID": "LOC000115775387",
    "tech": "WIRELESS",
    "upgrade": "NULL_NA",
    "gnaf_pid": "GAVIC424027744",
    "tech_change_status": "Not Planned"
   }
  },
  {
   "type": "Feature",
   "geometry": {
    "type": "Point",
    "coordinates": [
     140.98791575,
     -35.12706225
    ]
   },
   "properties": {
    "name": "1794 LOGAN ROAD PANITYA 3512",
    "locID": "LOC000124789858",
    "tech": "WIRELESS",
    "upgrade": "NULL_NA",
    "gnaf_pid": "GAVIC424030195",
    "tech_change_status": "Not Planned"
   }
  },
  {
   "type": "Feature",
   "geometry": {
    "type": "Point",
    "coordinates": [
     141.05879186,
     -35.181233
    ]
   },
   "properties": {
    "name": "1166 MULCRA ROAD PANITYA 3512",
    "locID": "LOC000124785920",
    "tech": "WIRELESS",
    "upgrade": "NULL_NA",
    "gnaf_pid": "GAVIC424032184",
    "tech_change_status": "Not Planned"
   }
  },
  {
   "type": "Feature",
   "geometry": {
    "type": "Point",
    "coordinates": [
     141.01502484,
     -35.18197674
    ]
   },
   "properties": {
    "name": "1565 MULCRA ROAD PANITYA 3512",
    "locID": "LOC000034763381",
    "tech": "SATELLITE",
    "upgrade": "WIRELESS",
    "gnaf_pid": "GAVIC424032186",
    "tech_change_status": "Eligible To Order"
   }
  },
  {
   "type": "Feature",
   "geometry": {
    "type": "Point",
    "coordinates": [
     140.99148821,
     -35.18098549
    ]
   },
   "properties": {
    "name": "1780 MULCRA ROAD PANITYA 3512",
    "locID": "LOC000115775341",
    "tech": "WIRELESS",
    "upgrade": "NULL_NA",
    "gnaf_pid": "GAVIC424032188",
    "tech_change_status": "Not Planned"
   }
  },
  {
   "type": "Feature",
   "geometry": {
    "type": "Point",
    "coordinates": [
     141.06908675,
     -35.36705956
    ]
   },
   "properties": {
    "name": "1312 NGALLO SOUTH ROAD PANITYA 3512",
    "locID": "LOC000124785977",
    "tech": "WIRELESS",
    "upgrade": "NULL_NA",
    "gnaf_pid": "GAVIC424032564",
    "tech_change_status": "Not Planned"
   }
  },
  {
   "type": "Feature",
   "geometry": {
    "type": "Point",
    "coordinates": [
     141.0687963,
     -35.27111021
    ]
   },
   "properties": {
    "name": "242 NGALLO SOUTH ROAD PANITYA 3512",
    "locID": "LOC000115775394",
    "tech": "WIRELESS",
    "upgrade": "NULL_NA",
    "gnaf_pid": "GAVIC424032565",
    "tech_change_status": "Not Planned"
   }
  },
  {
   "type": "Feature",
   "geometry": {
    "type": "Point",
    "coordinates": [
     141.00962455,
     -35.21068789
    ]
   },
   "properties": {
    "name": "3314 NORTH FIVE CHAIN ROAD PANITYA 3512",
    "locID": "LOC000020212951",
    "tech": "WIRELESS",
    "upgrade": "NULL_NA",
    "gnaf_pid": "GAVIC424032672",
    "tech_change_status": "Not Planned"
   }
  },
  {
   "type": "Feature",
   "geometry": {
    "type": "Point",
    "coordinates": [
     141.03960555,
     -35.1605103
    ]
   },
   "properties": {
    "name": "246 SIMON ROAD PANITYA 3512",
    "locID": "LOC000124790017",
    "tech": "WIRELESS",
    "upgrade": "NULL_NA",
    "gnaf_pid": "GAVIC424035461",
    "tech_change_status": "Not Planned"
   }
  },
  {
   "type": "Feature",
   "geometry": {
    "type": "Point",
    "coordinates": [
     141.03986715,
     -34.90824873
    ]
   },
   "properties": {
    "name": "799 BRAUN ROAD PANITYA 3512",
    "locID": "LOC000124798240",
    "tech": "SATELLITE",
    "upgrade": "NULL_NA",
    "gnaf_pid": "GAVIC424486326",
    "tech_change_status": "Not Planned"
   }
  },
  {
   "type": "Feature",
   "geometry": {
    "type": "Point",
    "coordinates": [
     140.99455197,
     -35.34702947
    ]
   },
   "properties": {
    "name": "258 BRIDGE ROAD PANITYA 3512",
    "locID": "LOC000033829852",
    "tech": "WIRELESS",
    "upgrade": "NULL_NA",
    "gnaf_pid": "GAVIC424548966",
    "tech_change_status": "Not Planned"
   }
  },
  {
   "type": "Feature",
   "geometry": {
    "type": "Point",
    "coordinates": [
     140.99677292,
     -35.13268055
    ]
   },
   "properties": {
    "name": "1123 PANITYA NORTH ROAD PANITYA 3512",
    "locID": "LOC000115775339",
    "tech": "WIRELESS",
    "upgrade": "NULL_NA",
    "gnaf_pid": "GAVIC424895544",
    "tech_change_status": "Not Planned"
   }
  },
  {
   "type": "Feature",
   "geometry": {
    "type": "Point",
    "coordinates": [
     140.99444228,
     -35.34703459
    ]
   },
   "properties": {
    "name": "256 BRIDGE ROAD PANITYA 3512",
    "locID": "LOC100079661334",
    "tech": "WIRELESS",
    "upgrade": "NULL_NA",
    "gnaf_pid": "GAVIC720749380",
    "tech_change_status": "Not Planned"
   }
  },
  {
   "type": "Feature",
   "geometry": {
    "type": "Point",
    "coordinates": [
     140.96605928,
     -34.95078629
    ]
   },
   "properties": {
    "name": "545 WALL ROAD PANITYA 3512",
    "locID": "LOC100079391003",
    "tech": "SATELLITE",
    "upgrade": "NULL_NA",
    "gnaf_pid": "GAVIC720766307",
    "tech_change_status": "Not Planned"
   }
  }
 ]
}