{
 "type": "FeatureCollection",
 "generated": "2023-09-26T16:50:53.757355",
 "suburb": "PORTLAND",
 "features": [
  {
   "type": "Feature",
   "geometry": {
    "type": "Point",
    "coordinates": [
     141.60224823,
     -38.34347055
    ]
   },
   "properties": {
    "name": "22 JULIANI PLACE PORTLAND 3305",
    "locID": "ChIJYQOkWSyYnaoRzthx2YWUhiA",
    "tech": "FTTN",
    "upgrade": "UNKNOWN",
    "gnaf_pid": "GAVIC412096195"
   }
  },
  {
   "type": "Feature",
   "geometry": {
    "type": "Point",
    "coordinates": [
     141.61784203,
     -38.36129849
    ]
   },
   "properties": {
    "name": "UNIT 8, 53 BARKLY STREET PORTLAND 3305",
    "locID": "LOC000020516189",
    "tech": "FTTN",
    "upgrade": "NULL_NA",
    "gnaf_pid": "GAVIC412096199"
   }
  },
  {
   "type": "Feature",
   "geometry": {
    "type": "Point",
    "coordinates": [
     141.59406545,
     -38.35536435
    ]
   },
   "properties": {
    "name": "56 FAWTHROP STREET PORTLAND 3305",
    "locID": "LOC000065669013",
    "tech": "FTTN",
    "upgrade": "NULL_NA",
    "gnaf_pid": "GAVIC412096204"
   }
  },
  {
   "type": "Feature",
   "geometry": {
    "type": "Point",
    "coordinates": [
     141.60170895,
     -38.33870673
    ]
   },
   "properties": {
    "name": "126A HURD STREET PORTLAND 3305",
    "locID": "ChIJzeYVBtWZnaoRQl3ahGoPmy0",
    "tech": "FTTN",
    "upgrade": "UNKNOWN",
    "gnaf_pid": "GAVIC412112284"
   }
  },
  {
   "type": "Feature",
   "geometry": {
    "type": "Point",
    "coordinates": [
     141.57782899,
     -38.33140365
    ]
   },
   "properties": {
    "name": "82 WILSONS ROAD PORTLAND 3305",
    "locID": "LOC000074138485",
    "tech": "WIRELESS",
    "upgrade": "NULL_NA",
    "gnaf_pid": "GAVIC412112287"
   }
  },
  {
   "type": "Feature",
   "geometry": {
    "type": "Point",
    "coordinates": [
     141.59307367,
     -38.32742045
    ]
   },
   "properties": {
    "name": "UNIT 4, 85 LEARMONTH STREET PORTLAND 3305",
    "locID": "ChIJJbUlFm6XnaoR2PcGkUX156A",
    "tech": "FTTN",
    "upgrade": "UNKNOWN",
    "gnaf_pid": "GAVIC412112301"
   }
  },
  {
   "type": "Feature",
   "geometry": {
    "type": "Point",
    "coordinates": [
     141.57556403,
     -38.33656571
    ]
   },
   "properties": {
    "name": "19 BURNS ROAD PORTLAND 3305",
    "locID": "LOC000039885922",
    "tech": "FTTN",
    "upgrade": "NULL_NA",
    "gnaf_pid": "GAVIC412112324"
   }
  },
  {
   "type": "Feature",
   "geometry": {
    "type": "Point",
    "coordinates": [
     141.61560655,
     -38.35603929
    ]
   },
   "properties": {
    "name": "8 KINGSLEY COURT PORTLAND 3305",
    "locID": "LOC000075290565",
    "tech": "FTTN",
    "upgrade": "NULL_NA",
    "gnaf_pid": "GAVIC412112342"
   }
  },
  {
   "type": "Feature",
   "geometry": {
    "type": "Point",
    "coordinates": [
     141.61953385,
     -38.35973494
    ]
   },
   "properties": {
    "name": "34 ROSSDELL COURT PORTLAND 3305",
    "locID": "LOC000051066341",
    "tech": "FTTN",
    "upgrade": "NULL_NA",
    "gnaf_pid": "GAVIC412112349"
   }
  },
  {
   "type": "Feature",
   "geometry": {
    "type": "Point",
    "coordinates": [
     141.60508674,
     -38.34865906
    ]
   },
   "properties": {
    "name": "17A JULIA STREET PORTLAND 3305",
    "locID": "LOC000061780858",
    "tech": "FTTN",
    "upgrade": "NULL_NA",
    "gnaf_pid": "GAVIC412112357"
   }
  },
  {
   "type": "Feature",
   "geometry": {
    "type": "Point",
    "coordinates": [
     141.5999751,
     -38.34808373
    ]
   },
   "properties": {
    "name": "86 JULIA STREET PORTLAND 3305",
    "locID": "LOC000094954238",
    "tech": "FTTN",
    "upgrade": "NULL_NA",
    "gnaf_pid": "GAVIC412112359"
   }
  },
  {
   "type": "Feature",
   "geometry": {
    "type": "Point",
    "coordinates": [
     141.60399149,
     -38.34460548
    ]
   },
   "properties": {
    "name": "116 PERCY STREET PORTLAND 3305",
    "locID": "LOC000113048120",
    "tech": "FTTN",
    "upgrade": "NULL_NA",
    "gnaf_pid": "GAVIC412112363"
   }
  },
  {
   "type": "Feature",
   "geometry": {
    "type": "Point",
    "coordinates": [
     141.60468282,
     -38.35073794
    ]
   },
   "properties": {
    "name": "13 GAWLER STREET PORTLAND 3305",
    "locID": "LOC000004492927",
    "tech": "FTTN",
    "upgrade": "NULL_NA",
    "gnaf_pid": "GAVIC412112382"
   }
  },
  {
   "type": "Feature",
   "geometry": {
    "type": "Point",
    "coordinates": [
     141.61344623,
     -38.36205894
    ]
   },
   "properties": {
    "name": "62 WELLINGTON ROAD PORTLAND 3305",
    "locID": "LOC000113238192",
    "tech": "FTTN",
    "upgrade": "NULL_NA",
    "gnaf_pid": "GAVIC412113942"
   }
  },
  {
   "type": "Feature",
   "geometry": {
    "type": "Point",
    "coordinates": [
     141.6040122,
     -38.34587958
    ]
   },
   "properties": {
    "name": "UNIT 1, 90A PERCY STREET PORTLAND 3305",
    "locID": "ChIJtxbyBjKYnaoRnS4iDIzmoCQ",
    "tech": "FTTN",
    "upgrade": "UNKNOWN",
    "gnaf_pid": "GAVIC412113943"
   }
  },
  {
   "type": "Feature",
   "geometry": {
    "type": "Point",
    "coordinates": [
     141.6040122,
     -38.34587958
    ]
   },
   "properties": {
    "name": "90A PERCY STREET PORTLAND 3305",
    "locID": "ChIJtxbyBjKYnaoRnS4iDIzmoCQ",
    "tech": "FTTN",
    "upgrade": "UNKNOWN",
    "gnaf_pid": "GAVIC412113956"
   }
  },
  {
   "type": "Feature",
   "geometry": {
    "type": "Point",
    "coordinates": [
     141.60238145,
     -38.34301444
    ]
   },
   "properties": {
    "name": "14 JULIANI PLACE PORTLAND 3305",
    "locID": "LOC000030937405",
    "tech": "FTTN",
    "upgrade": "NULL_NA",
    "gnaf_pid": "GAVIC412113961"
   }
  },
  {
   "type": "Feature",
   "geometry": {
    "type": "Point",
    "coordinates": [
     141.60592941,
     -38.35021231
    ]
   },
   "properties": {
    "name": "51A BENTINCK STREET PORTLAND 3305",
    "locID": "LOC000028926296",
    "tech": "FTTN",
    "upgrade": "NULL_NA",
    "gnaf_pid": "GAVIC412113963"
   }
  },
  {
   "type": "Feature",
   "geometry": {
    "type": "Point",
    "coordinates": [
     141.6141464,
     -38.36259949
    ]
   },
   "properties": {
    "name": "UNIT 10, 5 CASINO COURT PORTLAND 3305",
    "locID": "LOC000077631462",
    "tech": "FTTN",
    "upgrade": "NULL_NA",
    "gnaf_pid": "GAVIC412116024"
   }
  },
  {
   "type": "Feature",
   "geometry": {
    "type": "Point",
    "coordinates": [
     141.61483604,
     -38.35902779
    ]
   },
   "properties": {
    "name": "UNIT 10, 8 BARKLY STREET PORTLAND 3305",
    "locID": "LOC000021011479",
    "tech": "FTTN",
    "upgrade": "NULL_NA",
    "gnaf_pid": "GAVIC412116027"
   }
  },
  {
   "type": "Feature",
   "geometry": {
    "type": "Point",
    "coordinates": [
     141.60628606,
     -38.34409279
    ]
   },
   "properties": {
    "name": "2 TYERS STREET PORTLAND 3305",
    "locID": "LOC000083331115",
    "tech": "FTTN",
    "upgrade": "NULL_NA",
    "gnaf_pid": "GAVIC412119911"
   }
  },
  {
   "type": "Feature",
   "geometry": {
    "type": "Point",
    "coordinates": [
     141.5916161,
     -38.35577175
    ]
   },
   "properties": {
    "name": "28 TRANGMAR STREET PORTLAND 3305",
    "locID": "ChIJ0QRW0BeYnaoR9KlRohUqNNQ",
    "tech": "FTTN",
    "upgrade": "UNKNOWN",
    "gnaf_pid": "GAVIC412119935"
   }
  },
  {
   "type": "Feature",
   "geometry": {
    "type": "Point",
    "coordinates": [
     141.61916152,
     -38.37025016
    ]
   },
   "properties": {
    "name": "19 DERRIL ROAD PORTLAND 3305",
    "locID": "LOC000078955178",
    "tech": "FTTN",
    "upgrade": "NULL_NA",
    "gnaf_pid": "GAVIC412120664"
   }
  },
  {
   "type": "Feature",
   "geometry": {
    "type": "Point",
    "coordinates": [
     141.58659485,
     -38.3727626
    ]
   },
   "properties": {
    "name": "275 CAPE NELSON ROAD PORTLAND 3305",
    "locID": "LOC000029376224",
    "tech": "WIRELESS",
    "upgrade": "NULL_NA",
    "gnaf_pid": "GAVIC412120665"
   }
  },
  {
   "type": "Feature",
   "geometry": {
    "type": "Point",
    "coordinates": [
     141.622538,
     -38.36949935
    ]
   },
   "properties": {
    "name": "160A BARKLY STREET PORTLAND 3305",
    "locID": "ChIJW2qGqIuYnaoR_LV1_cp0d8c",
    "tech": "FTTN",
    "upgrade": "UNKNOWN",
    "gnaf_pid": "GAVIC412120667"
   }
  },
  {
   "type": "Feature",
   "geometry": {
    "type": "Point",
    "coordinates": [
     141.60612303,
     -38.33090261
    ]
   },
   "properties": {
    "name": "UNIT 1, 4 DUTTON STREET PORTLAND 3305",
    "locID": "LOC000038907429",
    "tech": "FTTN",
    "upgrade": "NULL_NA",
    "gnaf_pid": "GAVIC412123318"
   }
  },
  {
   "type": "Feature",
   "geometry": {
    "type": "Point",
    "coordinates": [
     141.5922087,
     -38.33732836
    ]
   },
   "properties": {
    "name": "51 BROWNING STREET PORTLAND 3305",
    "locID": "LOC000048848221",
    "tech": "FTTN",
    "upgrade": "NULL_NA",
    "gnaf_pid": "GAVIC412123395"
   }
  },
  {
   "type": "Feature",
   "geometry": {
    "type": "Point",
    "coordinates": [
     141.59722553,
     -38.34020114
    ]
   },
   "properties": {
    "name": "18A RUNDELL AVENUE PORTLAND 3305",
    "locID": "LOC000081003530",
    "tech": "FTTN",
    "upgrade": "NULL_NA",
    "gnaf_pid": "GAVIC412123398"
   }
  },
  {
   "type": "Feature",
   "geometry": {
    "type": "Point",
    "coordinates": [
     141.60355215,
     -38.33815994
    ]
   },
   "properties": {
    "name": "23 TOWNSEND STREET PORTLAND 3305",
    "locID": "ChIJUeHOStSZnaoRmUuDkPoZnTM",
    "tech": "FTTN",
    "upgrade": "UNKNOWN",
    "gnaf_pid": "GAVIC412123410"
   }
  },
  {
   "type": "Feature",
   "geometry": {
    "type": "Point",
    "coordinates": [
     141.59738161,
     -38.33864843
    ]
   },
   "properties": {
    "name": "UNIT 9, 6 HODGE COURT PORTLAND 3305",
    "locID": "LOC000011059024",
    "tech": "FTTN",
    "upgrade": "NULL_NA",
    "gnaf_pid": "GAVIC412123432"
   }
  },
  {
   "type": "Feature",
   "geometry": {
    "type": "Point",
    "coordinates": [
     141.60613668,
     -38.3458914
    ]
   },
   "properties": {
    "name": "117 BENTINCK STREET PORTLAND 3305",
    "locID": "LOC000114571131",
    "tech": "FTTN",
    "upgrade": "NULL_NA",
    "gnaf_pid": "GAVIC412123443"
   }
  },
  {
   "type": "Feature",
   "geometry": {
    "type": "Point",
    "coordinates": [
     141.61743759,
     -38.36097825
    ]
   },
   "properties": {
    "name": "UNIT 1, 49 BARKLY STREET PORTLAND 3305",
    "locID": "LOC000013526631",
    "tech": "FTTN",
    "upgrade": "NULL_NA",
    "gnaf_pid": "GAVIC412123463"
   }
  },
  {
   "type": "Feature",
   "geometry": {
    "type": "Point",
    "coordinates": [
     141.61961705,
     -38.35985763
    ]
   },
   "properties": {
    "name": "36 ROSSDELL COURT PORTLAND 3305",
    "locID": "LOC000032711988",
    "tech": "FTTN",
    "upgrade": "NULL_NA",
    "gnaf_pid": "GAVIC412123465"
   }
  },
  {
   "type": "Feature",
   "geometry": {
    "type": "Point",
    "coordinates": [
     141.6049193,
     -38.35858085
    ]
   },
   "properties": {
    "name": "UNIT 4, 18 CAPE NELSON ROAD PORTLAND 3305",
    "locID": "LOC000103965837",
    "tech": "FTTN",
    "upgrade": "NULL_NA",
    "gnaf_pid": "GAVIC412123494"
   }
  },
  {
   "type": "Feature",
   "geometry": {
    "type": "Point",
    "coordinates": [
     141.6178728,
     -38.36079933
    ]
   },
   "properties": {
    "name": "UNIT 4, 49 BARKLY STREET PORTLAND 3305",
    "locID": "LOC000013561750",
    "tech": "FTTN",
    "upgrade": "NULL_NA",
    "gnaf_pid": "GAVIC412123520"
   }
  },
  {
   "type": "Feature",
   "geometry": {
    "type": "Point",
    "coordinates": [
     141.59187363,
     -38.34125243
    ]
   },
   "properties": {
    "name": "5 FROST COURT PORTLAND 3305",
    "locID": "ChIJQdyFyYCXnaoR8QqDa4vbAoE",
    "tech": "FTTN",
    "upgrade": "UNKNOWN",
    "gnaf_pid": "GAVIC412123524"
   }
  },
  {
   "type": "Feature",
   "geometry": {
    "type": "Point",
    "coordinates": [
     141.61499835,
     -38.36244958
    ]
   },
   "properties": {
    "name": "UNIT 5, 1 CASINO COURT PORTLAND 3305",
    "locID": "LOC000061770960",
    "tech": "FTTN",
    "upgrade": "NULL_NA",
    "gnaf_pid": "GAVIC412123734"
   }
  },
  {
   "type": "Feature",
   "geometry": {
    "type": "Point",
    "coordinates": [
     141.60867761,
     -38.35295596
    ]
   },
   "properties": {
    "name": "1 GLENELG STREET PORTLAND 3305",
    "locID": "LOC000041293532",
    "tech": "FTTN",
    "upgrade": "NULL_NA",
    "gnaf_pid": "GAVIC412123737"
   }
  },
  {
   "type": "Feature",
   "geometry": {
    "type": "Point",
    "coordinates": [
     141.6050227,
     -38.34265805
    ]
   },
   "properties": {
    "name": "8 MARKET COURT PORTLAND 3305",
    "locID": "LOC000001953108",
    "tech": "FTTN",
    "upgrade": "NULL_NA",
    "gnaf_pid": "GAVIC412123739"
   }
  },
  {
   "type": "Feature",
   "geometry": {
    "type": "Point",
    "coordinates": [
     141.598043,
     -38.344699
    ]
   },
   "properties": {
    "name": "67A BLAIR STREET PORTLAND 3305",
    "locID": "LOC000027063130",
    "tech": "FTTN",
    "upgrade": "NULL_NA",
    "gnaf_pid": "GAVIC412123744"
   }
  },
  {
   "type": "Feature",
   "geometry": {
    "type": "Point",
    "coordinates": [
     141.59596753,
     -38.34151292
    ]
   },
   "properties": {
    "name": "4 MITCHELL CRESCENT PORTLAND 3305",
    "locID": "LOC000079730589",
    "tech": "FTTN",
    "upgrade": "NULL_NA",
    "gnaf_pid": "GAVIC412124231"
   }
  },
  {
   "type": "Feature",
   "geometry": {
    "type": "Point",
    "coordinates": [
     141.60216309,
     -38.34396975
    ]
   },
   "properties": {
    "name": "UNIT 2, 36 TYERS STREET PORTLAND 3305",
    "locID": "LOC000061141985",
    "tech": "FTTN",
    "upgrade": "NULL_NA",
    "gnaf_pid": "GAVIC412124289"
   }
  },
  {
   "type": "Feature",
   "geometry": {
    "type": "Point",
    "coordinates": [
     141.614578,
     -38.35856063
    ]
   },
   "properties": {
    "name": "UNIT 18, 8 BARKLY STREET PORTLAND 3305",
    "locID": "LOC000021134094",
    "tech": "FTTN",
    "upgrade": "NULL_NA",
    "gnaf_pid": "GAVIC412124360"
   }
  },
  {
   "type": "Feature",
   "geometry": {
    "type": "Point",
    "coordinates": [
     141.61949825,
     -38.36137138
    ]
   },
   "properties": {
    "name": "36 PETER STREET PORTLAND 3305",
    "locID": "LOC000012787012",
    "tech": "FTTN",
    "upgrade": "NULL_NA",
    "gnaf_pid": "GAVIC412124377"
   }
  },
  {
   "type": "Feature",
   "geometry": {
    "type": "Point",
    "coordinates": [
     141.6150377,
     -38.3563567
    ]
   },
   "properties": {
    "name": "6 KINGSLEY COURT PORTLAND 3305",
    "locID": "LOC000062236650",
    "tech": "FTTN",
    "upgrade": "NULL_NA",
    "gnaf_pid": "GAVIC412124383"
   }
  },
  {
   "type": "Feature",
   "geometry": {
    "type": "Point",
    "coordinates": [
     141.59885295,
     -38.34293933
    ]
   },
   "properties": {
    "name": "UNIT 3, 86 BLAIR STREET PORTLAND 3305",
    "locID": "LOC000010274842",
    "tech": "FTTN",
    "upgrade": "NULL_NA",
    "gnaf_pid": "GAVIC412124399"
   }
  },
  {
   "type": "Feature",
   "geometry": {
    "type": "Point",
    "coordinates": [
     141.61305523,
     -38.3573152
    ]
   },
   "properties": {
    "name": "UNIT 3, 18 WELLINGTON ROAD PORTLAND 3305",
    "locID": "LOC000006149077",
    "tech": "FTTN",
    "upgrade": "NULL_NA",
    "gnaf_pid": "GAVIC412124402"
   }
  },
  {
   "type": "Feature",
   "geometry": {
    "type": "Point",
    "coordinates": [
     141.61613814,
     -38.36070556
    ]
   },
   "properties": {
    "name": "UNIT 5, 65 FINDLAY STREET PORTLAND 3305",
    "locID": "LOC000066458787",
    "tech": "FTTN",
    "upgrade": "NULL_NA",
    "gnaf_pid": "GAVIC412124472"
   }
  },
  {
   "type": "Feature",
   "geometry": {
    "type": "Point",
    "coordinates": [
     141.61613814,
     -38.36070556
    ]
   },
   "properties": {
    "name": "UNIT 4, 65 FINDLAY STREET PORTLAND 3305",
    "locID": "LOC000066147829",
    "tech": "FTTN",
    "upgrade": "NULL_NA",
    "gnaf_pid": "GAVIC412124475"
   }
  },
  {
   "type": "Feature",
   "geometry": {
    "type": "Point",
    "coordinates": [
     141.61290823,
     -38.36558095
    ]
   },
   "properties": {
    "name": "UNIT 7, 14 CHURCH STREET PORTLAND 3305",
    "locID": "LOC000024649608",
    "tech": "FTTN",
    "upgrade": "NULL_NA",
    "gnaf_pid": "GAVIC412124509"
   }
  },
  {
   "type": "Feature",
   "geometry": {
    "type": "Point",
    "coordinates": [
     141.58939405,
     -38.34467984
    ]
   },
   "properties": {
    "name": "171 WYATT STREET PORTLAND 3305",
    "locID": "LOC000026231528",
    "tech": "FTTN",
    "upgrade": "NULL_NA",
    "gnaf_pid": "GAVIC412124515"
   }
  },
  {
   "type": "Feature",
   "geometry": {
    "type": "Point",
    "coordinates": [
     141.60393781,
     -38.34750345
    ]
   },
   "properties": {
    "name": "UNIT 2, 56 PERCY STREET PORTLAND 3305",
    "locID": "LOC000060911747",
    "tech": "FTTN",
    "upgrade": "NULL_NA",
    "gnaf_pid": "GAVIC412124516"
   }
  },
  {
   "type": "Feature",
   "geometry": {
    "type": "Point",
    "coordinates": [
     141.6173788,
     -38.36720605
    ]
   },
   "properties": {
    "name": "21 ARTHUR STREET PORTLAND 3305",
    "locID": "LOC000019981503",
    "tech": "FTTN",
    "upgrade": "NULL_NA",
    "gnaf_pid": "GAVIC412124591"
   }
  },
  {
   "type": "Feature",
   "geometry": {
    "type": "Point",
    "coordinates": [
     141.58899731,
     -38.34600099
    ]
   },
   "properties": {
    "name": "38 AVONMORE AVENUE PORTLAND 3305",
    "locID": "LOC000013849780",
    "tech": "FTTN",
    "upgrade": "NULL_NA",
    "gnaf_pid": "GAVIC412124603"
   }
  },
  {
   "type": "Feature",
   "geometry": {
    "type": "Point",
    "coordinates": [
     141.59899355,
     -38.3631961
    ]
   },
   "properties": {
    "name": "UNIT 5, 252 EDGAR STREET PORTLAND 3305",
    "locID": "LOC000103925360",
    "tech": "FTTN",
    "upgrade": "NULL_NA",
    "gnaf_pid": "GAVIC412124620"
   }
  },
  {
   "type": "Feature",
   "geometry": {
    "type": "Point",
    "coordinates": [
     141.61251338,
     -38.36543913
    ]
   },
   "properties": {
    "name": "UNIT 4, 14 CHURCH STREET PORTLAND 3305",
    "locID": "LOC000024325188",
    "tech": "FTTN",
    "upgrade": "NULL_NA",
    "gnaf_pid": "GAVIC412124625"
   }
  },
  {
   "type": "Feature",
   "geometry": {
    "type": "Point",
    "coordinates": [
     141.6141621,
     -38.36050715
    ]
   },
   "properties": {
    "name": "14 PATTERSONS LANE PORTLAND 3305",
    "locID": "LOC000011034562",
    "tech": "FTTN",
    "upgrade": "NULL_NA",
    "gnaf_pid": "GAVIC412124672"
   }
  },
  {
   "type": "Feature",
   "geometry": {
    "type": "Point",
    "coordinates": [
     141.61482971,
     -38.36087408
    ]
   },
   "properties": {
    "name": "74A FINDLAY STREET PORTLAND 3305",
    "locID": "LOC000011895749",
    "tech": "FTTN",
    "upgrade": "NULL_NA",
    "gnaf_pid": "GAVIC412124678"
   }
  },
  {
   "type": "Feature",
   "geometry": {
    "type": "Point",
    "coordinates": [
     141.602942,
     -38.348184
    ]
   },
   "properties": {
    "name": "58 JULIA STREET PORTLAND 3305",
    "locID": "LOC000095264658",
    "tech": "FTTN",
    "upgrade": "NULL_NA",
    "gnaf_pid": "GAVIC412124686"
   }
  },
  {
   "type": "Feature",
   "geometry": {
    "type": "Point",
    "coordinates": [
     141.60619495,
     -38.34471013
    ]
   },
   "properties": {
    "name": "UNIT 2, 123 BENTINCK STREET PORTLAND 3305",
    "locID": "LOC000091677151",
    "tech": "FTTN",
    "upgrade": "NULL_NA",
    "gnaf_pid": "GAVIC412124690"
   }
  },
  {
   "type": "Feature",
   "geometry": {
    "type": "Point",
    "coordinates": [
     141.60396183,
     -38.34701536
    ]
   },
   "properties": {
    "name": "68E PERCY STREET PORTLAND 3305",
    "locID": "LOC000049190062",
    "tech": "FTTN",
    "upgrade": "NULL_NA",
    "gnaf_pid": "GAVIC412124691"
   }
  },
  {
   "type": "Feature",
   "geometry": {
    "type": "Point",
    "coordinates": [
     141.61758561,
     -38.36091643
    ]
   },
   "properties": {
    "name": "UNIT 2, 49 BARKLY STREET PORTLAND 3305",
    "locID": "LOC000013872028",
    "tech": "FTTN",
    "upgrade": "NULL_NA",
    "gnaf_pid": "GAVIC412124692"
   }
  },
  {
   "type": "Feature",
   "geometry": {
    "type": "Point",
    "coordinates": [
     141.5992051,
     -38.34178615
    ]
   },
   "properties": {
    "name": "42 OTWAY STREET PORTLAND 3305",
    "locID": "LOC000025340987",
    "tech": "FTTN",
    "upgrade": "NULL_NA",
    "gnaf_pid": "GAVIC412124996"
   }
  },
  {
   "type": "Feature",
   "geometry": {
    "type": "Point",
    "coordinates": [
     141.60185443,
     -38.32711574
    ]
   },
   "properties": {
    "name": "321 HANLON PARADE PORTLAND 3305",
    "locID": "LOC000113138453",
    "tech": "FTTN",
    "upgrade": "NULL_NA",
    "gnaf_pid": "GAVIC412125061"
   }
  },
  {
   "type": "Feature",
   "geometry": {
    "type": "Point",
    "coordinates": [
     141.58281136,
     -38.34053719
    ]
   },
   "properties": {
    "name": "22 BRIDGEWATER ROAD PORTLAND 3305",
    "locID": "LOC000045175033",
    "tech": "FTTN",
    "upgrade": "NULL_NA",
    "gnaf_pid": "GAVIC412125158"
   }
  },
  {
   "type": "Feature",
   "geometry": {
    "type": "Point",
    "coordinates": [
     141.58024641,
     -38.34093752
    ]
   },
   "properties": {
    "name": "41 BRIDGEWATER ROAD PORTLAND 3305",
    "locID": "LOC000041351534",
    "tech": "WIRELESS",
    "upgrade": "NULL_NA",
    "gnaf_pid": "GAVIC412125160"
   }
  },
  {
   "type": "Feature",
   "geometry": {
    "type": "Point",
    "coordinates": [
     141.60612238,
     -38.33076526
    ]
   },
   "properties": {
    "name": "UNIT 3, 4 DUTTON STREET PORTLAND 3305",
    "locID": "LOC000038762559",
    "tech": "FTTN",
    "upgrade": "NULL_NA",
    "gnaf_pid": "GAVIC412125162"
   }
  },
  {
   "type": "Feature",
   "geometry": {
    "type": "Point",
    "coordinates": [
     141.59192365,
     -38.33509186
    ]
   },
   "properties": {
    "name": "UNIT 3, 81 BROWNING STREET PORTLAND 3305",
    "locID": "LOC000027672162",
    "tech": "FTTN",
    "upgrade": "NULL_NA",
    "gnaf_pid": "GAVIC412125164"
   }
  },
  {
   "type": "Feature",
   "geometry": {
    "type": "Point",
    "coordinates": [
     141.60396183,
     -38.34701536
    ]
   },
   "properties": {
    "name": "68B PERCY STREET PORTLAND 3305",
    "locID": "LOC000048879775",
    "tech": "FTTN",
    "upgrade": "NULL_NA",
    "gnaf_pid": "GAVIC412125208"
   }
  },
  {
   "type": "Feature",
   "geometry": {
    "type": "Point",
    "coordinates": [
     141.60393781,
     -38.34750345
    ]
   },
   "properties": {
    "name": "UNIT 1, 56 PERCY STREET PORTLAND 3305",
    "locID": "LOC000060506788",
    "tech": "FTTN",
    "upgrade": "NULL_NA",
    "gnaf_pid": "GAVIC412125209"
   }
  },
  {
   "type": "Feature",
   "geometry": {
    "type": "Point",
    "coordinates": [
     141.6059834,
     -38.34911638
    ]
   },
   "properties": {
    "name": "77A BENTINCK STREET PORTLAND 3305",
    "locID": "LOC000008087697",
    "tech": "FTTN",
    "upgrade": "NULL_NA",
    "gnaf_pid": "GAVIC412125247"
   }
  },
  {
   "type": "Feature",
   "geometry": {
    "type": "Point",
    "coordinates": [
     141.61305523,
     -38.3573152
    ]
   },
   "properties": {
    "name": "UNIT 2, 18 WELLINGTON ROAD PORTLAND 3305",
    "locID": "LOC000146747008",
    "tech": "FTTN",
    "upgrade": "NULL_NA",
    "gnaf_pid": "GAVIC412125257"
   }
  },
  {
   "type": "Feature",
   "geometry": {
    "type": "Point",
    "coordinates": [
     141.6179881,
     -38.36123833
    ]
   },
   "properties": {
    "name": "UNIT 9, 53 BARKLY STREET PORTLAND 3305",
    "locID": "LOC000020559506",
    "tech": "FTTN",
    "upgrade": "NULL_NA",
    "gnaf_pid": "GAVIC412125386"
   }
  },
  {
   "type": "Feature",
   "geometry": {
    "type": "Point",
    "coordinates": [
     141.61986354,
     -38.36022108
    ]
   },
   "properties": {
    "name": "42 ROSSDELL COURT PORTLAND 3305",
    "locID": "LOC000092219235",
    "tech": "FTTN",
    "upgrade": "NULL_NA",
    "gnaf_pid": "GAVIC412125387"
   }
  },
  {
   "type": "Feature",
   "geometry": {
    "type": "Point",
    "coordinates": [
     141.61937961,
     -38.36117634
    ]
   },
   "properties": {
    "name": "UNIT 3, 36 PETER STREET PORTLAND 3305",
    "locID": "LOC000012819855",
    "tech": "FTTN",
    "upgrade": "NULL_NA",
    "gnaf_pid": "GAVIC412125388"
   }
  },
  {
   "type": "Feature",
   "geometry": {
    "type": "Point",
    "coordinates": [
     141.6184575,
     -38.3610655
    ]
   },
   "properties": {
    "name": "UNIT 12, 53 BARKLY STREET PORTLAND 3305",
    "locID": "LOC000020163414",
    "tech": "FTTN",
    "upgrade": "NULL_NA",
    "gnaf_pid": "GAVIC412125389"
   }
  },
  {
   "type": "Feature",
   "geometry": {
    "type": "Point",
    "coordinates": [
     141.60598995,
     -38.3489145
    ]
   },
   "properties": {
    "name": "85 BENTINCK STREET PORTLAND 3305",
    "locID": "LOC000069451246",
    "tech": "FTTN",
    "upgrade": "NULL_NA",
    "gnaf_pid": "GAVIC412125596"
   }
  },
  {
   "type": "Feature",
   "geometry": {
    "type": "Point",
    "coordinates": [
     141.60381371,
     -38.33923629
    ]
   },
   "properties": {
    "name": "165 PERCY STREET PORTLAND 3305",
    "locID": "LOC000102009215",
    "tech": "FTTN",
    "upgrade": "NULL_NA",
    "gnaf_pid": "GAVIC412125846"
   }
  },
  {
   "type": "Feature",
   "geometry": {
    "type": "Point",
    "coordinates": [
     141.60647696,
     -38.33137491
    ]
   },
   "properties": {
    "name": "257 HANLON PARADE PORTLAND 3305",
    "locID": "ChIJS5za_mKXnaoRbGt9PQMqdi8",
    "tech": "FTTN",
    "upgrade": "UNKNOWN",
    "gnaf_pid": "GAVIC412125856"
   }
  },
  {
   "type": "Feature",
   "geometry": {
    "type": "Point",
    "coordinates": [
     141.59944015,
     -38.33976365
    ]
   },
   "properties": {
    "name": "UNIT 1, 116 BLAIR STREET PORTLAND 3305",
    "locID": "LOC000026852473",
    "tech": "FTTN",
    "upgrade": "NULL_NA",
    "gnaf_pid": "GAVIC412125871"
   }
  },
  {
   "type": "Feature",
   "geometry": {
    "type": "Point",
    "coordinates": [
     141.59593103,
     -38.34128475
    ]
   },
   "properties": {
    "name": "6 MITCHELL CRESCENT PORTLAND 3305",
    "locID": "LOC000008966017",
    "tech": "FTTN",
    "upgrade": "NULL_NA",
    "gnaf_pid": "GAVIC412125885"
   }
  },
  {
   "type": "Feature",
   "geometry": {
    "type": "Point",
    "coordinates": [
     141.59172405,
     -38.33504948
    ]
   },
   "properties": {
    "name": "UNIT 4, 81 BROWNING STREET PORTLAND 3305",
    "locID": "LOC000027650846",
    "tech": "FTTN",
    "upgrade": "NULL_NA",
    "gnaf_pid": "GAVIC412125909"
   }
  },
  {
   "type": "Feature",
   "geometry": {
    "type": "Point",
    "coordinates": [
     141.60469465,
     -38.34870227
    ]
   },
   "properties": {
    "name": "27 JULIA STREET PORTLAND 3305",
    "locID": "LOC000113254173",
    "tech": "FTTN",
    "upgrade": "NULL_NA",
    "gnaf_pid": "GAVIC412126085"
   }
  },
  {
   "type": "Feature",
   "geometry": {
    "type": "Point",
    "coordinates": [
     141.59377573,
     -38.3376789
    ]
   },
   "properties": {
    "name": "UNIT 1, 43 FRANCIS STREET PORTLAND 3305",
    "locID": "LOC000069693453",
    "tech": "FTTN",
    "upgrade": "NULL_NA",
    "gnaf_pid": "GAVIC412126109"
   }
  },
  {
   "type": "Feature",
   "geometry": {
    "type": "Point",
    "coordinates": [
     141.59377573,
     -38.3376789
    ]
   },
   "properties": {
    "name": "UNIT 2, 1 PILE COURT PORTLAND 3305",
    "locID": "LOC000068051205",
    "tech": "FTTN",
    "upgrade": "NULL_NA",
    "gnaf_pid": "GAVIC412126110"
   }
  },
  {
   "type": "Feature",
   "geometry": {
    "type": "Point",
    "coordinates": [
     141.59835071,
     -38.33217469
    ]
   },
   "properties": {
    "name": "91A GARDEN STREET PORTLAND 3305",
    "locID": "LOC000008307426",
    "tech": "FTTN",
    "upgrade": "NULL_NA",
    "gnaf_pid": "GAVIC412126115"
   }
  },
  {
   "type": "Feature",
   "geometry": {
    "type": "Point",
    "coordinates": [
     141.60550795,
     -38.33035831
    ]
   },
   "properties": {
    "name": "10A GRANT STREET PORTLAND 3305",
    "locID": "ChIJO9Z3mGOXnaoRptvBgGcFeiI",
    "tech": "FTTN",
    "upgrade": "UNKNOWN",
    "gnaf_pid": "GAVIC412126132"
   }
  },
  {
   "type": "Feature",
   "geometry": {
    "type": "Point",
    "coordinates": [
     141.571511,
     -38.335153
    ]
   },
   "properties": {
    "name": "52 BURNS ROAD PORTLAND 3305",
    "locID": "LOC000067089794",
    "tech": "WIRELESS",
    "upgrade": "NULL_NA",
    "gnaf_pid": "GAVIC412126812"
   }
  },
  {
   "type": "Feature",
   "geometry": {
    "type": "Point",
    "coordinates": [
     141.57250923,
     -38.34079634
    ]
   },
   "properties": {
    "name": "119 BRIDGEWATER ROAD PORTLAND 3305",
    "locID": "ChIJabgb_ZCXnaoRIQD21YWKsYg",
    "tech": "FTTN",
    "upgrade": "UNKNOWN",
    "gnaf_pid": "GAVIC412126828"
   }
  },
  {
   "type": "Feature",
   "geometry": {
    "type": "Point",
    "coordinates": [
     141.59944015,
     -38.33976365
    ]
   },
   "properties": {
    "name": "UNIT 3, 118 BLAIR STREET PORTLAND 3305",
    "locID": "LOC000050590011",
    "tech": "FTTN",
    "upgrade": "NULL_NA",
    "gnaf_pid": "GAVIC412126833"
   }
  },
  {
   "type": "Feature",
   "geometry": {
    "type": "Point",
    "coordinates": [
     141.57515249,
     -38.3382408
    ]
   },
   "properties": {
    "name": "22 BURVILLES ROAD PORTLAND 3305",
    "locID": "LOC000062300082",
    "tech": "FTTN",
    "upgrade": "NULL_NA",
    "gnaf_pid": "GAVIC412126844"
   }
  },
  {
   "type": "Feature",
   "geometry": {
    "type": "Point",
    "coordinates": [
     141.6044999,
     -38.35959696
    ]
   },
   "properties": {
    "name": "UNIT 6, 98 MUST STREET PORTLAND 3305",
    "locID": "LOC000026042330",
    "tech": "FTTN",
    "upgrade": "NULL_NA",
    "gnaf_pid": "GAVIC412126981"
   }
  },
  {
   "type": "Feature",
   "geometry": {
    "type": "Point",
    "coordinates": [
     141.62002779,
     -38.36046345
    ]
   },
   "properties": {
    "name": "46 ROSSDELL COURT PORTLAND 3305",
    "locID": "LOC000019525212",
    "tech": "FTTN",
    "upgrade": "NULL_NA",
    "gnaf_pid": "GAVIC412127044"
   }
  },
  {
   "type": "Feature",
   "geometry": {
    "type": "Point",
    "coordinates": [
     141.61769402,
     -38.36135199
    ]
   },
   "properties": {
    "name": "UNIT 7, 53 BARKLY STREET PORTLAND 3305",
    "locID": "LOC000020578048",
    "tech": "FTTN",
    "upgrade": "NULL_NA",
    "gnaf_pid": "GAVIC412127045"
   }
  },
  {
   "type": "Feature",
   "geometry": {
    "type": "Point",
    "coordinates": [
     141.61547994,
     -38.35813388
    ]
   },
   "properties": {
    "name": "11A BARKLY STREET PORTLAND 3305",
    "locID": "LOC000050661053",
    "tech": "FTTN",
    "upgrade": "NULL_NA",
    "gnaf_pid": "GAVIC412127048"
   }
  },
  {
   "type": "Feature",
   "geometry": {
    "type": "Point",
    "coordinates": [
     141.61969388,
     -38.36125975
    ]
   },
   "properties": {
    "name": "UNIT 2, 34 PETER STREET PORTLAND 3305",
    "locID": "LOC000092975776",
    "tech": "FTTN",
    "upgrade": "NULL_NA",
    "gnaf_pid": "GAVIC412127052"
   }
  },
  {
   "type": "Feature",
   "geometry": {
    "type": "Point",
    "coordinates": [
     141.60396183,
     -38.34701536
    ]
   },
   "properties": {
    "name": "68C PERCY STREET PORTLAND 3305",
    "locID": "LOC000048869564",
    "tech": "FTTN",
    "upgrade": "NULL_NA",
    "gnaf_pid": "GAVIC412127066"
   }
  },
  {
   "type": "Feature",
   "geometry": {
    "type": "Point",
    "coordinates": [
     141.59587865,
     -38.36296505
    ]
   },
   "properties": {
    "name": "278 EDGAR STREET PORTLAND 3305",
    "locID": "LOC000038598499",
    "tech": "FTTN",
    "upgrade": "NULL_NA",
    "gnaf_pid": "GAVIC412127165"
   }
  },
  {
   "type": "Feature",
   "geometry": {
    "type": "Point",
    "coordinates": [
     141.59307367,
     -38.32742045
    ]
   },
   "properties": {
    "name": "UNIT 2, 85 LEARMONTH STREET PORTLAND 3305",
    "locID": "ChIJJbUlFm6XnaoR2PcGkUX156A",
    "tech": "FTTN",
    "upgrade": "UNKNOWN",
    "gnaf_pid": "GAVIC412127695"
   }
  },
  {
   "type": "Feature",
   "geometry": {
    "type": "Point",
    "coordinates": [
     141.59596753,
     -38.34151292
    ]
   },
   "properties": {
    "name": "4A MITCHELL CRESCENT PORTLAND 3305",
    "locID": "LOC000079553707",
    "tech": "FTTN",
    "upgrade": "NULL_NA",
    "gnaf_pid": "GAVIC412127702"
   }
  },
  {
   "type": "Feature",
   "geometry": {
    "type": "Point",
    "coordinates": [
     141.59307367,
     -38.32742045
    ]
   },
   "properties": {
    "name": "UNIT 1, 85 LEARMONTH STREET PORTLAND 3305",
    "locID": "ChIJJbUlFm6XnaoR2PcGkUX156A",
    "tech": "FTTN",
    "upgrade": "UNKNOWN",
    "gnaf_pid": "GAVIC412127705"
   }
  },
  {
   "type": "Feature",
   "geometry": {
    "type": "Point",
    "coordinates": [
     141.59160693,
     -38.3350685
    ]
   },
   "properties": {
    "name": "UNIT 5, 81 BROWNING STREET PORTLAND 3305",
    "locID": "LOC000028015176",
    "tech": "FTTN",
    "upgrade": "NULL_NA",
    "gnaf_pid": "GAVIC412127707"
   }
  },
  {
   "type": "Feature",
   "geometry": {
    "type": "Point",
    "coordinates": [
     141.60565828,
     -38.33989879
    ]
   },
   "properties": {
    "name": "10 FERN STREET PORTLAND 3305",
    "locID": "LOC000113138430",
    "tech": "FTTN",
    "upgrade": "NULL_NA",
    "gnaf_pid": "GAVIC412127816"
   }
  },
  {
   "type": "Feature",
   "geometry": {
    "type": "Point",
    "coordinates": [
     141.6040122,
     -38.34587958
    ]
   },
   "properties": {
    "name": "92 PERCY STREET PORTLAND 3305",
    "locID": "LOC000016059611",
    "tech": "FTTN",
    "upgrade": "NULL_NA",
    "gnaf_pid": "GAVIC412127926"
   }
  },
  {
   "type": "Feature",
   "geometry": {
    "type": "Point",
    "coordinates": [
     141.60519013,
     -38.34785155
    ]
   },
   "properties": {
    "name": "UNIT 1, 8 RICHMOND STREET PORTLAND 3305",
    "locID": "LOC000062595598",
    "tech": "FTTN",
    "upgrade": "NULL_NA",
    "gnaf_pid": "GAVIC412127932"
   }
  },
  {
   "type": "Feature",
   "geometry": {
    "type": "Point",
    "coordinates": [
     141.60632471,
     -38.36192695
    ]
   },
   "properties": {
    "name": "72 SHORT STREET PORTLAND 3305",
    "locID": "LOC000060313702",
    "tech": "FTTN",
    "upgrade": "NULL_NA",
    "gnaf_pid": "GAVIC412127935"
   }
  },
  {
   "type": "Feature",
   "geometry": {
    "type": "Point",
    "coordinates": [
     141.6044999,
     -38.35959696
    ]
   },
   "properties": {
    "name": "UNIT 5, 98 MUST STREET PORTLAND 3305",
    "locID": "LOC000026130578",
    "tech": "FTTN",
    "upgrade": "NULL_NA",
    "gnaf_pid": "GAVIC412127936"
   }
  },
  {
   "type": "Feature",
   "geometry": {
    "type": "Point",
    "coordinates": [
     141.6044999,
     -38.35959696
    ]
   },
   "properties": {
    "name": "UNIT 4, 98 MUST STREET PORTLAND 3305",
    "locID": "LOC000026084108",
    "tech": "FTTN",
    "upgrade": "NULL_NA",
    "gnaf_pid": "GAVIC412127942"
   }
  },
  {
   "type": "Feature",
   "geometry": {
    "type": "Point",
    "coordinates": [
     141.61228259,
     -38.36233695
    ]
   },
   "properties": {
    "name": "UNIT 12, 10 SHORT STREET PORTLAND 3305",
    "locID": "LOC000093707237",
    "tech": "FTTN",
    "upgrade": "NULL_NA",
    "gnaf_pid": "GAVIC412127944"
   }
  },
  {
   "type": "Feature",
   "geometry": {
    "type": "Point",
    "coordinates": [
     141.61280169,
     -38.36569566
    ]
   },
   "properties": {
    "name": "UNIT 8, 14 CHURCH STREET PORTLAND 3305",
    "locID": "LOC000024340977",
    "tech": "FTTN",
    "upgrade": "NULL_NA",
    "gnaf_pid": "GAVIC412127955"
   }
  },
  {
   "type": "Feature",
   "geometry": {
    "type": "Point",
    "coordinates": [
     141.61291394,
     -38.36545878
    ]
   },
   "properties": {
    "name": "UNIT 6, 14 CHURCH STREET PORTLAND 3305",
    "locID": "LOC000024292121",
    "tech": "FTTN",
    "upgrade": "NULL_NA",
    "gnaf_pid": "GAVIC412127958"
   }
  },
  {
   "type": "Feature",
   "geometry": {
    "type": "Point",
    "coordinates": [
     141.60642109,
     -38.34542867
    ]
   },
   "properties": {
    "name": "79A BENTINCK STREET PORTLAND 3305",
    "locID": "ChIJNV8YZjKYnaoRl7DjgmKHakg",
    "tech": "FTTN",
    "upgrade": "UNKNOWN",
    "gnaf_pid": "GAVIC412127979"
   }
  },
  {
   "type": "Feature",
   "geometry": {
    "type": "Point",
    "coordinates": [
     141.60558117,
     -38.34867422
    ]
   },
   "properties": {
    "name": "5A JULIA STREET PORTLAND 3305",
    "locID": "LOC000100903102",
    "tech": "FTTN",
    "upgrade": "NULL_NA",
    "gnaf_pid": "GAVIC412127983"
   }
  },
  {
   "type": "Feature",
   "geometry": {
    "type": "Point",
    "coordinates": [
     141.59040153,
     -38.36402553
    ]
   },
   "properties": {
    "name": "13 BANKSIA COURT PORTLAND 3305",
    "locID": "LOC000046368547",
    "tech": "FTTN",
    "upgrade": "NULL_NA",
    "gnaf_pid": "GAVIC412128038"
   }
  },
  {
   "type": "Feature",
   "geometry": {
    "type": "Point",
    "coordinates": [
     141.59966209,
     -38.34221202
    ]
   },
   "properties": {
    "name": "UNIT 2, 37 OTWAY STREET PORTLAND 3305",
    "locID": "LOC000026035574",
    "tech": "FTTN",
    "upgrade": "NULL_NA",
    "gnaf_pid": "GAVIC412128045"
   }
  },
  {
   "type": "Feature",
   "geometry": {
    "type": "Point",
    "coordinates": [
     141.61828739,
     -38.36113836
    ]
   },
   "properties": {
    "name": "UNIT 11, 53 BARKLY STREET PORTLAND 3305",
    "locID": "LOC000020092891",
    "tech": "FTTN",
    "upgrade": "NULL_NA",
    "gnaf_pid": "GAVIC412128066"
   }
  },
  {
   "type": "Feature",
   "geometry": {
    "type": "Point",
    "coordinates": [
     141.6044999,
     -38.35959696
    ]
   },
   "properties": {
    "name": "UNIT 2, 98 MUST STREET PORTLAND 3305",
    "locID": "LOC000025888350",
    "tech": "FTTN",
    "upgrade": "NULL_NA",
    "gnaf_pid": "GAVIC412128081"
   }
  },
  {
   "type": "Feature",
   "geometry": {
    "type": "Point",
    "coordinates": [
     141.61670495,
     -38.36678604
    ]
   },
   "properties": {
    "name": "12 ARTHUR STREET PORTLAND 3305",
    "locID": "LOC000059762876",
    "tech": "FTTN",
    "upgrade": "NULL_NA",
    "gnaf_pid": "GAVIC412128083"
   }
  },
  {
   "type": "Feature",
   "geometry": {
    "type": "Point",
    "coordinates": [
     141.61305523,
     -38.3573152
    ]
   },
   "properties": {
    "name": "UNIT 4, 18 WELLINGTON ROAD PORTLAND 3305",
    "locID": "LOC000146747008",
    "tech": "FTTN",
    "upgrade": "NULL_NA",
    "gnaf_pid": "GAVIC412128310"
   }
  },
  {
   "type": "Feature",
   "geometry": {
    "type": "Point",
    "coordinates": [
     141.61305523,
     -38.3573152
    ]
   },
   "properties": {
    "name": "18 WELLINGTON ROAD PORTLAND 3305",
    "locID": "LOC000146747008",
    "tech": "FTTN",
    "upgrade": "NULL_NA",
    "gnaf_pid": "GAVIC412128312"
   }
  },
  {
   "type": "Feature",
   "geometry": {
    "type": "Point",
    "coordinates": [
     141.6037024,
     -38.32893681
    ]
   },
   "properties": {
    "name": "UNIT 2, 297 HANLON PARADE PORTLAND 3305",
    "locID": "LOC000019462882",
    "tech": "FTTN",
    "upgrade": "NULL_NA",
    "gnaf_pid": "GAVIC412128648"
   }
  },
  {
   "type": "Feature",
   "geometry": {
    "type": "Point",
    "coordinates": [
     141.6055196,
     -38.35000608
    ]
   },
   "properties": {
    "name": "UNIT 2, 2 GORE PLACE PORTLAND 3305",
    "locID": "LOC000062174243",
    "tech": "FTTN",
    "upgrade": "NULL_NA",
    "gnaf_pid": "GAVIC412128842"
   }
  },
  {
   "type": "Feature",
   "geometry": {
    "type": "Point",
    "coordinates": [
     141.6020877,
     -38.34396742
    ]
   },
   "properties": {
    "name": "UNIT 1, 36 TYERS STREET PORTLAND 3305",
    "locID": "LOC000060951295",
    "tech": "FTTN",
    "upgrade": "NULL_NA",
    "gnaf_pid": "GAVIC412128846"
   }
  },
  {
   "type": "Feature",
   "geometry": {
    "type": "Point",
    "coordinates": [
     141.59138365,
     -38.36491283
    ]
   },
   "properties": {
    "name": "6 MYUNA COURT PORTLAND 3305",
    "locID": "LOC000054099316",
    "tech": "FTTN",
    "upgrade": "NULL_NA",
    "gnaf_pid": "GAVIC412128848"
   }
  },
  {
   "type": "Feature",
   "geometry": {
    "type": "Point",
    "coordinates": [
     141.61229898,
     -38.36539101
    ]
   },
   "properties": {
    "name": "UNIT 3, 14 CHURCH STREET PORTLAND 3305",
    "locID": "LOC000024333207",
    "tech": "FTTN",
    "upgrade": "NULL_NA",
    "gnaf_pid": "GAVIC412128868"
   }
  },
  {
   "type": "Feature",
   "geometry": {
    "type": "Point",
    "coordinates": [
     141.6044999,
     -38.35959696
    ]
   },
   "properties": {
    "name": "UNIT 1, 98 MUST STREET PORTLAND 3305",
    "locID": "LOC000026142796",
    "tech": "FTTN",
    "upgrade": "NULL_NA",
    "gnaf_pid": "GAVIC412128905"
   }
  },
  {
   "type": "Feature",
   "geometry": {
    "type": "Point",
    "coordinates": [
     141.61817318,
     -38.36067745
    ]
   },
   "properties": {
    "name": "UNIT 6, 49 BARKLY STREET PORTLAND 3305",
    "locID": "LOC000013851809",
    "tech": "FTTN",
    "upgrade": "NULL_NA",
    "gnaf_pid": "GAVIC412128909"
   }
  },
  {
   "type": "Feature",
   "geometry": {
    "type": "Point",
    "coordinates": [
     141.60533135,
     -38.34991333
    ]
   },
   "properties": {
    "name": "59A BENTINCK STREET PORTLAND 3305",
    "locID": "ChIJuTnoyDCYnaoRdpSCupiX91I",
    "tech": "FTTN",
    "upgrade": "UNKNOWN",
    "gnaf_pid": "GAVIC412128910"
   }
  },
  {
   "type": "Feature",
   "geometry": {
    "type": "Point",
    "coordinates": [
     141.60190106,
     -38.35019552
    ]
   },
   "properties": {
    "name": "44 GAWLER STREET PORTLAND 3305",
    "locID": "LOC000035267482",
    "tech": "FTTN",
    "upgrade": "NULL_NA",
    "gnaf_pid": "GAVIC412128911"
   }
  },
  {
   "type": "Feature",
   "geometry": {
    "type": "Point",
    "coordinates": [
     141.60647526,
     -38.36227743
    ]
   },
   "properties": {
    "name": "73 SHORT STREET PORTLAND 3305",
    "locID": "ChIJnaOZsWmYnaoR-kGUPigUpNs",
    "tech": "FTTN",
    "upgrade": "UNKNOWN",
    "gnaf_pid": "GAVIC412128922"
   }
  },
  {
   "type": "Feature",
   "geometry": {
    "type": "Point",
    "coordinates": [
     141.61613814,
     -38.36070556
    ]
   },
   "properties": {
    "name": "UNIT 2, 65 FINDLAY STREET PORTLAND 3305",
    "locID": "LOC000066214167",
    "tech": "FTTN",
    "upgrade": "NULL_NA",
    "gnaf_pid": "GAVIC412128943"
   }
  },
  {
   "type": "Feature",
   "geometry": {
    "type": "Point",
    "coordinates": [
     141.61994568,
     -38.36034228
    ]
   },
   "properties": {
    "name": "44 ROSSDELL COURT PORTLAND 3305",
    "locID": "LOC000096217739",
    "tech": "FTTN",
    "upgrade": "NULL_NA",
    "gnaf_pid": "GAVIC412128947"
   }
  },
  {
   "type": "Feature",
   "geometry": {
    "type": "Point",
    "coordinates": [
     141.6039877,
     -38.34649244
    ]
   },
   "properties": {
    "name": "82A PERCY STREET PORTLAND 3305",
    "locID": "LOC000075392833",
    "tech": "FTTN",
    "upgrade": "NULL_NA",
    "gnaf_pid": "GAVIC412128954"
   }
  },
  {
   "type": "Feature",
   "geometry": {
    "type": "Point",
    "coordinates": [
     141.60397865,
     -38.34667333
    ]
   },
   "properties": {
    "name": "78B PERCY STREET PORTLAND 3305",
    "locID": "LOC000006208074",
    "tech": "FTTN",
    "upgrade": "NULL_NA",
    "gnaf_pid": "GAVIC412128957"
   }
  },
  {
   "type": "Feature",
   "geometry": {
    "type": "Point",
    "coordinates": [
     141.58844605,
     -38.3467742
    ]
   },
   "properties": {
    "name": "30 AVONMORE AVENUE PORTLAND 3305",
    "locID": "LOC000041401001",
    "tech": "FTTN",
    "upgrade": "NULL_NA",
    "gnaf_pid": "GAVIC412128963"
   }
  },
  {
   "type": "Feature",
   "geometry": {
    "type": "Point",
    "coordinates": [
     141.60326148,
     -38.36068434
    ]
   },
   "properties": {
    "name": "UNIT 1, 4 CURRAGH COURT PORTLAND 3305",
    "locID": "LOC000104722076",
    "tech": "FTTN",
    "upgrade": "NULL_NA",
    "gnaf_pid": "GAVIC412128971"
   }
  },
  {
   "type": "Feature",
   "geometry": {
    "type": "Point",
    "coordinates": [
     141.61782129,
     -38.36788664
    ]
   },
   "properties": {
    "name": "29 ARTHUR STREET PORTLAND 3305",
    "locID": "LOC000021933497",
    "tech": "FTTN",
    "upgrade": "NULL_NA",
    "gnaf_pid": "GAVIC412128994"
   }
  },
  {
   "type": "Feature",
   "geometry": {
    "type": "Point",
    "coordinates": [
     141.59395315,
     -38.36893155
    ]
   },
   "properties": {
    "name": "187 CAPE NELSON ROAD PORTLAND 3305",
    "locID": "LOC000044277913",
    "tech": "WIRELESS",
    "upgrade": "NULL_NA",
    "gnaf_pid": "GAVIC412129075"
   }
  },
  {
   "type": "Feature",
   "geometry": {
    "type": "Point",
    "coordinates": [
     141.57565541,
     -38.34000633
    ]
   },
   "properties": {
    "name": "76 BRIDGEWATER ROAD PORTLAND 3305",
    "locID": "LOC000053041460",
    "tech": "FTTN",
    "upgrade": "NULL_NA",
    "gnaf_pid": "GAVIC412129547"
   }
  },
  {
   "type": "Feature",
   "geometry": {
    "type": "Point",
    "coordinates": [
     141.57981651,
     -38.33800948
    ]
   },
   "properties": {
    "name": "11 PARKERS ROAD PORTLAND 3305",
    "locID": "LOC000080085726",
    "tech": "FTTN",
    "upgrade": "NULL_NA",
    "gnaf_pid": "GAVIC412129563"
   }
  },
  {
   "type": "Feature",
   "geometry": {
    "type": "Point",
    "coordinates": [
     141.58211659,
     -38.34374792
    ]
   },
   "properties": {
    "name": "24 LALOR STREET PORTLAND 3305",
    "locID": "ChIJHYfozoiXnaoR86rZT7DChu8",
    "tech": "FTTN",
    "upgrade": "UNKNOWN",
    "gnaf_pid": "GAVIC412129660"
   }
  },
  {
   "type": "Feature",
   "geometry": {
    "type": "Point",
    "coordinates": [
     141.61978144,
     -38.36009998
    ]
   },
   "properties": {
    "name": "40 ROSSDELL COURT PORTLAND 3305",
    "locID": "LOC000022775136",
    "tech": "FTTN",
    "upgrade": "NULL_NA",
    "gnaf_pid": "GAVIC412129707"
   }
  },
  {
   "type": "Feature",
   "geometry": {
    "type": "Point",
    "coordinates": [
     141.60260894,
     -38.36306048
    ]
   },
   "properties": {
    "name": "80 CAPE NELSON ROAD PORTLAND 3305",
    "locID": "LOC000105974699",
    "tech": "FTTN",
    "upgrade": "NULL_NA",
    "gnaf_pid": "GAVIC412129737"
   }
  },
  {
   "type": "Feature",
   "geometry": {
    "type": "Point",
    "coordinates": [
     141.59874075,
     -38.36309763
    ]
   },
   "properties": {
    "name": "UNIT 1, 252 EDGAR STREET PORTLAND 3305",
    "locID": "LOC000102183180",
    "tech": "FTTN",
    "upgrade": "NULL_NA",
    "gnaf_pid": "GAVIC412129738"
   }
  },
  {
   "type": "Feature",
   "geometry": {
    "type": "Point",
    "coordinates": [
     141.61613814,
     -38.36070556
    ]
   },
   "properties": {
    "name": "UNIT 3, 65 FINDLAY STREET PORTLAND 3305",
    "locID": "LOC000066062121",
    "tech": "FTTN",
    "upgrade": "NULL_NA",
    "gnaf_pid": "GAVIC412129770"
   }
  },
  {
   "type": "Feature",
   "geometry": {
    "type": "Point",
    "coordinates": [
     141.61709446,
     -38.36323554
    ]
   },
   "properties": {
    "name": "17 WANDO COURT PORTLAND 3305",
    "locID": "LOC000034682278",
    "tech": "FTTN",
    "upgrade": "NULL_NA",
    "gnaf_pid": "GAVIC412129788"
   }
  },
  {
   "type": "Feature",
   "geometry": {
    "type": "Point",
    "coordinates": [
     141.61269908,
     -38.36540105
    ]
   },
   "properties": {
    "name": "UNIT 5, 14 CHURCH STREET PORTLAND 3305",
    "locID": "LOC000024416728",
    "tech": "FTTN",
    "upgrade": "NULL_NA",
    "gnaf_pid": "GAVIC412129806"
   }
  },
  {
   "type": "Feature",
   "geometry": {
    "type": "Point",
    "coordinates": [
     141.59884149,
     -38.36318045
    ]
   },
   "properties": {
    "name": "UNIT 3, 252 EDGAR STREET PORTLAND 3305",
    "locID": "LOC000102196737",
    "tech": "FTTN",
    "upgrade": "NULL_NA",
    "gnaf_pid": "GAVIC412129814"
   }
  },
  {
   "type": "Feature",
   "geometry": {
    "type": "Point",
    "coordinates": [
     141.61937961,
     -38.36117634
    ]
   },
   "properties": {
    "name": "UNIT 2, 36 PETER STREET PORTLAND 3305",
    "locID": "LOC000012774820",
    "tech": "FTTN",
    "upgrade": "NULL_NA",
    "gnaf_pid": "GAVIC412129824"
   }
  },
  {
   "type": "Feature",
   "geometry": {
    "type": "Point",
    "coordinates": [
     141.58399981,
     -38.34294021
    ]
   },
   "properties": {
    "name": "223 WYATT STREET PORTLAND 3305",
    "locID": "LOC000038428298",
    "tech": "FTTN",
    "upgrade": "NULL_NA",
    "gnaf_pid": "GAVIC412130170"
   }
  },
  {
   "type": "Feature",
   "geometry": {
    "type": "Point",
    "coordinates": [
     141.59763599,
     -38.33853008
    ]
   },
   "properties": {
    "name": "UNIT 7, 6 HODGE COURT PORTLAND 3305",
    "locID": "LOC000011113700",
    "tech": "FTTN",
    "upgrade": "NULL_NA",
    "gnaf_pid": "GAVIC412130364"
   }
  },
  {
   "type": "Feature",
   "geometry": {
    "type": "Point",
    "coordinates": [
     141.59757381,
     -38.33892746
    ]
   },
   "properties": {
    "name": "UNIT 3, 6 HODGE COURT PORTLAND 3305",
    "locID": "LOC000011059696",
    "tech": "FTTN",
    "upgrade": "NULL_NA",
    "gnaf_pid": "GAVIC412130369"
   }
  },
  {
   "type": "Feature",
   "geometry": {
    "type": "Point",
    "coordinates": [
     141.593921,
     -38.341516
    ]
   },
   "properties": {
    "name": "94A OTWAY STREET PORTLAND 3305",
    "locID": "LOC000002861436",
    "tech": "FTTN",
    "upgrade": "NULL_NA",
    "gnaf_pid": "GAVIC412130408"
   }
  },
  {
   "type": "Feature",
   "geometry": {
    "type": "Point",
    "coordinates": [
     141.57536755,
     -38.34003365
    ]
   },
   "properties": {
    "name": "78 BRIDGEWATER ROAD PORTLAND 3305",
    "locID": "LOC000103881333",
    "tech": "FTTN",
    "upgrade": "NULL_NA",
    "gnaf_pid": "GAVIC412130446"
   }
  },
  {
   "type": "Feature",
   "geometry": {
    "type": "Point",
    "coordinates": [
     141.60798354,
     -38.35994534
    ]
   },
   "properties": {
    "name": "UNIT 1, 64 MUST STREET PORTLAND 3305",
    "locID": "LOC000094689106",
    "tech": "FTTN",
    "upgrade": "NULL_NA",
    "gnaf_pid": "GAVIC412130650"
   }
  },
  {
   "type": "Feature",
   "geometry": {
    "type": "Point",
    "coordinates": [
     141.60271306,
     -38.34818629
    ]
   },
   "properties": {
    "name": "UNIT 4, 60 JULIA STREET PORTLAND 3305",
    "locID": "LOC000015589220",
    "tech": "FTTN",
    "upgrade": "NULL_NA",
    "gnaf_pid": "GAVIC412130688"
   }
  },
  {
   "type": "Feature",
   "geometry": {
    "type": "Point",
    "coordinates": [
     141.60449275,
     -38.35073293
    ]
   },
   "properties": {
    "name": "17 GAWLER STREET PORTLAND 3305",
    "locID": "LOC000070975600",
    "tech": "FTTN",
    "upgrade": "NULL_NA",
    "gnaf_pid": "GAVIC412130697"
   }
  },
  {
   "type": "Feature",
   "geometry": {
    "type": "Point",
    "coordinates": [
     141.60408419,
     -38.34442139
    ]
   },
   "properties": {
    "name": "UNIT 4, 120 PERCY STREET PORTLAND 3305",
    "locID": "LOC000074429739",
    "tech": "FTTN",
    "upgrade": "NULL_NA",
    "gnaf_pid": "GAVIC412130698"
   }
  },
  {
   "type": "Feature",
   "geometry": {
    "type": "Point",
    "coordinates": [
     141.60494075,
     -38.34865459
    ]
   },
   "properties": {
    "name": "21A JULIA STREET PORTLAND 3305",
    "locID": "ChIJJRXEHDGYnaoRUVPOrOT6ALw",
    "tech": "FTTN",
    "upgrade": "UNKNOWN",
    "gnaf_pid": "GAVIC412130700"
   }
  },
  {
   "type": "Feature",
   "geometry": {
    "type": "Point",
    "coordinates": [
     141.60299295,
     -38.36202262
    ]
   },
   "properties": {
    "name": "23 DONEGAL COURT PORTLAND 3305",
    "locID": "LOC000078888269",
    "tech": "FTTN",
    "upgrade": "NULL_NA",
    "gnaf_pid": "GAVIC412130829"
   }
  },
  {
   "type": "Feature",
   "geometry": {
    "type": "Point",
    "coordinates": [
     141.59278348,
     -38.32996861
    ]
   },
   "properties": {
    "name": "156 BROWNING STREET PORTLAND 3305",
    "locID": "LOC000114469957",
    "tech": "FTTN",
    "upgrade": "NULL_NA",
    "gnaf_pid": "GAVIC412131305"
   }
  },
  {
   "type": "Feature",
   "geometry": {
    "type": "Point",
    "coordinates": [
     141.57391179,
     -38.33650644
    ]
   },
   "properties": {
    "name": "25 BURNS ROAD PORTLAND 3305",
    "locID": "LOC000113047921",
    "tech": "FTTN",
    "upgrade": "NULL_NA",
    "gnaf_pid": "GAVIC412131457"
   }
  },
  {
   "type": "Feature",
   "geometry": {
    "type": "Point",
    "coordinates": [
     141.57841588,
     -38.34015911
    ]
   },
   "properties": {
    "name": "42 BRIDGEWATER ROAD PORTLAND 3305",
    "locID": "LOC000004423342",
    "tech": "FTTN",
    "upgrade": "NULL_NA",
    "gnaf_pid": "GAVIC412131462"
   }
  },
  {
   "type": "Feature",
   "geometry": {
    "type": "Point",
    "coordinates": [
     141.59723242,
     -38.33893002
    ]
   },
   "properties": {
    "name": "UNIT 1, 6 HODGE COURT PORTLAND 3305",
    "locID": "LOC000011074452",
    "tech": "FTTN",
    "upgrade": "NULL_NA",
    "gnaf_pid": "GAVIC412131465"
   }
  },
  {
   "type": "Feature",
   "geometry": {
    "type": "Point",
    "coordinates": [
     141.59380503,
     -38.3381935
    ]
   },
   "properties": {
    "name": "UNIT 3, 1 PILE COURT PORTLAND 3305",
    "locID": "LOC000067216952",
    "tech": "FTTN",
    "upgrade": "NULL_NA",
    "gnaf_pid": "GAVIC412131468"
   }
  },
  {
   "type": "Feature",
   "geometry": {
    "type": "Point",
    "coordinates": [
     141.59944015,
     -38.33976365
    ]
   },
   "properties": {
    "name": "UNIT 2, 116 BLAIR STREET PORTLAND 3305",
    "locID": "LOC000027052270",
    "tech": "FTTN",
    "upgrade": "NULL_NA",
    "gnaf_pid": "GAVIC412131470"
   }
  },
  {
   "type": "Feature",
   "geometry": {
    "type": "Point",
    "coordinates": [
     141.6171142,
     -38.36134723
    ]
   },
   "properties": {
    "name": "50 BARKLY STREET PORTLAND 3305",
    "locID": "LOC000086670990",
    "tech": "FTTN",
    "upgrade": "NULL_NA",
    "gnaf_pid": "GAVIC412131680"
   }
  },
  {
   "type": "Feature",
   "geometry": {
    "type": "Point",
    "coordinates": [
     141.61467191,
     -38.35850985
    ]
   },
   "properties": {
    "name": "UNIT 4, 8 BARKLY STREET PORTLAND 3305",
    "locID": "LOC000021039614",
    "tech": "FTTN",
    "upgrade": "NULL_NA",
    "gnaf_pid": "GAVIC412131689"
   }
  },
  {
   "type": "Feature",
   "geometry": {
    "type": "Point",
    "coordinates": [
     141.60237529,
     -38.34314261
    ]
   },
   "properties": {
    "name": "15 JULIANI PLACE PORTLAND 3305",
    "locID": "LOC000025247227",
    "tech": "FTTN",
    "upgrade": "NULL_NA",
    "gnaf_pid": "GAVIC412131698"
   }
  },
  {
   "type": "Feature",
   "geometry": {
    "type": "Point",
    "coordinates": [
     141.57236,
     -38.34086798
    ]
   },
   "properties": {
    "name": "123 BRIDGEWATER ROAD PORTLAND 3305",
    "locID": "ChIJ2w2fApGXnaoRudgW4m6IoGc",
    "tech": "FTTN",
    "upgrade": "UNKNOWN",
    "gnaf_pid": "GAVIC412131975"
   }
  },
  {
   "type": "Feature",
   "geometry": {
    "type": "Point",
    "coordinates": [
     141.59944015,
     -38.33976365
    ]
   },
   "properties": {
    "name": "UNIT 4, 116 BLAIR STREET PORTLAND 3305",
    "locID": "LOC000026823557",
    "tech": "FTTN",
    "upgrade": "NULL_NA",
    "gnaf_pid": "GAVIC412132001"
   }
  },
  {
   "type": "Feature",
   "geometry": {
    "type": "Point",
    "coordinates": [
     141.6008718,
     -38.3338985
    ]
   },
   "properties": {
    "name": "57 WADE STREET PORTLAND 3305",
    "locID": "LOC000112889808",
    "tech": "FTTN",
    "upgrade": "NULL_NA",
    "gnaf_pid": "GAVIC412132028"
   }
  },
  {
   "type": "Feature",
   "geometry": {
    "type": "Point",
    "coordinates": [
     141.6196404,
     -38.36897058
    ]
   },
   "properties": {
    "name": "21 TAMORA CRESCENT PORTLAND 3305",
    "locID": "LOC000082749606",
    "tech": "FTTN",
    "upgrade": "NULL_NA",
    "gnaf_pid": "GAVIC412132301"
   }
  },
  {
   "type": "Feature",
   "geometry": {
    "type": "Point",
    "coordinates": [
     141.61957786,
     -38.36110065
    ]
   },
   "properties": {
    "name": "UNIT 3, 34 PETER STREET PORTLAND 3305",
    "locID": "LOC000092975776",
    "tech": "FTTN",
    "upgrade": "NULL_NA",
    "gnaf_pid": "GAVIC412132591"
   }
  },
  {
   "type": "Feature",
   "geometry": {
    "type": "Point",
    "coordinates": [
     141.60396183,
     -38.34701536
    ]
   },
   "properties": {
    "name": "68D PERCY STREET PORTLAND 3305",
    "locID": "LOC000049178709",
    "tech": "FTTN",
    "upgrade": "NULL_NA",
    "gnaf_pid": "GAVIC412132599"
   }
  },
  {
   "type": "Feature",
   "geometry": {
    "type": "Point",
    "coordinates": [
     141.61054628,
     -38.35812825
    ]
   },
   "properties": {
    "name": "18 KUNARA CRESCENT PORTLAND 3305",
    "locID": "LOC000083256960",
    "tech": "FTTP",
    "upgrade": "NULL_NA",
    "gnaf_pid": "GAVIC412132633"
   }
  },
  {
   "type": "Feature",
   "geometry": {
    "type": "Point",
    "coordinates": [
     141.59359203,
     -38.36083826
    ]
   },
   "properties": {
    "name": "109 FAWTHROP STREET PORTLAND 3305",
    "locID": "ChIJJXzLZBOYnaoRmDowEB2PJdI",
    "tech": "FTTN",
    "upgrade": "UNKNOWN",
    "gnaf_pid": "GAVIC412132649"
   }
  },
  {
   "type": "Feature",
   "geometry": {
    "type": "Point",
    "coordinates": [
     141.59391511,
     -38.33577129
    ]
   },
   "properties": {
    "name": "105 KENNEDY STREET PORTLAND 3305",
    "locID": "LOC000163206300",
    "tech": "FTTN",
    "upgrade": "NULL_NA",
    "gnaf_pid": "GAVIC412133184"
   }
  },
  {
   "type": "Feature",
   "geometry": {
    "type": "Point",
    "coordinates": [
     141.60174625,
     -38.33812393
    ]
   },
   "properties": {
    "name": "UNIT 1, 132 HURD STREET PORTLAND 3305",
    "locID": "LOC000013691854",
    "tech": "FTTN",
    "upgrade": "NULL_NA",
    "gnaf_pid": "GAVIC412133239"
   }
  },
  {
   "type": "Feature",
   "geometry": {
    "type": "Point",
    "coordinates": [
     141.5976197,
     -38.33860085
    ]
   },
   "properties": {
    "name": "UNIT 6, 6 HODGE COURT PORTLAND 3305",
    "locID": "LOC000011059696",
    "tech": "FTTN",
    "upgrade": "NULL_NA",
    "gnaf_pid": "GAVIC412133240"
   }
  },
  {
   "type": "Feature",
   "geometry": {
    "type": "Point",
    "coordinates": [
     141.6141464,
     -38.36259949
    ]
   },
   "properties": {
    "name": "UNIT 11, 5 CASINO COURT PORTLAND 3305",
    "locID": "LOC000075364370",
    "tech": "FTTN",
    "upgrade": "NULL_NA",
    "gnaf_pid": "GAVIC412133482"
   }
  },
  {
   "type": "Feature",
   "geometry": {
    "type": "Point",
    "coordinates": [
     141.61515313,
     -38.36534381
    ]
   },
   "properties": {
    "name": "104 KING STREET PORTLAND 3305",
    "locID": "LOC000163673361",
    "tech": "FTTN",
    "upgrade": "NULL_NA",
    "gnaf_pid": "GAVIC412133487"
   }
  },
  {
   "type": "Feature",
   "geometry": {
    "type": "Point",
    "coordinates": [
     141.60436751,
     -38.34445286
    ]
   },
   "properties": {
    "name": "119 PERCY STREET PORTLAND 3305",
    "locID": "LOC000124640014",
    "tech": "FTTN",
    "upgrade": "NULL_NA",
    "gnaf_pid": "GAVIC412133557"
   }
  },
  {
   "type": "Feature",
   "geometry": {
    "type": "Point",
    "coordinates": [
     141.59678165,
     -38.33183806
    ]
   },
   "properties": {
    "name": "106 GARDEN STREET PORTLAND 3305",
    "locID": "LOC000114726118",
    "tech": "FTTN",
    "upgrade": "NULL_NA",
    "gnaf_pid": "GAVIC412133892"
   }
  },
  {
   "type": "Feature",
   "geometry": {
    "type": "Point",
    "coordinates": [
     141.60394338,
     -38.34738467
    ]
   },
   "properties": {
    "name": "60 PERCY STREET PORTLAND 3305",
    "locID": "LOC000163909940",
    "tech": "FTTN",
    "upgrade": "NULL_NA",
    "gnaf_pid": "GAVIC412134031"
   }
  },
  {
   "type": "Feature",
   "geometry": {
    "type": "Point",
    "coordinates": [
     141.61305523,
     -38.3573152
    ]
   },
   "properties": {
    "name": "UNIT 8, 18 WELLINGTON ROAD PORTLAND 3305",
    "locID": "LOC000006194820",
    "tech": "FTTN",
    "upgrade": "NULL_NA",
    "gnaf_pid": "GAVIC412134048"
   }
  },
  {
   "type": "Feature",
   "geometry": {
    "type": "Point",
    "coordinates": [
     141.5955746,
     -38.34189377
    ]
   },
   "properties": {
    "name": "155 OTWAY STREET PORTLAND 3305",
    "locID": "ChIJXc-bPyqYnaoR5W_Bmp1nW-Q",
    "tech": "FTTN",
    "upgrade": "UNKNOWN",
    "gnaf_pid": "GAVIC412134054"
   }
  },
  {
   "type": "Feature",
   "geometry": {
    "type": "Point",
    "coordinates": [
     141.57642836,
     -38.33826221
    ]
   },
   "properties": {
    "name": "16 BURVILLES ROAD PORTLAND 3305",
    "locID": "LOC000098208824",
    "tech": "FTTN",
    "upgrade": "NULL_NA",
    "gnaf_pid": "GAVIC412134055"
   }
  },
  {
   "type": "Feature",
   "geometry": {
    "type": "Point",
    "coordinates": [
     141.59944015,
     -38.33976365
    ]
   },
   "properties": {
    "name": "UNIT 6, 118 BLAIR STREET PORTLAND 3305",
    "locID": "LOC000050776828",
    "tech": "FTTN",
    "upgrade": "NULL_NA",
    "gnaf_pid": "GAVIC412134070"
   }
  },
  {
   "type": "Feature",
   "geometry": {
    "type": "Point",
    "coordinates": [
     141.60642109,
     -38.34542867
    ]
   },
   "properties": {
    "name": "155 BENTINCK STREET PORTLAND 3305",
    "locID": "ChIJNV8YZjKYnaoRFnOdyfA8VMw",
    "tech": "FTTN",
    "upgrade": "UNKNOWN",
    "gnaf_pid": "GAVIC412134084"
   }
  },
  {
   "type": "Feature",
   "geometry": {
    "type": "Point",
    "coordinates": [
     141.59307367,
     -38.32742045
    ]
   },
   "properties": {
    "name": "UNIT 3, 85 LEARMONTH STREET PORTLAND 3305",
    "locID": "ChIJJbUlFm6XnaoR2PcGkUX156A",
    "tech": "FTTN",
    "upgrade": "UNKNOWN",
    "gnaf_pid": "GAVIC412134094"
   }
  },
  {
   "type": "Feature",
   "geometry": {
    "type": "Point",
    "coordinates": [
     141.60519013,
     -38.34785155
    ]
   },
   "properties": {
    "name": "UNIT 2, 8 RICHMOND STREET PORTLAND 3305",
    "locID": "LOC000062370372",
    "tech": "FTTN",
    "upgrade": "NULL_NA",
    "gnaf_pid": "GAVIC412134199"
   }
  },
  {
   "type": "Feature",
   "geometry": {
    "type": "Point",
    "coordinates": [
     141.60326211,
     -38.3602506
    ]
   },
   "properties": {
    "name": "UNIT 1, 1 CURRAGH COURT PORTLAND 3305",
    "locID": "LOC000104722076",
    "tech": "FTTN",
    "upgrade": "NULL_NA",
    "gnaf_pid": "GAVIC412134204"
   }
  },
  {
   "type": "Feature",
   "geometry": {
    "type": "Point",
    "coordinates": [
     141.60541089,
     -38.36131458
    ]
   },
   "properties": {
    "name": "49 CAPE NELSON ROAD PORTLAND 3305",
    "locID": "LOC000114884215",
    "tech": "FTTN",
    "upgrade": "NULL_NA",
    "gnaf_pid": "GAVIC412134239"
   }
  },
  {
   "type": "Feature",
   "geometry": {
    "type": "Point",
    "coordinates": [
     141.59062035,
     -38.36370341
    ]
   },
   "properties": {
    "name": "18 BANKSIA COURT PORTLAND 3305",
    "locID": "LOC000088912663",
    "tech": "FTTN",
    "upgrade": "NULL_NA",
    "gnaf_pid": "GAVIC412134407"
   }
  },
  {
   "type": "Feature",
   "geometry": {
    "type": "Point",
    "coordinates": [
     141.60423104,
     -38.3611815
    ]
   },
   "properties": {
    "name": "10 CONNEMARA COURT PORTLAND 3305",
    "locID": "LOC000007620902",
    "tech": "FTTN",
    "upgrade": "NULL_NA",
    "gnaf_pid": "GAVIC412134434"
   }
  },
  {
   "type": "Feature",
   "geometry": {
    "type": "Point",
    "coordinates": [
     141.59334195,
     -38.36272306
    ]
   },
   "properties": {
    "name": "296 EDGAR STREET PORTLAND 3305",
    "locID": "LOC000107786141",
    "tech": "FTTN",
    "upgrade": "NULL_NA",
    "gnaf_pid": "GAVIC412134445"
   }
  },
  {
   "type": "Feature",
   "geometry": {
    "type": "Point",
    "coordinates": [
     141.59944015,
     -38.33976365
    ]
   },
   "properties": {
    "name": "UNIT 4, 118 BLAIR STREET PORTLAND 3305",
    "locID": "LOC000050954725",
    "tech": "FTTN",
    "upgrade": "NULL_NA",
    "gnaf_pid": "GAVIC412134872"
   }
  },
  {
   "type": "Feature",
   "geometry": {
    "type": "Point",
    "coordinates": [
     141.59380503,
     -38.3381935
    ]
   },
   "properties": {
    "name": "UNIT 6, 1 PILE COURT PORTLAND 3305",
    "locID": "LOC000067293598",
    "tech": "FTTN",
    "upgrade": "NULL_NA",
    "gnaf_pid": "GAVIC412134876"
   }
  },
  {
   "type": "Feature",
   "geometry": {
    "type": "Point",
    "coordinates": [
     141.60612303,
     -38.33090261
    ]
   },
   "properties": {
    "name": "UNIT 2, 4 DUTTON STREET PORTLAND 3305",
    "locID": "LOC000038583179",
    "tech": "FTTN",
    "upgrade": "NULL_NA",
    "gnaf_pid": "GAVIC412134918"
   }
  },
  {
   "type": "Feature",
   "geometry": {
    "type": "Point",
    "coordinates": [
     141.60612238,
     -38.33076526
    ]
   },
   "properties": {
    "name": "UNIT 4, 4 DUTTON STREET PORTLAND 3305",
    "locID": "LOC000038762559",
    "tech": "FTTN",
    "upgrade": "NULL_NA",
    "gnaf_pid": "GAVIC412134920"
   }
  },
  {
   "type": "Feature",
   "geometry": {
    "type": "Point",
    "coordinates": [
     141.59098873,
     -38.33923984
    ]
   },
   "properties": {
    "name": "10 SCOTT COURT PORTLAND 3305",
    "locID": "LOC000082606384",
    "tech": "FTTN",
    "upgrade": "NULL_NA",
    "gnaf_pid": "GAVIC412134930"
   }
  },
  {
   "type": "Feature",
   "geometry": {
    "type": "Point",
    "coordinates": [
     141.59380503,
     -38.3381935
    ]
   },
   "properties": {
    "name": "UNIT 5, 1 PILE COURT PORTLAND 3305",
    "locID": "LOC000067123790",
    "tech": "FTTN",
    "upgrade": "NULL_NA",
    "gnaf_pid": "GAVIC412134932"
   }
  },
  {
   "type": "Feature",
   "geometry": {
    "type": "Point",
    "coordinates": [
     141.59742116,
     -38.33889496
    ]
   },
   "properties": {
    "name": "UNIT 2, 6 HODGE COURT PORTLAND 3305",
    "locID": "LOC000011115220",
    "tech": "FTTN",
    "upgrade": "NULL_NA",
    "gnaf_pid": "GAVIC412134933"
   }
  },
  {
   "type": "Feature",
   "geometry": {
    "type": "Point",
    "coordinates": [
     141.59592955,
     -38.36123871
    ]
   },
   "properties": {
    "name": "51 ABERDEEN STREET PORTLAND 3305",
    "locID": "LOC000030925567",
    "tech": "FTTN",
    "upgrade": "NULL_NA",
    "gnaf_pid": "GAVIC412134951"
   }
  },
  {
   "type": "Feature",
   "geometry": {
    "type": "Point",
    "coordinates": [
     141.58073331,
     -38.34030508
    ]
   },
   "properties": {
    "name": "36 BRIDGEWATER ROAD PORTLAND 3305",
    "locID": "LOC000124649630",
    "tech": "FTTN",
    "upgrade": "NULL_NA",
    "gnaf_pid": "GAVIC412134999"
   }
  },
  {
   "type": "Feature",
   "geometry": {
    "type": "Point",
    "coordinates": [
     141.57596909,
     -38.3382545
    ]
   },
   "properties": {
    "name": "18 BURVILLES ROAD PORTLAND 3305",
    "locID": "LOC000014701773",
    "tech": "FTTN",
    "upgrade": "NULL_NA",
    "gnaf_pid": "GAVIC412135005"
   }
  },
  {
   "type": "Feature",
   "geometry": {
    "type": "Point",
    "coordinates": [
     141.59377573,
     -38.3376789
    ]
   },
   "properties": {
    "name": "UNIT 2, 43 FRANCIS STREET PORTLAND 3305",
    "locID": "LOC000069823877",
    "tech": "FTTN",
    "upgrade": "NULL_NA",
    "gnaf_pid": "GAVIC412135049"
   }
  },
  {
   "type": "Feature",
   "geometry": {
    "type": "Point",
    "coordinates": [
     141.5903449,
     -38.32739909
    ]
   },
   "properties": {
    "name": "119 LEARMONTH STREET PORTLAND 3305",
    "locID": "ChIJdU8oB3KXnaoRiLtazxO8dqc",
    "tech": "FTTN",
    "upgrade": "UNKNOWN",
    "gnaf_pid": "GAVIC412135104"
   }
  },
  {
   "type": "Feature",
   "geometry": {
    "type": "Point",
    "coordinates": [
     141.58751664,
     -38.34592723
    ]
   },
   "properties": {
    "name": "27 WILLIAM STREET PORTLAND 3305",
    "locID": "LOC000102135565",
    "tech": "FTTN",
    "upgrade": "NULL_NA",
    "gnaf_pid": "GAVIC412135158"
   }
  },
  {
   "type": "Feature",
   "geometry": {
    "type": "Point",
    "coordinates": [
     141.59762038,
     -38.33869285
    ]
   },
   "properties": {
    "name": "UNIT 5, 6 HODGE COURT PORTLAND 3305",
    "locID": "LOC000124694978",
    "tech": "FTTN",
    "upgrade": "NULL_NA",
    "gnaf_pid": "GAVIC412135636"
   }
  },
  {
   "type": "Feature",
   "geometry": {
    "type": "Point",
    "coordinates": [
     141.57923566,
     -38.34083747
    ]
   },
   "properties": {
    "name": "49 BRIDGEWATER ROAD PORTLAND 3305",
    "locID": "ChIJIVePW4WXnaoRrFdL1EW2asc",
    "tech": "WIRELESS",
    "upgrade": "UNKNOWN",
    "gnaf_pid": "GAVIC412135881"
   }
  },
  {
   "type": "Feature",
   "geometry": {
    "type": "Point",
    "coordinates": [
     141.60032928,
     -38.33185851
    ]
   },
   "properties": {
    "name": "74 GARDEN STREET PORTLAND 3305",
    "locID": "LOC000080761987",
    "tech": "FTTN",
    "upgrade": "NULL_NA",
    "gnaf_pid": "GAVIC412135890"
   }
  },
  {
   "type": "Feature",
   "geometry": {
    "type": "Point",
    "coordinates": [
     141.60503068,
     -38.36242171
    ]
   },
   "properties": {
    "name": "73 CAPE NELSON ROAD PORTLAND 3305",
    "locID": "LOC000102191116",
    "tech": "FTTN",
    "upgrade": "NULL_NA",
    "gnaf_pid": "GAVIC412135927"
   }
  },
  {
   "type": "Feature",
   "geometry": {
    "type": "Point",
    "coordinates": [
     141.62123825,
     -38.36995623
    ]
   },
   "properties": {
    "name": "12 DERRIL ROAD PORTLAND 3305",
    "locID": "LOC000114203319",
    "tech": "FTTN",
    "upgrade": "NULL_NA",
    "gnaf_pid": "GAVIC412135979"
   }
  },
  {
   "type": "Feature",
   "geometry": {
    "type": "Point",
    "coordinates": [
     141.61675592,
     -38.35767656
    ]
   },
   "properties": {
    "name": "12B SILVESTER STREET PORTLAND 3305",
    "locID": "ChIJgUIpGUWYnaoRoKjS8Lp42X4",
    "tech": "FTTN",
    "upgrade": "UNKNOWN",
    "gnaf_pid": "GAVIC412136005"
   }
  },
  {
   "type": "Feature",
   "geometry": {
    "type": "Point",
    "coordinates": [
     141.60600549,
     -38.34866609
    ]
   },
   "properties": {
    "name": "93 BENTINCK STREET PORTLAND 3305",
    "locID": "LOC000094361995",
    "tech": "FTTN",
    "upgrade": "NULL_NA",
    "gnaf_pid": "GAVIC412136169"
   }
  },
  {
   "type": "Feature",
   "geometry": {
    "type": "Point",
    "coordinates": [
     141.59944015,
     -38.33976365
    ]
   },
   "properties": {
    "name": "UNIT 2, 118 BLAIR STREET PORTLAND 3305",
    "locID": "LOC000050945198",
    "tech": "FTTN",
    "upgrade": "NULL_NA",
    "gnaf_pid": "GAVIC412136548"
   }
  },
  {
   "type": "Feature",
   "geometry": {
    "type": "Point",
    "coordinates": [
     141.59762733,
     -38.32859424
    ]
   },
   "properties": {
    "name": "50 RICHARDSON STREET PORTLAND 3305",
    "locID": "LOC000114060191",
    "tech": "FTTN",
    "upgrade": "NULL_NA",
    "gnaf_pid": "GAVIC412136556"
   }
  },
  {
   "type": "Feature",
   "geometry": {
    "type": "Point",
    "coordinates": [
     141.5891219,
     -38.33114024
    ]
   },
   "properties": {
    "name": "5 FITZGERALD PLACE PORTLAND 3305",
    "locID": "LOC000124519171",
    "tech": "FTTN",
    "upgrade": "NULL_NA",
    "gnaf_pid": "GAVIC412136577"
   }
  },
  {
   "type": "Feature",
   "geometry": {
    "type": "Point",
    "coordinates": [
     141.59944015,
     -38.33976365
    ]
   },
   "properties": {
    "name": "UNIT 5, 118 BLAIR STREET PORTLAND 3305",
    "locID": "LOC000050607287",
    "tech": "FTTN",
    "upgrade": "NULL_NA",
    "gnaf_pid": "GAVIC412136583"
   }
  },
  {
   "type": "Feature",
   "geometry": {
    "type": "Point",
    "coordinates": [
     141.59201224,
     -38.33509305
    ]
   },
   "properties": {
    "name": "UNIT 2, 81 BROWNING STREET PORTLAND 3305",
    "locID": "LOC000027612430",
    "tech": "FTTN",
    "upgrade": "NULL_NA",
    "gnaf_pid": "GAVIC412136678"
   }
  },
  {
   "type": "Feature",
   "geometry": {
    "type": "Point",
    "coordinates": [
     141.61531925,
     -38.35618444
    ]
   },
   "properties": {
    "name": "7 KINGSLEY COURT PORTLAND 3305",
    "locID": "LOC000062507959",
    "tech": "FTTN",
    "upgrade": "NULL_NA",
    "gnaf_pid": "GAVIC412137015"
   }
  },
  {
   "type": "Feature",
   "geometry": {
    "type": "Point",
    "coordinates": [
     141.60324404,
     -38.34817831
    ]
   },
   "properties": {
    "name": "41A PERCY STREET PORTLAND 3305",
    "locID": "LOC000037167670",
    "tech": "FTTN",
    "upgrade": "NULL_NA",
    "gnaf_pid": "GAVIC412137021"
   }
  },
  {
   "type": "Feature",
   "geometry": {
    "type": "Point",
    "coordinates": [
     141.59697248,
     -38.35936813
    ]
   },
   "properties": {
    "name": "151 MUST STREET PORTLAND 3305",
    "locID": "LOC000075361541",
    "tech": "FTTN",
    "upgrade": "NULL_NA",
    "gnaf_pid": "GAVIC412137140"
   }
  },
  {
   "type": "Feature",
   "geometry": {
    "type": "Point",
    "coordinates": [
     141.5903449,
     -38.32739909
    ]
   },
   "properties": {
    "name": "121 LEARMONTH STREET PORTLAND 3305",
    "locID": "LOC000163470714",
    "tech": "FTTN",
    "upgrade": "NULL_NA",
    "gnaf_pid": "GAVIC412138387"
   }
  },
  {
   "type": "Feature",
   "geometry": {
    "type": "Point",
    "coordinates": [
     141.61583897,
     -38.35944746
    ]
   },
   "properties": {
    "name": "26 BARKLY STREET PORTLAND 3305",
    "locID": "LOC000012886964",
    "tech": "FTTN",
    "upgrade": "NULL_NA",
    "gnaf_pid": "GAVIC412138942"
   }
  },
  {
   "type": "Feature",
   "geometry": {
    "type": "Point",
    "coordinates": [
     141.60534641,
     -38.3585547
    ]
   },
   "properties": {
    "name": "UNIT 1, 18 CAPE NELSON ROAD PORTLAND 3305",
    "locID": "LOC000104187857",
    "tech": "FTTN",
    "upgrade": "NULL_NA",
    "gnaf_pid": "GAVIC412138951"
   }
  },
  {
   "type": "Feature",
   "geometry": {
    "type": "Point",
    "coordinates": [
     141.6200902,
     -38.36511135
    ]
   },
   "properties": {
    "name": "101 BARKLY STREET PORTLAND 3305",
    "locID": "LOC000015572124",
    "tech": "FTTN",
    "upgrade": "NULL_NA",
    "gnaf_pid": "GAVIC412138954"
   }
  },
  {
   "type": "Feature",
   "geometry": {
    "type": "Point",
    "coordinates": [
     141.5856034,
     -38.37332633
    ]
   },
   "properties": {
    "name": "285 CAPE NELSON ROAD PORTLAND 3305",
    "locID": "LOC000101576121",
    "tech": "WIRELESS",
    "upgrade": "NULL_NA",
    "gnaf_pid": "GAVIC412138955"
   }
  },
  {
   "type": "Feature",
   "geometry": {
    "type": "Point",
    "coordinates": [
     141.61969925,
     -38.35997883
    ]
   },
   "properties": {
    "name": "38 ROSSDELL COURT PORTLAND 3305",
    "locID": "LOC000024289285",
    "tech": "FTTN",
    "upgrade": "NULL_NA",
    "gnaf_pid": "GAVIC412139535"
   }
  },
  {
   "type": "Feature",
   "geometry": {
    "type": "Point",
    "coordinates": [
     141.61969388,
     -38.36125975
    ]
   },
   "properties": {
    "name": "UNIT 1, 34 PETER STREET PORTLAND 3305",
    "locID": "LOC000092994111",
    "tech": "FTTN",
    "upgrade": "NULL_NA",
    "gnaf_pid": "GAVIC412139615"
   }
  },
  {
   "type": "Feature",
   "geometry": {
    "type": "Point",
    "coordinates": [
     141.60397403,
     -38.34676733
    ]
   },
   "properties": {
    "name": "76B PERCY STREET PORTLAND 3305",
    "locID": "LOC000034811170",
    "tech": "FTTN",
    "upgrade": "NULL_NA",
    "gnaf_pid": "GAVIC412140478"
   }
  },
  {
   "type": "Feature",
   "geometry": {
    "type": "Point",
    "coordinates": [
     141.60397403,
     -38.34676733
    ]
   },
   "properties": {
    "name": "76A PERCY STREET PORTLAND 3305",
    "locID": "LOC000034539990",
    "tech": "FTTN",
    "upgrade": "NULL_NA",
    "gnaf_pid": "GAVIC412140479"
   }
  },
  {
   "type": "Feature",
   "geometry": {
    "type": "Point",
    "coordinates": [
     141.60522789,
     -38.34866338
    ]
   },
   "properties": {
    "name": "UNIT 13, 15 JULIA STREET PORTLAND 3305",
    "locID": "LOC000146747511",
    "tech": "FTTN",
    "upgrade": "NULL_NA",
    "gnaf_pid": "GAVIC412140483"
   }
  },
  {
   "type": "Feature",
   "geometry": {
    "type": "Point",
    "coordinates": [
     141.59966209,
     -38.34221202
    ]
   },
   "properties": {
    "name": "UNIT 3, 37 OTWAY STREET PORTLAND 3305",
    "locID": "LOC000025971509",
    "tech": "FTTN",
    "upgrade": "NULL_NA",
    "gnaf_pid": "GAVIC412140491"
   }
  },
  {
   "type": "Feature",
   "geometry": {
    "type": "Point",
    "coordinates": [
     141.61228408,
     -38.3656456
    ]
   },
   "properties": {
    "name": "UNIT 1, 14 CHURCH STREET PORTLAND 3305",
    "locID": "LOC000024799415",
    "tech": "FTTN",
    "upgrade": "NULL_NA",
    "gnaf_pid": "GAVIC412140492"
   }
  },
  {
   "type": "Feature",
   "geometry": {
    "type": "Point",
    "coordinates": [
     141.6122028,
     -38.36232335
    ]
   },
   "properties": {
    "name": "12 SHORT STREET PORTLAND 3305",
    "locID": "LOC000081015259",
    "tech": "FTTN",
    "upgrade": "NULL_NA",
    "gnaf_pid": "GAVIC412140506"
   }
  },
  {
   "type": "Feature",
   "geometry": {
    "type": "Point",
    "coordinates": [
     141.61179985,
     -38.3623299
    ]
   },
   "properties": {
    "name": "UNIT 8, 18 SHORT STREET PORTLAND 3305",
    "locID": "LOC000063738158",
    "tech": "FTTN",
    "upgrade": "NULL_NA",
    "gnaf_pid": "GAVIC412140539"
   }
  },
  {
   "type": "Feature",
   "geometry": {
    "type": "Point",
    "coordinates": [
     141.58169174,
     -38.34046086
    ]
   },
   "properties": {
    "name": "28 BRIDGEWATER ROAD PORTLAND 3305",
    "locID": "LOC000190365485",
    "tech": "FTTN",
    "upgrade": "NULL_NA",
    "gnaf_pid": "GAVIC412142911"
   }
  },
  {
   "type": "Feature",
   "geometry": {
    "type": "Point",
    "coordinates": [
     141.59944015,
     -38.33976365
    ]
   },
   "properties": {
    "name": "UNIT 3, 116 BLAIR STREET PORTLAND 3305",
    "locID": "LOC000026850360",
    "tech": "FTTN",
    "upgrade": "NULL_NA",
    "gnaf_pid": "GAVIC412142951"
   }
  },
  {
   "type": "Feature",
   "geometry": {
    "type": "Point",
    "coordinates": [
     141.61261075,
     -38.36567759
    ]
   },
   "properties": {
    "name": "UNIT 9, 14 CHURCH STREET PORTLAND 3305",
    "locID": "LOC000024431397",
    "tech": "FTTN",
    "upgrade": "NULL_NA",
    "gnaf_pid": "GAVIC412143305"
   }
  },
  {
   "type": "Feature",
   "geometry": {
    "type": "Point",
    "coordinates": [
     141.61651437,
     -38.35848737
    ]
   },
   "properties": {
    "name": "UNIT 5, 21 BARKLY STREET PORTLAND 3305",
    "locID": "LOC000094571073",
    "tech": "FTTN",
    "upgrade": "NULL_NA",
    "gnaf_pid": "GAVIC412144024"
   }
  },
  {
   "type": "Feature",
   "geometry": {
    "type": "Point",
    "coordinates": [
     141.59890443,
     -38.36318693
    ]
   },
   "properties": {
    "name": "UNIT 4, 252 EDGAR STREET PORTLAND 3305",
    "locID": "LOC000102242001",
    "tech": "FTTN",
    "upgrade": "NULL_NA",
    "gnaf_pid": "GAVIC412144227"
   }
  },
  {
   "type": "Feature",
   "geometry": {
    "type": "Point",
    "coordinates": [
     141.59877935,
     -38.36317405
    ]
   },
   "properties": {
    "name": "UNIT 2, 252 EDGAR STREET PORTLAND 3305",
    "locID": "LOC000101780354",
    "tech": "FTTN",
    "upgrade": "NULL_NA",
    "gnaf_pid": "GAVIC412144954"
   }
  },
  {
   "type": "Feature",
   "geometry": {
    "type": "Point",
    "coordinates": [
     141.6135427,
     -38.36336684
    ]
   },
   "properties": {
    "name": "78 WELLINGTON ROAD PORTLAND 3305",
    "locID": "LOC000040242318",
    "tech": "FTTN",
    "upgrade": "NULL_NA",
    "gnaf_pid": "GAVIC412144957"
   }
  },
  {
   "type": "Feature",
   "geometry": {
    "type": "Point",
    "coordinates": [
     141.6141464,
     -38.36259949
    ]
   },
   "properties": {
    "name": "UNIT 12, 5 CASINO COURT PORTLAND 3305",
    "locID": "LOC000075506169",
    "tech": "FTTN",
    "upgrade": "NULL_NA",
    "gnaf_pid": "GAVIC412144977"
   }
  },
  {
   "type": "Feature",
   "geometry": {
    "type": "Point",
    "coordinates": [
     141.6076754,
     -38.3602482
    ]
   },
   "properties": {
    "name": "UNIT 1, 57 MUST STREET PORTLAND 3305",
    "locID": "LOC000012857926",
    "tech": "FTTN",
    "upgrade": "NULL_NA",
    "gnaf_pid": "GAVIC412145000"
   }
  },
  {
   "type": "Feature",
   "geometry": {
    "type": "Point",
    "coordinates": [
     141.59380503,
     -38.3381935
    ]
   },
   "properties": {
    "name": "UNIT 4, 1 PILE COURT PORTLAND 3305",
    "locID": "LOC000067032204",
    "tech": "FTTN",
    "upgrade": "NULL_NA",
    "gnaf_pid": "GAVIC412146644"
   }
  },
  {
   "type": "Feature",
   "geometry": {
    "type": "Point",
    "coordinates": [
     141.59726937,
     -38.33877417
    ]
   },
   "properties": {
    "name": "UNIT 8, 6 HODGE COURT PORTLAND 3305",
    "locID": "LOC000011070187",
    "tech": "FTTN",
    "upgrade": "NULL_NA",
    "gnaf_pid": "GAVIC412146646"
   }
  },
  {
   "type": "Feature",
   "geometry": {
    "type": "Point",
    "coordinates": [
     141.5967244,
     -38.34170605
    ]
   },
   "properties": {
    "name": "62 OTWAY STREET PORTLAND 3305",
    "locID": "LOC000114177230",
    "tech": "FTTN",
    "upgrade": "NULL_NA",
    "gnaf_pid": "GAVIC412146663"
   }
  },
  {
   "type": "Feature",
   "geometry": {
    "type": "Point",
    "coordinates": [
     141.60051862,
     -38.32580842
    ]
   },
   "properties": {
    "name": "339 HANLON PARADE PORTLAND 3305",
    "locID": "LOC000114660103",
    "tech": "FTTN",
    "upgrade": "NULL_NA",
    "gnaf_pid": "GAVIC412146669"
   }
  },
  {
   "type": "Feature",
   "geometry": {
    "type": "Point",
    "coordinates": [
     141.58662573,
     -38.34327282
    ]
   },
   "properties": {
    "name": "194 WYATT STREET PORTLAND 3305",
    "locID": "ChIJ3ayqP4aXnaoRK_M2Ut57FcA",
    "tech": "FTTN",
    "upgrade": "UNKNOWN",
    "gnaf_pid": "GAVIC412146670"
   }
  },
  {
   "type": "Feature",
   "geometry": {
    "type": "Point",
    "coordinates": [
     141.57382394,
     -38.34018018
    ]
   },
   "properties": {
    "name": "88 BRIDGEWATER ROAD PORTLAND 3305",
    "locID": "LOC000124490572",
    "tech": "FTTN",
    "upgrade": "NULL_NA",
    "gnaf_pid": "GAVIC412148267"
   }
  },
  {
   "type": "Feature",
   "geometry": {
    "type": "Point",
    "coordinates": [
     141.60248125,
     -38.3278556
    ]
   },
   "properties": {
    "name": "313 HANLON PARADE PORTLAND 3305",
    "locID": "LOC000082316775",
    "tech": "FTTN",
    "upgrade": "NULL_NA",
    "gnaf_pid": "GAVIC412148281"
   }
  },
  {
   "type": "Feature",
   "geometry": {
    "type": "Point",
    "coordinates": [
     141.6021223,
     -38.3274879
    ]
   },
   "properties": {
    "name": "235 HURD STREET PORTLAND 3305",
    "locID": "ChIJYWfr3mWXnaoRHuS3UW2VBPQ",
    "tech": "FTTN",
    "upgrade": "UNKNOWN",
    "gnaf_pid": "GAVIC412148283"
   }
  },
  {
   "type": "Feature",
   "geometry": {
    "type": "Point",
    "coordinates": [
     141.59972094,
     -38.35097883
    ]
   },
   "properties": {
    "name": "UNIT 1, 10 PALMER STREET PORTLAND 3305",
    "locID": "LOC000187368247",
    "tech": "FTTN",
    "upgrade": "NULL_NA",
    "gnaf_pid": "GAVIC412148744"
   }
  },
  {
   "type": "Feature",
   "geometry": {
    "type": "Point",
    "coordinates": [
     141.6141464,
     -38.36259949
    ]
   },
   "properties": {
    "name": "UNIT 9, 5 CASINO COURT PORTLAND 3305",
    "locID": "LOC000077674982",
    "tech": "FTTN",
    "upgrade": "NULL_NA",
    "gnaf_pid": "GAVIC412148748"
   }
  },
  {
   "type": "Feature",
   "geometry": {
    "type": "Point",
    "coordinates": [
     141.61809374,
     -38.3611647
    ]
   },
   "properties": {
    "name": "UNIT 10, 53 BARKLY STREET PORTLAND 3305",
    "locID": "LOC000020049945",
    "tech": "FTTN",
    "upgrade": "NULL_NA",
    "gnaf_pid": "GAVIC412148749"
   }
  },
  {
   "type": "Feature",
   "geometry": {
    "type": "Point",
    "coordinates": [
     141.62019315,
     -38.36070735
    ]
   },
   "properties": {
    "name": "50 ROSSDELL COURT PORTLAND 3305",
    "locID": "LOC000046410235",
    "tech": "FTTN",
    "upgrade": "NULL_NA",
    "gnaf_pid": "GAVIC412148750"
   }
  },
  {
   "type": "Feature",
   "geometry": {
    "type": "Point",
    "coordinates": [
     141.60131681,
     -38.34854838
    ]
   },
   "properties": {
    "name": "77 JULIA STREET PORTLAND 3305",
    "locID": "LOC000102577333",
    "tech": "FTTN",
    "upgrade": "NULL_NA",
    "gnaf_pid": "GAVIC412149487"
   }
  },
  {
   "type": "Feature",
   "geometry": {
    "type": "Point",
    "coordinates": [
     141.60394338,
     -38.34738467
    ]
   },
   "properties": {
    "name": "60A PERCY STREET PORTLAND 3305",
    "locID": "ChIJ4yA4vjGYnaoRoapWusf9M_I",
    "tech": "FTTN",
    "upgrade": "UNKNOWN",
    "gnaf_pid": "GAVIC412149489"
   }
  },
  {
   "type": "Feature",
   "geometry": {
    "type": "Point",
    "coordinates": [
     141.60030577,
     -38.35060896
    ]
   },
   "properties": {
    "name": "59 GAWLER STREET PORTLAND 3305",
    "locID": "LOC000106928529",
    "tech": "FTTN",
    "upgrade": "NULL_NA",
    "gnaf_pid": "GAVIC412151101"
   }
  },
  {
   "type": "Feature",
   "geometry": {
    "type": "Point",
    "coordinates": [
     141.60518054,
     -38.35860593
    ]
   },
   "properties": {
    "name": "UNIT 2, 18 CAPE NELSON ROAD PORTLAND 3305",
    "locID": "LOC000104187857",
    "tech": "FTTN",
    "upgrade": "NULL_NA",
    "gnaf_pid": "GAVIC412151104"
   }
  },
  {
   "type": "Feature",
   "geometry": {
    "type": "Point",
    "coordinates": [
     141.60396416,
     -38.3469672
    ]
   },
   "properties": {
    "name": "70A PERCY STREET PORTLAND 3305",
    "locID": "LOC000011937432",
    "tech": "FTTN",
    "upgrade": "NULL_NA",
    "gnaf_pid": "GAVIC412151108"
   }
  },
  {
   "type": "Feature",
   "geometry": {
    "type": "Point",
    "coordinates": [
     141.59944015,
     -38.33976365
    ]
   },
   "properties": {
    "name": "UNIT 1, 118 BLAIR STREET PORTLAND 3305",
    "locID": "LOC000050945198",
    "tech": "FTTN",
    "upgrade": "NULL_NA",
    "gnaf_pid": "GAVIC412151238"
   }
  },
  {
   "type": "Feature",
   "geometry": {
    "type": "Point",
    "coordinates": [
     141.61802098,
     -38.36073683
    ]
   },
   "properties": {
    "name": "UNIT 5, 49 BARKLY STREET PORTLAND 3305",
    "locID": "LOC000013877132",
    "tech": "FTTN",
    "upgrade": "NULL_NA",
    "gnaf_pid": "GAVIC412151253"
   }
  },
  {
   "type": "Feature",
   "geometry": {
    "type": "Point",
    "coordinates": [
     141.62010995,
     -38.36058464
    ]
   },
   "properties": {
    "name": "48 ROSSDELL COURT PORTLAND 3305",
    "locID": "LOC000031007993",
    "tech": "FTTN",
    "upgrade": "NULL_NA",
    "gnaf_pid": "GAVIC412151254"
   }
  },
  {
   "type": "Feature",
   "geometry": {
    "type": "Point",
    "coordinates": [
     141.61773126,
     -38.36086285
    ]
   },
   "properties": {
    "name": "UNIT 3, 49 BARKLY STREET PORTLAND 3305",
    "locID": "LOC000013583746",
    "tech": "FTTN",
    "upgrade": "NULL_NA",
    "gnaf_pid": "GAVIC412154274"
   }
  },
  {
   "type": "Feature",
   "geometry": {
    "type": "Point",
    "coordinates": [
     141.6040122,
     -38.34587958
    ]
   },
   "properties": {
    "name": "90B PERCY STREET PORTLAND 3305",
    "locID": "ChIJP3NDBzKYnaoR0QEYUe4wdzw",
    "tech": "FTTN",
    "upgrade": "UNKNOWN",
    "gnaf_pid": "GAVIC412154277"
   }
  },
  {
   "type": "Feature",
   "geometry": {
    "type": "Point",
    "coordinates": [
     141.61232206,
     -38.36552388
    ]
   },
   "properties": {
    "name": "UNIT 2, 14 CHURCH STREET PORTLAND 3305",
    "locID": "LOC000024269579",
    "tech": "FTTN",
    "upgrade": "NULL_NA",
    "gnaf_pid": "GAVIC412154356"
   }
  },
  {
   "type": "Feature",
   "geometry": {
    "type": "Point",
    "coordinates": [
     141.6185146,
     -38.35803023
    ]
   },
   "properties": {
    "name": "6 ROSSDELL STREET PORTLAND 3305",
    "locID": "ChIJRxjAMkWYnaoRVzde7T9k8FQ",
    "tech": "FTTN",
    "upgrade": "UNKNOWN",
    "gnaf_pid": "GAVIC412154429"
   }
  },
  {
   "type": "Feature",
   "geometry": {
    "type": "Point",
    "coordinates": [
     141.58498758,
     -38.3807285
    ]
   },
   "properties": {
    "name": "77 SHEOKE ROAD PORTLAND 3305",
    "locID": "LOC000069668374",
    "tech": "SATELLITE",
    "upgrade": "NULL_NA",
    "gnaf_pid": "GAVIC412155131"
   }
  },
  {
   "type": "Feature",
   "geometry": {
    "type": "Point",
    "coordinates": [
     141.61937961,
     -38.36117634
    ]
   },
   "properties": {
    "name": "UNIT 1, 36 PETER STREET PORTLAND 3305",
    "locID": "LOC000012787012",
    "tech": "FTTN",
    "upgrade": "NULL_NA",
    "gnaf_pid": "GAVIC412155308"
   }
  },
  {
   "type": "Feature",
   "geometry": {
    "type": "Point",
    "coordinates": [
     141.60513912,
     -38.34260761
    ]
   },
   "properties": {
    "name": "9A MARKET COURT PORTLAND 3305",
    "locID": "LOC000038856876",
    "tech": "FTTN",
    "upgrade": "NULL_NA",
    "gnaf_pid": "GAVIC412155316"
   }
  },
  {
   "type": "Feature",
   "geometry": {
    "type": "Point",
    "coordinates": [
     141.61957786,
     -38.36110065
    ]
   },
   "properties": {
    "name": "UNIT 4, 34 PETER STREET PORTLAND 3305",
    "locID": "LOC000092841283",
    "tech": "FTTN",
    "upgrade": "NULL_NA",
    "gnaf_pid": "GAVIC412156147"
   }
  },
  {
   "type": "Feature",
   "geometry": {
    "type": "Point",
    "coordinates": [
     141.60678754,
     -38.36230955
    ]
   },
   "properties": {
    "name": "69A SHORT STREET PORTLAND 3305",
    "locID": "ChIJo7ectmmYnaoRwGxxSxlJGRI",
    "tech": "FTTN",
    "upgrade": "UNKNOWN",
    "gnaf_pid": "GAVIC412156974"
   }
  },
  {
   "type": "Feature",
   "geometry": {
    "type": "Point",
    "coordinates": [
     141.6044999,
     -38.35959696
    ]
   },
   "properties": {
    "name": "UNIT 3, 98 MUST STREET PORTLAND 3305",
    "locID": "LOC000026130578",
    "tech": "FTTN",
    "upgrade": "NULL_NA",
    "gnaf_pid": "GAVIC412157943"
   }
  },
  {
   "type": "Feature",
   "geometry": {
    "type": "Point",
    "coordinates": [
     141.61305523,
     -38.3573152
    ]
   },
   "properties": {
    "name": "UNIT 5, 18 WELLINGTON ROAD PORTLAND 3305",
    "locID": "LOC000006044000",
    "tech": "FTTN",
    "upgrade": "NULL_NA",
    "gnaf_pid": "GAVIC412158067"
   }
  },
  {
   "type": "Feature",
   "geometry": {
    "type": "Point",
    "coordinates": [
     141.6039843,
     -38.34656048
    ]
   },
   "properties": {
    "name": "80A PERCY STREET PORTLAND 3305",
    "locID": "LOC000045642866",
    "tech": "FTTN",
    "upgrade": "NULL_NA",
    "gnaf_pid": "GAVIC412159710"
   }
  },
  {
   "type": "Feature",
   "geometry": {
    "type": "Point",
    "coordinates": [
     141.61305523,
     -38.3573152
    ]
   },
   "properties": {
    "name": "UNIT 6, 18 WELLINGTON ROAD PORTLAND 3305",
    "locID": "LOC000006053872",
    "tech": "FTTN",
    "upgrade": "NULL_NA",
    "gnaf_pid": "GAVIC412167792"
   }
  },
  {
   "type": "Feature",
   "geometry": {
    "type": "Point",
    "coordinates": [
     141.60479026,
     -38.34865002
    ]
   },
   "properties": {
    "name": "23A JULIA STREET PORTLAND 3305",
    "locID": "LOC000049972462",
    "tech": "FTTN",
    "upgrade": "NULL_NA",
    "gnaf_pid": "GAVIC412167794"
   }
  },
  {
   "type": "Feature",
   "geometry": {
    "type": "Point",
    "coordinates": [
     141.60507666,
     -38.35858986
    ]
   },
   "properties": {
    "name": "UNIT 3, 18 CAPE NELSON ROAD PORTLAND 3305",
    "locID": "LOC000104435247",
    "tech": "FTTN",
    "upgrade": "NULL_NA",
    "gnaf_pid": "GAVIC412178447"
   }
  },
  {
   "type": "Feature",
   "geometry": {
    "type": "Point",
    "coordinates": [
     141.59558435,
     -38.36756063
    ]
   },
   "properties": {
    "name": "LOT 4 CAPE NELSON ROAD PORTLAND 3305",
    "locID": "LOC000103965837",
    "tech": "FTTN",
    "upgrade": "NULL_NA",
    "gnaf_pid": "GAVIC412679477"
   }
  },
  {
   "type": "Feature",
   "geometry": {
    "type": "Point",
    "coordinates": [
     141.61597776,
     -38.35965658
    ]
   },
   "properties": {
    "name": "32 BARKLY STREET PORTLAND 3305",
    "locID": "LOC000048544319",
    "tech": "FTTN",
    "upgrade": "NULL_NA",
    "gnaf_pid": "GAVIC414173882"
   }
  },
  {
   "type": "Feature",
   "geometry": {
    "type": "Point",
    "coordinates": [
     141.59964245,
     -38.33575281
    ]
   },
   "properties": {
    "name": "117 KENNEDY STREET PORTLAND 3305",
    "locID": "ChIJR7nPe36XnaoRIRPLZPnn_dY",
    "tech": "FTTN",
    "upgrade": "UNKNOWN",
    "gnaf_pid": "GAVIC414182969"
   }
  },
  {
   "type": "Feature",
   "geometry": {
    "type": "Point",
    "coordinates": [
     141.59237458,
     -38.33104389
    ]
   },
   "properties": {
    "name": "153 BROWNING STREET PORTLAND 3305",
    "locID": "LOC000092403398",
    "tech": "FTTN",
    "upgrade": "NULL_NA",
    "gnaf_pid": "GAVIC414189986"
   }
  },
  {
   "type": "Feature",
   "geometry": {
    "type": "Point",
    "coordinates": [
     141.57370576,
     -38.33649844
    ]
   },
   "properties": {
    "name": "27 BURNS ROAD PORTLAND 3305",
    "locID": "LOC000182330360",
    "tech": "FTTN",
    "upgrade": "NULL_NA",
    "gnaf_pid": "GAVIC414190004"
   }
  },
  {
   "type": "Feature",
   "geometry": {
    "type": "Point",
    "coordinates": [
     141.60528361,
     -38.35732115
    ]
   },
   "properties": {
    "name": "4 CALVERT STREET PORTLAND 3305",
    "locID": "LOC000057951403",
    "tech": "FTTN",
    "upgrade": "NULL_NA",
    "gnaf_pid": "GAVIC414190032"
   }
  },
  {
   "type": "Feature",
   "geometry": {
    "type": "Point",
    "coordinates": [
     141.61434736,
     -38.37040784
    ]
   },
   "properties": {
    "name": "153 WELLINGTON ROAD PORTLAND 3305",
    "locID": "ChIJ8R_Gh2KYnaoRdygDSaz-GPQ",
    "tech": "WIRELESS",
    "upgrade": "UNKNOWN",
    "gnaf_pid": "GAVIC414190211"
   }
  },
  {
   "type": "Feature",
   "geometry": {
    "type": "Point",
    "coordinates": [
     141.613429,
     -38.36182341
    ]
   },
   "properties": {
    "name": "60 WELLINGTON ROAD PORTLAND 3305",
    "locID": "LOC000062500695",
    "tech": "FTTN",
    "upgrade": "NULL_NA",
    "gnaf_pid": "GAVIC414190246"
   }
  },
  {
   "type": "Feature",
   "geometry": {
    "type": "Point",
    "coordinates": [
     141.60488786,
     -38.34614279
    ]
   },
   "properties": {
    "name": "10 HENTY STREET PORTLAND 3305",
    "locID": "LOC000012877932",
    "tech": "FTTN",
    "upgrade": "NULL_NA",
    "gnaf_pid": "GAVIC414190811"
   }
  },
  {
   "type": "Feature",
   "geometry": {
    "type": "Point",
    "coordinates": [
     141.60233801,
     -38.34606616
    ]
   },
   "properties": {
    "name": "30 HENTY STREET PORTLAND 3305",
    "locID": "LOC000104394035",
    "tech": "FTTN",
    "upgrade": "NULL_NA",
    "gnaf_pid": "GAVIC414190815"
   }
  },
  {
   "type": "Feature",
   "geometry": {
    "type": "Point",
    "coordinates": [
     141.60262303,
     -38.34649102
    ]
   },
   "properties": {
    "name": "29 HENTY STREET PORTLAND 3305",
    "locID": "LOC000025960389",
    "tech": "FTTN",
    "upgrade": "NULL_NA",
    "gnaf_pid": "GAVIC414190820"
   }
  },
  {
   "type": "Feature",
   "geometry": {
    "type": "Point",
    "coordinates": [
     141.59975514,
     -38.34599053
    ]
   },
   "properties": {
    "name": "60 HENTY STREET PORTLAND 3305",
    "locID": "LOC000102475863",
    "tech": "FTTN",
    "upgrade": "NULL_NA",
    "gnaf_pid": "GAVIC414190833"
   }
  },
  {
   "type": "Feature",
   "geometry": {
    "type": "Point",
    "coordinates": [
     141.60127974,
     -38.34756011
    ]
   },
   "properties": {
    "name": "42A HURD STREET PORTLAND 3305",
    "locID": "ChIJBzKOKjCYnaoRn1UKj36A0NI",
    "tech": "FTTN",
    "upgrade": "UNKNOWN",
    "gnaf_pid": "GAVIC414190858"
   }
  },
  {
   "type": "Feature",
   "geometry": {
    "type": "Point",
    "coordinates": [
     141.61208306,
     -38.36230241
    ]
   },
   "properties": {
    "name": "UNIT 10, 14 SHORT STREET PORTLAND 3305",
    "locID": "LOC000005233902",
    "tech": "FTTN",
    "upgrade": "NULL_NA",
    "gnaf_pid": "GAVIC414192034"
   }
  },
  {
   "type": "Feature",
   "geometry": {
    "type": "Point",
    "coordinates": [
     141.60530253,
     -38.36404859
    ]
   },
   "properties": {
    "name": "300 EDGAR STREET PORTLAND 3305",
    "locID": "ChIJU5Nb3GiYnaoR3VtRyjRHYDc",
    "tech": "FTTN",
    "upgrade": "UNKNOWN",
    "gnaf_pid": "GAVIC414192595"
   }
  },
  {
   "type": "Feature",
   "geometry": {
    "type": "Point",
    "coordinates": [
     141.5919558,
     -38.36258356
    ]
   },
   "properties": {
    "name": "312 EDGAR STREET PORTLAND 3305",
    "locID": "LOC000029666624",
    "tech": "FTTN",
    "upgrade": "NULL_NA",
    "gnaf_pid": "GAVIC414192599"
   }
  },
  {
   "type": "Feature",
   "geometry": {
    "type": "Point",
    "coordinates": [
     141.59232158,
     -38.35883932
    ]
   },
   "properties": {
    "name": "92 FAWTHROP STREET PORTLAND 3305",
    "locID": "ChIJxQKDIhSYnaoRv-Sw3gKXQhE",
    "tech": "FTTN",
    "upgrade": "UNKNOWN",
    "gnaf_pid": "GAVIC414192601"
   }
  },
  {
   "type": "Feature",
   "geometry": {
    "type": "Point",
    "coordinates": [
     141.61008748,
     -38.35545797
    ]
   },
   "properties": {
    "name": "1-200 CANAL COURT PORTLAND 3305",
    "locID": "ChIJjbSP_0aYnaoRrwNYk6C1T74",
    "tech": "FTTN",
    "upgrade": "UNKNOWN",
    "gnaf_pid": "GAVIC414194317"
   }
  },
  {
   "type": "Feature",
   "geometry": {
    "type": "Point",
    "coordinates": [
     141.57902119,
     -38.33830283
    ]
   },
   "properties": {
    "name": "4 BURVILLES ROAD PORTLAND 3305",
    "locID": "LOC000184749482",
    "tech": "FTTN",
    "upgrade": "NULL_NA",
    "gnaf_pid": "GAVIC414194568"
   }
  },
  {
   "type": "Feature",
   "geometry": {
    "type": "Point",
    "coordinates": [
     141.60841936,
     -38.35195363
    ]
   },
   "properties": {
    "name": "67 CLIFF STREET PORTLAND 3305",
    "locID": "LOC000001972177",
    "tech": "FTTN",
    "upgrade": "NULL_NA",
    "gnaf_pid": "GAVIC414194716"
   }
  },
  {
   "type": "Feature",
   "geometry": {
    "type": "Point",
    "coordinates": [
     141.6073694,
     -38.35147925
    ]
   },
   "properties": {
    "name": "75 CLIFF STREET PORTLAND 3305",
    "locID": "LOC000045728895",
    "tech": "FTTN",
    "upgrade": "NULL_NA",
    "gnaf_pid": "GAVIC414194718"
   }
  },
  {
   "type": "Feature",
   "geometry": {
    "type": "Point",
    "coordinates": [
     141.60754647,
     -38.35173548
    ]
   },
   "properties": {
    "name": "71 CLIFF STREET PORTLAND 3305",
    "locID": "LOC000069686372",
    "tech": "FTTN",
    "upgrade": "NULL_NA",
    "gnaf_pid": "GAVIC414194720"
   }
  },
  {
   "type": "Feature",
   "geometry": {
    "type": "Point",
    "coordinates": [
     141.61072346,
     -38.3526403
    ]
   },
   "properties": {
    "name": "73 CLIFF STREET PORTLAND 3305",
    "locID": "ChIJrw6IG0iYnaoRozCyLp_FHe0",
    "tech": "FTTN",
    "upgrade": "UNKNOWN",
    "gnaf_pid": "GAVIC414194721"
   }
  },
  {
   "type": "Feature",
   "geometry": {
    "type": "Point",
    "coordinates": [
     141.6059749,
     -38.34868633
    ]
   },
   "properties": {
    "name": "1 JULIA STREET PORTLAND 3305",
    "locID": "LOC000105985855",
    "tech": "FTTN",
    "upgrade": "NULL_NA",
    "gnaf_pid": "GAVIC414194752"
   }
  },
  {
   "type": "Feature",
   "geometry": {
    "type": "Point",
    "coordinates": [
     141.60549749,
     -38.34867163
    ]
   },