{
 "type": "FeatureCollection",
 "generated": "2023-10-25T02:22:03.079287",
 "suburb": "PRAIRIE",
 "features": [
  {
   "type": "Feature",
   "geometry": {
    "type": "Point",
    "coordinates": [
     144.23580049,
     -36.29949966
    ]
   },
   "properties": {
    "name": "4099 PRAIRIE-ROCHESTER ROAD PRAIRIE 3572",
    "locID": "LOC000143068650",
    "tech": "WIRELESS",
    "upgrade": "NULL_NA",
    "gnaf_pid": "GAVIC412138469"
   }
  },
  {
   "type": "Feature",
   "geometry": {
    "type": "Point",
    "coordinates": [
     144.17196229,
     -36.29927239
    ]
   },
   "properties": {
    "name": "543 PRAIRIE ROAD PRAIRIE 3572",
    "locID": "LOC000071981557",
    "tech": "WIRELESS",
    "upgrade": "NULL_NA",
    "gnaf_pid": "GAVIC412147974"
   }
  },
  {
   "type": "Feature",
   "geometry": {
    "type": "Point",
    "coordinates": [
     144.14939168,
     -36.29980875
    ]
   },
   "properties": {
    "name": "743 PRAIRIE ROAD PRAIRIE 3572",
    "locID": "LOC000037725425",
    "tech": "SATELLITE",
    "upgrade": "NULL_NA",
    "gnaf_pid": "GAVIC412147975"
   }
  },
  {
   "type": "Feature",
   "geometry": {
    "type": "Point",
    "coordinates": [
     144.18617165,
     -36.32009001
    ]
   },
   "properties": {
    "name": "604 DISS ROAD PRAIRIE 3572",
    "locID": "LOC000021691054",
    "tech": "WIRELESS",
    "upgrade": "NULL_NA",
    "gnaf_pid": "GAVIC412147977"
   }
  },
  {
   "type": "Feature",
   "geometry": {
    "type": "Point",
    "coordinates": [
     144.25708572,
     -36.29905964
    ]
   },
   "properties": {
    "name": "3490 PRAIRIE-ROCHESTER ROAD PRAIRIE 3572",
    "locID": "LOC000004331485",
    "tech": "WIRELESS",
    "upgrade": "NULL_NA",
    "gnaf_pid": "GAVIC412149993"
   }
  },
  {
   "type": "Feature",
   "geometry": {
    "type": "Point",
    "coordinates": [
     144.23257667,
     -36.29875593
    ]
   },
   "properties": {
    "name": "4988 BENDIGO-PYRAMID ROAD PRAIRIE 3572",
    "locID": "LOC000025087014",
    "tech": "WIRELESS",
    "upgrade": "NULL_NA",
    "gnaf_pid": "GAVIC412149996"
   }
  },
  {
   "type": "Feature",
   "geometry": {
    "type": "Point",
    "coordinates": [
     144.17297374,
     -36.29878542
    ]
   },
   "properties": {
    "name": "532 PRAIRIE ROAD PRAIRIE 3572",
    "locID": "LOC000046821219",
    "tech": "WIRELESS",
    "upgrade": "NULL_NA",
    "gnaf_pid": "GAVIC412149997"
   }
  },
  {
   "type": "Feature",
   "geometry": {
    "type": "Point",
    "coordinates": [
     144.25726785,
     -36.27836607
    ]
   },
   "properties": {
    "name": "230 COUTTS ROAD PRAIRIE 3572",
    "locID": "LOC000047737689",
    "tech": "WIRELESS",
    "upgrade": "NULL_NA",
    "gnaf_pid": "GAVIC412149998"
   }
  },
  {
   "type": "Feature",
   "geometry": {
    "type": "Point",
    "coordinates": [
     144.15902943,
     -36.28398347
    ]
   },
   "properties": {
    "name": "2400 ECHUCA-SERPENTINE ROAD PRAIRIE 3572",
    "locID": "ChIJSTkqA-WL2WoR7-tjUM_yU24",
    "tech": "SATELLITE",
    "upgrade": "UNKNOWN",
    "gnaf_pid": "GAVIC412150006"
   }
  },
  {
   "type": "Feature",
   "geometry": {
    "type": "Point",
    "coordinates": [
     144.18501187,
     -36.29902998
    ]
   },
   "properties": {
    "name": "LOT 27 PRAIRIE ROAD PRAIRIE 3572",
    "locID": "LOC000063546172",
    "tech": "WIRELESS",
    "upgrade": "NULL_NA",
    "gnaf_pid": "GAVIC412679612"
   }
  },
  {
   "type": "Feature",
   "geometry": {
    "type": "Point",
    "coordinates": [
     144.15902943,
     -36.28398347
    ]
   },
   "properties": {
    "name": "LOT 116 ECHUCA-SERPENTINE ROAD PRAIRIE 3572",
    "locID": "LOC000124851179",
    "tech": "SATELLITE",
    "upgrade": "NULL_NA",
    "gnaf_pid": "GAVIC412679635"
   }
  },
  {
   "type": "Feature",
   "geometry": {
    "type": "Point",
    "coordinates": [
     144.15902943,
     -36.28398347
    ]
   },
   "properties": {
    "name": "LOT 152 ECHUCA-SERPENTINE ROAD PRAIRIE 3572",
    "locID": "LOC000124851179",
    "tech": "SATELLITE",
    "upgrade": "NULL_NA",
    "gnaf_pid": "GAVIC412679636"
   }
  },
  {
   "type": "Feature",
   "geometry": {
    "type": "Point",
    "coordinates": [
     144.18501187,
     -36.29902998
    ]
   },
   "properties": {
    "name": "17 PRAIRIE ROAD PRAIRIE 3572",
    "locID": "ChIJFQkamhGM2WoRrsAG_-OKUlI",
    "tech": "WIRELESS",
    "upgrade": "UNKNOWN",
    "gnaf_pid": "GAVIC414409866"
   }
  },
  {
   "type": "Feature",
   "geometry": {
    "type": "Point",
    "coordinates": [
     144.25708572,
     -36.29905964
    ]
   },
   "properties": {
    "name": "5 PRAIRIE-ROCHESTER ROAD PRAIRIE 3572",
    "locID": "ChIJi-b_BB2O2WoRalQN4kkfoBY",
    "tech": "WIRELESS",
    "upgrade": "UNKNOWN",
    "gnaf_pid": "GAVIC414409868"
   }
  },
  {
   "type": "Feature",
   "geometry": {
    "type": "Point",
    "coordinates": [
     144.26984089,
     -36.29945544
    ]
   },
   "properties": {
    "name": "3793 PRAIRIE-ROCHESTER ROAD PRAIRIE 3572",
    "locID": "ChIJ6dFyl-WR2WoRqOTqTTvAHQg",
    "tech": "WIRELESS",
    "upgrade": "UNKNOWN",
    "gnaf_pid": "GAVIC414409870"
   }
  },
  {
   "type": "Feature",
   "geometry": {
    "type": "Point",
    "coordinates": [
     144.23228408,
     -36.29874203
    ]
   },
   "properties": {
    "name": "35 BENDIGO-PYRAMID ROAD PRAIRIE 3572",
    "locID": "LOC000124851271",
    "tech": "WIRELESS",
    "upgrade": "NULL_NA",
    "gnaf_pid": "GAVIC414434272"
   }
  },
  {
   "type": "Feature",
   "geometry": {
    "type": "Point",
    "coordinates": [
     144.18501187,
     -36.29902998
    ]
   },
   "properties": {
    "name": "32 PRAIRIE ROAD PRAIRIE 3572",
    "locID": "LOC000063546172",
    "tech": "WIRELESS",
    "upgrade": "NULL_NA",
    "gnaf_pid": "GAVIC422001036"
   }
  },
  {
   "type": "Feature",
   "geometry": {
    "type": "Point",
    "coordinates": [
     144.23262396,
     -36.29721864
    ]
   },
   "properties": {
    "name": "5002 BENDIGO-PYRAMID ROAD PRAIRIE 3572",
    "locID": "ChIJ9w2BB3SO2WoRSynIqphNpXs",
    "tech": "WIRELESS",
    "upgrade": "UNKNOWN",
    "gnaf_pid": "GAVIC422127971"
   }
  },
  {
   "type": "Feature",
   "geometry": {
    "type": "Point",
    "coordinates": [
     144.25723241,
     -36.28788855
    ]
   },
   "properties": {
    "name": "128 COUTTS ROAD PRAIRIE 3572",
    "locID": "LOC000079196324",
    "tech": "WIRELESS",
    "upgrade": "NULL_NA",
    "gnaf_pid": "GAVIC422139249"
   }
  },
  {
   "type": "Feature",
   "geometry": {
    "type": "Point",
    "coordinates": [
     144.15375048,
     -36.28823999
    ]
   },
   "properties": {
    "name": "2138 ECHUCA-SERPENTINE ROAD PRAIRIE 3572",
    "locID": "LOC000025587564",
    "tech": "SATELLITE",
    "upgrade": "NULL_NA",
    "gnaf_pid": "GAVIC422144037"
   }
  },
  {
   "type": "Feature",
   "geometry": {
    "type": "Point",
    "coordinates": [
     144.15976606,
     -36.28286329
    ]
   },
   "properties": {
    "name": "2213 ECHUCA-SERPENTINE ROAD PRAIRIE 3572",
    "locID": "LOC000058228578",
    "tech": "SATELLITE",
    "upgrade": "NULL_NA",
    "gnaf_pid": "GAVIC422144038"
   }
  },
  {
   "type": "Feature",
   "geometry": {
    "type": "Point",
    "coordinates": [
     144.17544239,
     -36.27195473
    ]
   },
   "properties": {
    "name": "2403 ECHUCA-SERPENTINE ROAD PRAIRIE 3572",
    "locID": "LOC000124851179",
    "tech": "SATELLITE",
    "upgrade": "NULL_NA",
    "gnaf_pid": "GAVIC422144039"
   }
  },
  {
   "type": "Feature",
   "geometry": {
    "type": "Point",
    "coordinates": [
     144.28133811,
     -36.27534521
    ]
   },
   "properties": {
    "name": "259 PHILLIPS ROAD PRAIRIE 3572",
    "locID": "LOC000035269887",
    "tech": "SATELLITE",
    "upgrade": "NULL_NA",
    "gnaf_pid": "GAVIC422181743"
   }
  },
  {
   "type": "Feature",
   "geometry": {
    "type": "Point",
    "coordinates": [
     144.22669262,
     -36.29887944
    ]
   },
   "properties": {
    "name": "32 PRAIRIE WEST ROAD PRAIRIE 3572",
    "locID": "LOC000063546172",
    "tech": "WIRELESS",
    "upgrade": "NULL_NA",
    "gnaf_pid": "GAVIC422182999"
   }
  },
  {
   "type": "Feature",
   "geometry": {
    "type": "Point",
    "coordinates": [
     144.15548856,
     -36.2992716
    ]
   },
   "properties": {
    "name": "689 PRAIRIE ROAD PRAIRIE 3572",
    "locID": "LOC000067912524",
    "tech": "WIRELESS",
    "upgrade": "NULL_NA",
    "gnaf_pid": "GAVIC422183001"
   }
  },
  {
   "type": "Feature",
   "geometry": {
    "type": "Point",
    "coordinates": [
     144.22696522,
     -36.31351662
    ]
   },
   "properties": {
    "name": "43 WALLYS LANE PRAIRIE 3572",
    "locID": "LOC000096785317",
    "tech": "WIRELESS",
    "upgrade": "NULL_NA",
    "gnaf_pid": "GAVIC422200343"
   }
  },
  {
   "type": "Feature",
   "geometry": {
    "type": "Point",
    "coordinates": [
     144.25693676,
     -36.2844087
    ]
   },
   "properties": {
    "name": "LOT 170 COUTTS ROAD PRAIRIE 3572",
    "locID": "EioxNzAgQ291dHRzIFJkLCBQcmFpcmllIFZJQyAzNTcyLCBBdXN0cmFsaWEiMRIvChQKEgk9HSkpJ47ZahELm37y3-fJ8BCqASoUChIJWYTuq-GP2WoRn_RWG_jluB0",
    "tech": "WIRELESS",
    "upgrade": "UNKNOWN",
    "gnaf_pid": "GAVIC423394329"
   }
  },
  {
   "type": "Feature",
   "geometry": {
    "type": "Point",
    "coordinates": [
     144.15902943,
     -36.28398347
    ]
   },
   "properties": {
    "name": "LOT 1 ECHUCA-SERPENTINE ROAD PRAIRIE 3572",
    "locID": "LOC000124851179",
    "tech": "SATELLITE",
    "upgrade": "NULL_NA",
    "gnaf_pid": "GAVIC423395721"
   }
  },
  {
   "type": "Feature",
   "geometry": {
    "type": "Point",
    "coordinates": [
     144.25708572,
     -36.29905964
    ]
   },
   "properties": {
    "name": "LOT 226 PRAIRIE-ROCHESTER ROAD PRAIRIE 3572",
    "locID": "LOC000143068650",
    "tech": "WIRELESS",
    "upgrade": "NULL_NA",
    "gnaf_pid": "GAVIC423406441"
   }
  },
  {
   "type": "Feature",
   "geometry": {
    "type": "Point",
    "coordinates": [
     144.18501187,
     -36.29902998
    ]
   },
   "properties": {
    "name": "LOT 29 PRAIRIE ROAD PRAIRIE 3572",
    "locID": "LOC000063546172",
    "tech": "WIRELESS",
    "upgrade": "NULL_NA",
    "gnaf_pid": "GAVIC423406443"
   }
  },
  {
   "type": "Feature",
   "geometry": {
    "type": "Point",
    "coordinates": [
     144.23253166,
     -36.29405155
    ]
   },
   "properties": {
    "name": "5038 BENDIGO-PYRAMID ROAD PRAIRIE 3572",
    "locID": "LOC000124851271",
    "tech": "WIRELESS",
    "upgrade": "NULL_NA",
    "gnaf_pid": "GAVIC424485638"
   }
  },
  {
   "type": "Feature",
   "geometry": {
    "type": "Point",
    "coordinates": [
     144.24756889,
     -36.29883505
    ]
   },
   "properties": {
    "name": "4026 PRAIRIE-ROCHESTER ROAD PRAIRIE 3572",
    "locID": "LOC000124846594",
    "tech": "WIRELESS",
    "upgrade": "NULL_NA",
    "gnaf_pid": "GAVIC424975760"
   }
  },
  {
   "type": "Feature",
   "geometry": {
    "type": "Point",
    "coordinates": [
     144.13234571,
     -36.31279489
    ]
   },
   "properties": {
    "name": "1275 PYRAMID-YARRABERB ROAD PRAIRIE 3572",
    "locID": "LOC000167378481",
    "tech": "WIRELESS",
    "upgrade": "NULL_NA",
    "gnaf_pid": "GAVIC425686559"
   }
  }
 ]
}