{
 "type": "FeatureCollection",
 "generated": "2024-09-24T03:01:54.188017",
 "suburb": "ROCKLANDS",
 "features": [
  {
   "type": "Feature",
   "geometry": {
    "type": "Point",
    "coordinates": [
     141.95999085,
     -37.23111269
    ]
   },
   "properties": {
    "name": "1508 ROCKLANDS ROAD ROCKLANDS 3401",
    "locID": "LOC000106562726",
    "tech": "NULL",
    "upgrade": "NULL_NA",
    "gnaf_pid": "GAVIC412194488",
    "tech_change_status": "Not Planned"
   }
  },
  {
   "type": "Feature",
   "geometry": {
    "type": "Point",
    "coordinates": [
     141.98792257,
     -37.31214456
    ]
   },
   "properties": {
    "name": "954 GLENDINNING ROAD ROCKLANDS 3401",
    "locID": "LOC000007135414",
    "tech": "SATELLITE",
    "upgrade": "NULL_NA",
    "gnaf_pid": "GAVIC420865318",
    "tech_change_status": "Not Planned"
   }
  },
  {
   "type": "Feature",
   "geometry": {
    "type": "Point",
    "coordinates": [
     141.98620275,
     -37.32208888
    ]
   },
   "properties": {
    "name": "2314 CAVENDISH-GLENDINNING ROAD ROCKLANDS 3401",
    "locID": "LOC000094987228",
    "tech": "SATELLITE",
    "upgrade": "NULL_NA",
    "gnaf_pid": "GAVIC422282711",
    "tech_change_status": "Not Planned"
   }
  },
  {
   "type": "Feature",
   "geometry": {
    "type": "Point",
    "coordinates": [
     141.95668481,
     -37.22043683
    ]
   },
   "properties": {
    "name": "1478 ROCKLANDS ROAD ROCKLANDS 3401",
    "locID": "LOC000079916555",
    "tech": "WIRELESS",
    "upgrade": "NULL_NA",
    "gnaf_pid": "GAVIC422320418",
    "tech_change_status": "Not Planned",
    "program_type": "Fixed Wireless and Satellite Upgrade Program",
    "target_eligibility_quarter": "NA"
   }
  },
  {
   "type": "Feature",
   "geometry": {
    "type": "Point",
    "coordinates": [
     141.95756474,
     -37.23270074
    ]
   },
   "properties": {
    "name": "1536 ROCKLANDS ROAD ROCKLANDS 3401",
    "locID": "LOC000050282255",
    "tech": "NULL",
    "upgrade": "NULL_NA",
    "gnaf_pid": "GAVIC422320421",
    "tech_change_status": "Not Planned"
   }
  },
  {
   "type": "Feature",
   "geometry": {
    "type": "Point",
    "coordinates": [
     141.98912955,
     -37.29738509
    ]
   },
   "properties": {
    "name": "1237 YARRAMYLJUP ROAD ROCKLANDS 3401",
    "locID": "LOC000048105741",
    "tech": "SATELLITE",
    "upgrade": "NULL_NA",
    "gnaf_pid": "GAVIC422335412",
    "tech_change_status": "Not Planned"
   }
  },
  {
   "type": "Feature",
   "geometry": {
    "type": "Point",
    "coordinates": [
     141.95845164,
     -37.2296725
    ]
   },
   "properties": {
    "name": "1446 ROCKLANDS ROAD ROCKLANDS 3401",
    "locID": "LOC000010186173",
    "tech": "SATELLITE",
    "upgrade": "NULL_NA",
    "gnaf_pid": "GAVIC423387378",
    "tech_change_status": "Not Planned"
   }
  },
  {
   "type": "Feature",
   "geometry": {
    "type": "Point",
    "coordinates": [
     141.96872826,
     -37.21477776
    ]
   },
   "properties": {
    "name": "3233 ROCKLANDS-CHERRYPOOL ROAD ROCKLANDS 3401",
    "locID": "LOC000088496045",
    "tech": "NULL",
    "upgrade": "NULL_NA",
    "gnaf_pid": "GAVIC424274536",
    "tech_change_status": "Not Planned"
   }
  },
  {
   "type": "Feature",
   "geometry": {
    "type": "Point",
    "coordinates": [
     142.15667319,
     -37.33781789
    ]
   },
   "properties": {
    "name": "51 WOOHLPOOER ROAD ROCKLANDS 3401",
    "locID": "LOC000124653255",
    "tech": "NULL",
    "upgrade": "NULL_NA",
    "gnaf_pid": "GAVIC425032268",
    "tech_change_status": "Not Planned"
   }
  },
  {
   "type": "Feature",
   "geometry": {
    "type": "Point",
    "coordinates": [
     141.97292031,
     -37.2109641
    ]
   },
   "properties": {
    "name": "3199 ROCKLANDS-CHERRYPOOL ROAD ROCKLANDS 3401",
    "locID": "LOC100072031336",
    "tech": "NULL",
    "upgrade": "NULL_NA",
    "gnaf_pid": "GAVIC425168507",
    "tech_change_status": "Not Planned"
   }
  }
 ]
}