{
 "type": "FeatureCollection",
 "generated": "2024-07-17T10:32:27.621473",
 "suburb": "SEYMOUR",
 "features": [
  {
   "type": "Feature",
   "geometry": {
    "type": "Point",
    "coordinates": [
     145.14407176,
     -37.01426109
    ]
   },
   "properties": {
    "name": "4 FOLEY AVENUE SEYMOUR 3660",
    "locID": "LOC000043314342",
    "tech": "WIRELESS",
    "upgrade": "NULL_NA",
    "gnaf_pid": "GAVIC412256568",
    "tech_change_status": "Not Planned",
    "program_type": "Fixed Wireless and Satellite Upgrade Program",
    "target_eligibility_quarter": "NA"
   }
  },
  {
   "type": "Feature",
   "geometry": {
    "type": "Point",
    "coordinates": [
     145.14949817,
     -37.01127921
    ]
   },
   "properties": {
    "name": "UNIT 2, 82 REDBANK ROAD SEYMOUR 3660",
    "locID": "LOC000039773104",
    "tech": "FTTN",
    "upgrade": "FTTP_NA",
    "gnaf_pid": "GAVIC412256574",
    "tech_change_status": "MDU Complex Eligible To Apply",
    "program_type": "Customer-initiated N2P MDU Complex"
   }
  },
  {
   "type": "Feature",
   "geometry": {
    "type": "Point",
    "coordinates": [
     145.13647759,
     -37.03058895
    ]
   },
   "properties": {
    "name": "UNIT 2, 47A THE ESPLANADE SEYMOUR 3660",
    "locID": "LOC000102216778",
    "tech": "FTTN",
    "upgrade": "FTTP_SA",
    "gnaf_pid": "GAVIC412264651",
    "tech_change_status": "Eligible To Order",
    "program_type": "On-Demand N2P SDU/MDU Simple",
    "target_eligibility_quarter": "NA"
   }
  },
  {
   "type": "Feature",
   "geometry": {
    "type": "Point",
    "coordinates": [
     145.13518774,
     -37.0282143
    ]
   },
   "properties": {
    "name": "28 PARK STREET SEYMOUR 3660",
    "locID": "LOC000039392170",
    "tech": "FTTN",
    "upgrade": "FTTP_NA",
    "gnaf_pid": "GAVIC412264652",
    "tech_change_status": "MDU Complex Eligible To Apply",
    "program_type": "Customer-initiated N2P MDU Complex"
   }
  },
  {
   "type": "Feature",
   "geometry": {
    "type": "Point",
    "coordinates": [
     145.14604891,
     -37.02357378
    ]
   },
   "properties": {
    "name": "2 MENTOR STREET SEYMOUR 3660",
    "locID": "LOC000086358116",
    "tech": "FTTN",
    "upgrade": "FTTP_SA",
    "gnaf_pid": "GAVIC412265973",
    "tech_change_status": "Eligible To Order",
    "program_type": "On-Demand N2P SDU/MDU Simple",
    "target_eligibility_quarter": "NA"
   }
  },
  {
   "type": "Feature",
   "geometry": {
    "type": "Point",
    "coordinates": [
     145.14533584,
     -37.02455546
    ]
   },
   "properties": {
    "name": "44 OAK STREET SEYMOUR 3660",
    "locID": "LOC000094222569",
    "tech": "FTTN",
    "upgrade": "FTTP_SA",
    "gnaf_pid": "GAVIC412266072",
    "tech_change_status": "Eligible To Order",
    "program_type": "On-Demand N2P SDU/MDU Simple",
    "target_eligibility_quarter": "NA"
   }
  },
  {
   "type": "Feature",
   "geometry": {
    "type": "Point",
    "coordinates": [
     145.13953026,
     -37.02494896
    ]
   },
   "properties": {
    "name": "3 GOULBURN STREET SEYMOUR 3660",
    "locID": "LOC000036004366",
    "tech": "FTTN",
    "upgrade": "FTTP_SA",
    "gnaf_pid": "GAVIC412266938",
    "tech_change_status": "Eligible To Order",
    "program_type": "On-Demand N2P SDU/MDU Simple",
    "target_eligibility_quarter": "NA"
   }
  },
  {
   "type": "Feature",
   "geometry": {
    "type": "Point",
    "coordinates": [
     145.13625908,
     -37.02639528
    ]
   },
   "properties": {
    "name": "5 GUILD STREET SEYMOUR 3660",
    "locID": "LOC000082629030",
    "tech": "FTTN",
    "upgrade": "FTTP_SA",
    "gnaf_pid": "GAVIC412267730",
    "tech_change_status": "Eligible To Order",
    "program_type": "On-Demand N2P SDU/MDU Simple",
    "target_eligibility_quarter": "NA"
   }
  },
  {
   "type": "Feature",
   "geometry": {
    "type": "Point",
    "coordinates": [
     145.14358535,
     -37.02918464
    ]
   },
   "properties": {
    "name": "76 ANZAC AVENUE SEYMOUR 3660",
    "locID": "LOC000125184172",
    "tech": "FTTN",
    "upgrade": "FTTP",
    "gnaf_pid": "GAVIC412267800",
    "tech_change_status": "Eligible To Order",
    "program_type": "On-Demand N2P SDU/MDU Simple",
    "target_eligibility_quarter": "NA"
   }
  },
  {
   "type": "Feature",
   "geometry": {
    "type": "Point",
    "coordinates": [
     145.14123589,
     -37.02586073
    ]
   },
   "properties": {
    "name": "UNIT 2, 8 BETA STREET SEYMOUR 3660",
    "locID": "LOC000038328039",
    "tech": "FTTN",
    "upgrade": "FTTP_NA",
    "gnaf_pid": "GAVIC412267834",
    "tech_change_status": "MDU Complex Eligible To Apply",
    "program_type": "Customer-initiated N2P MDU Complex"
   }
  },
  {
   "type": "Feature",
   "geometry": {
    "type": "Point",
    "coordinates": [
     145.13644358,
     -37.02081729
    ]
   },
   "properties": {
    "name": "52 HIGH STREET SEYMOUR 3660",
    "locID": "LOC000109145668",
    "tech": "FTTN",
    "upgrade": "FTTP",
    "gnaf_pid": "GAVIC412267839",
    "tech_change_status": "Eligible To Order",
    "program_type": "On-Demand N2P SDU/MDU Simple",
    "target_eligibility_quarter": "NA"
   }
  },
  {
   "type": "Feature",
   "geometry": {
    "type": "Point",
    "coordinates": [
     145.14468171,
     -37.03051867
    ]
   },
   "properties": {
    "name": "UNIT 5, 11 ANGLESEY STREET SEYMOUR 3660",
    "locID": "LOC000074821730",
    "tech": "FTTN",
    "upgrade": "FTTP_NA",
    "gnaf_pid": "GAVIC412267866",
    "tech_change_status": "MDU Complex Eligible To Apply",
    "program_type": "Customer-initiated N2P MDU Complex"
   }
  },
  {
   "type": "Feature",
   "geometry": {
    "type": "Point",
    "coordinates": [
     145.14770056,
     -37.01854376
    ]
   },
   "properties": {
    "name": "96 TARCOMBE ROAD SEYMOUR 3660",
    "locID": "LOC000002830300",
    "tech": "FTTP",
    "upgrade": "FTTP_NA",
    "gnaf_pid": "GAVIC412269484",
    "tech_change_status": "Previous Tech Disconnected",
    "program_type": "On-Demand N2P SDU/MDU Simple",
    "target_eligibility_quarter": "NA"
   }
  },
  {
   "type": "Feature",
   "geometry": {
    "type": "Point",
    "coordinates": [
     145.13534508,
     -37.02186673
    ]
   },
   "properties": {
    "name": "UNIT 3, 38 WALLIS STREET SEYMOUR 3660",
    "locID": "LOC000092180409",
    "tech": "FTTN",
    "upgrade": "FTTP_NA",
    "gnaf_pid": "GAVIC412269503",
    "tech_change_status": "MDU Complex Eligible To Apply",
    "program_type": "Customer-initiated N2P MDU Complex"
   }
  },
  {
   "type": "Feature",
   "geometry": {
    "type": "Point",
    "coordinates": [
     145.13564609,
     -37.02224734
    ]
   },
   "properties": {
    "name": "36 TRISTAN STREET SEYMOUR 3660",
    "locID": "LOC000098252667",
    "tech": "FTTN",
    "upgrade": "FTTP_SA",
    "gnaf_pid": "GAVIC412269504",
    "tech_change_status": "Eligible To Order",
    "program_type": "On-Demand N2P SDU/MDU Simple",
    "target_eligibility_quarter": "NA"
   }
  },
  {
   "type": "Feature",
   "geometry": {
    "type": "Point",
    "coordinates": [
     145.13823329,
     -37.02933421
    ]
   },
   "properties": {
    "name": "30 GOULBURN STREET SEYMOUR 3660",
    "locID": "LOC000091075781",
    "tech": "FTTN",
    "upgrade": "FTTP_SA",
    "gnaf_pid": "GAVIC412270355",
    "tech_change_status": "Eligible To Order",
    "program_type": "On-Demand N2P SDU/MDU Simple",
    "target_eligibility_quarter": "NA"
   }
  },
  {
   "type": "Feature",
   "geometry": {
    "type": "Point",
    "coordinates": [
     145.13256984,
     -37.02502489
    ]
   },
   "properties": {
    "name": "8 ALEXANDER STREET SEYMOUR 3660",
    "locID": "LOC000091427488",
    "tech": "FTTN",
    "upgrade": "FTTP",
    "gnaf_pid": "GAVIC412270356",
    "tech_change_status": "Eligible To Order",
    "program_type": "On-Demand N2P SDU/MDU Simple",
    "target_eligibility_quarter": "NA"
   }
  },
  {
   "type": "Feature",
   "geometry": {
    "type": "Point",
    "coordinates": [
     145.12055883,
     -37.02449725
    ]
   },
   "properties": {
    "name": "5 TIERNEY STREET SEYMOUR 3660",
    "locID": "LOC000011044142",
    "tech": "WIRELESS",
    "upgrade": "NULL_NA",
    "gnaf_pid": "GAVIC412270357",
    "tech_change_status": "Not Planned",
    "program_type": "Fixed Wireless and Satellite Upgrade Program",
    "target_eligibility_quarter": "NA"
   }
  },
  {
   "type": "Feature",
   "geometry": {
    "type": "Point",
    "coordinates": [
     145.14011463,
     -37.03033462
    ]
   },
   "properties": {
    "name": "UNIT 1, 13 STEWART STREET SEYMOUR 3660",
    "locID": "LOC000091109179",
    "tech": "FTTN",
    "upgrade": "FTTP_SA",
    "gnaf_pid": "GAVIC412270359",
    "tech_change_status": "Eligible To Order",
    "program_type": "On-Demand N2P SDU/MDU Simple",
    "target_eligibility_quarter": "NA"
   }
  },
  {
   "type": "Feature",
   "geometry": {
    "type": "Point",
    "coordinates": [
     145.13178673,
     -37.02258778
    ]
   },
   "properties": {
    "name": "1 TALLAROOK STREET SEYMOUR 3660",
    "locID": "LOC000053165440",
    "tech": "FTTN",
    "upgrade": "FTTP_NA",
    "gnaf_pid": "GAVIC412270365",
    "tech_change_status": "MDU Complex Eligible To Apply",
    "program_type": "Customer-initiated N2P MDU Complex"
   }
  },
  {
   "type": "Feature",
   "geometry": {
    "type": "Point",
    "coordinates": [
     145.13933692,
     -37.03310046
    ]
   },
   "properties": {
    "name": "20 DELHI STREET SEYMOUR 3660",
    "locID": "LOC000076209256",
    "tech": "FTTN",
    "upgrade": "FTTP_SA",
    "gnaf_pid": "GAVIC412270370",
    "tech_change_status": "Eligible To Order",
    "program_type": "On-Demand N2P SDU/MDU Simple",
    "target_eligibility_quarter": "NA"
   }
  },
  {
   "type": "Feature",
   "geometry": {
    "type": "Point",
    "coordinates": [
     145.13757091,
     -37.02846311
    ]
   },
   "properties": {
    "name": "42 PARK STREET SEYMOUR 3660",
    "locID": "LOC000031066878",
    "tech": "FTTN",
    "upgrade": "FTTP_SA",
    "gnaf_pid": "GAVIC412270371",
    "tech_change_status": "Eligible To Order",
    "program_type": "On-Demand N2P SDU/MDU Simple",
    "target_eligibility_quarter": "NA"
   }
  },
  {
   "type": "Feature",
   "geometry": {
    "type": "Point",
    "coordinates": [
     145.13181226,
     -37.02749307
    ]
   },
   "properties": {
    "name": "25 GORDON CRESCENT SEYMOUR 3660",
    "locID": "LOC000125219393",
    "tech": "FTTN",
    "upgrade": "FTTP_SA",
    "gnaf_pid": "GAVIC412270374",
    "tech_change_status": "Eligible To Order",
    "program_type": "On-Demand N2P SDU/MDU Simple",
    "target_eligibility_quarter": "NA"
   }
  },
  {
   "type": "Feature",
   "geometry": {
    "type": "Point",
    "coordinates": [
     145.13582357,
     -37.02652552
    ]
   },
   "properties": {
    "name": "6 GUILD STREET SEYMOUR 3660",
    "locID": "LOC000068353614",
    "tech": "FTTN",
    "upgrade": "FTTP_SA",
    "gnaf_pid": "GAVIC412270415",
    "tech_change_status": "Eligible To Order",
    "program_type": "On-Demand N2P SDU/MDU Simple",
    "target_eligibility_quarter": "NA"
   }
  },
  {
   "type": "Feature",
   "geometry": {
    "type": "Point",
    "coordinates": [
     145.13769413,
     -37.01978717
    ]
   },
   "properties": {
    "name": "1 CALLEN STREET SEYMOUR 3660",
    "locID": "LOC000083891804",
    "tech": "FTTN",
    "upgrade": "FTTP_SA",
    "gnaf_pid": "GAVIC412271150",
    "tech_change_status": "Eligible To Order",
    "program_type": "On-Demand N2P SDU/MDU Simple",
    "target_eligibility_quarter": "NA"
   }
  },
  {
   "type": "Feature",
   "geometry": {
    "type": "Point",
    "coordinates": [
     145.13808051,
     -37.01969813
    ]
   },
   "properties": {
    "name": "2A CALLEN STREET SEYMOUR 3660",
    "locID": "LOC000047248326",
    "tech": "FTTP",
    "upgrade": "FTTP_NA",
    "gnaf_pid": "GAVIC412271153",
    "tech_change_status": "Previous Tech Disconnected",
    "program_type": "On-Demand N2P SDU/MDU Simple",
    "target_eligibility_quarter": "NA"
   }
  },
  {
   "type": "Feature",
   "geometry": {
    "type": "Point",
    "coordinates": [
     145.14690098,
     -37.02375264
    ]
   },
   "properties": {
    "name": "10 MENTOR STREET SEYMOUR 3660",
    "locID": "LOC000106170963",
    "tech": "FTTN",
    "upgrade": "FTTP",
    "gnaf_pid": "GAVIC412271156",
    "tech_change_status": "Eligible To Order",
    "program_type": "On-Demand N2P SDU/MDU Simple",
    "target_eligibility_quarter": "NA"
   }
  },
  {
   "type": "Feature",
   "geometry": {
    "type": "Point",
    "coordinates": [
     145.16006338,
     -37.07330149
    ]
   },
   "properties": {
    "name": "680 TELEGRAPH ROAD SEYMOUR 3660",
    "locID": "LOC000021142352",
    "tech": "WIRELESS",
    "upgrade": "NULL_NA",
    "gnaf_pid": "GAVIC412271195",
    "tech_change_status": "Not Planned",
    "program_type": "Fixed Wireless and Satellite Upgrade Program",
    "target_eligibility_quarter": "Dec 2024"
   }
  },
  {
   "type": "Feature",
   "geometry": {
    "type": "Point",
    "coordinates": [
     145.1941137,
     -37.02626264
    ]
   },
   "properties": {
    "name": "390 HIGHLANDS ROAD SEYMOUR 3660",
    "locID": "LOC000040487944",
    "tech": "WIRELESS",
    "upgrade": "NULL_NA",
    "gnaf_pid": "GAVIC412271199",
    "tech_change_status": "Not Planned",
    "program_type": "Fixed Wireless and Satellite Upgrade Program",
    "target_eligibility_quarter": "NA"
   }
  },
  {
   "type": "Feature",
   "geometry": {
    "type": "Point",
    "coordinates": [
     145.1371028,
     -37.02840373
    ]
   },
   "properties": {
    "name": "38 PARK STREET SEYMOUR 3660",
    "locID": "LOC000066822763",
    "tech": "FTTN",
    "upgrade": "FTTP_SA",
    "gnaf_pid": "GAVIC412271208",
    "tech_change_status": "Eligible To Order",
    "program_type": "On-Demand N2P SDU/MDU Simple",
    "target_eligibility_quarter": "NA"
   }
  },
  {
   "type": "Feature",
   "geometry": {
    "type": "Point",
    "coordinates": [
     145.14468171,
     -37.03051867
    ]
   },
   "properties": {
    "name": "UNIT 10, 11 ANGLESEY STREET SEYMOUR 3660",
    "locID": "LOC000074614574",
    "tech": "FTTN",
    "upgrade": "FTTP_NA",
    "gnaf_pid": "GAVIC412271259",
    "tech_change_status": "MDU Complex Eligible To Apply",
    "program_type": "Customer-initiated N2P MDU Complex"
   }
  },
  {
   "type": "Feature",
   "geometry": {
    "type": "Point",
    "coordinates": [
     145.14123589,
     -37.02586073
    ]
   },
   "properties": {
    "name": "UNIT 1, 8 BETA STREET SEYMOUR 3660",
    "locID": "LOC000038268489",
    "tech": "FTTN",
    "upgrade": "FTTP_NA",
    "gnaf_pid": "GAVIC412272038",
    "tech_change_status": "MDU Complex Eligible To Apply",
    "program_type": "Customer-initiated N2P MDU Complex"
   }
  },
  {
   "type": "Feature",
   "geometry": {
    "type": "Point",
    "coordinates": [
     145.13886465,
     -37.02543488
    ]
   },
   "properties": {
    "name": "11 DOWLING AVENUE SEYMOUR 3660",
    "locID": "LOC000036910278",
    "tech": "FTTN",
    "upgrade": "FTTP_SA",
    "gnaf_pid": "GAVIC412272039",
    "tech_change_status": "Eligible To Order",
    "program_type": "On-Demand N2P SDU/MDU Simple",
    "target_eligibility_quarter": "NA"
   }
  },
  {
   "type": "Feature",
   "geometry": {
    "type": "Point",
    "coordinates": [
     145.14250859,
     -37.02529218
    ]
   },
   "properties": {
    "name": "5 ALBERT STREET SEYMOUR 3660",
    "locID": "LOC000100553822",
    "tech": "FTTN",
    "upgrade": "FTTP_SA",
    "gnaf_pid": "GAVIC412272040",
    "tech_change_status": "Eligible To Order",
    "program_type": "On-Demand N2P SDU/MDU Simple",
    "target_eligibility_quarter": "NA"
   }
  },
  {
   "type": "Feature",
   "geometry": {
    "type": "Point",
    "coordinates": [
     145.13886465,
     -37.02543488
    ]
   },
   "properties": {
    "name": "13 DOWLING AVENUE SEYMOUR 3660",
    "locID": "LOC000016005272",
    "tech": "FTTP",
    "upgrade": "NULL_NA",
    "gnaf_pid": "GAVIC412272043",
    "tech_change_status": "Eligible To Order",
    "program_type": "On-Demand N2P SDU/MDU Simple",
    "target_eligibility_quarter": "NA"
   }
  },
  {
   "type": "Feature",
   "geometry": {
    "type": "Point",
    "coordinates": [
     145.14123589,
     -37.02586073
    ]
   },
   "properties": {
    "name": "UNIT 1, 10 BETA STREET SEYMOUR 3660",
    "locID": "LOC000033488705",
    "tech": "FTTN",
    "upgrade": "FTTP_NA",
    "gnaf_pid": "GAVIC412272087",
    "tech_change_status": "MDU Complex Eligible To Apply",
    "program_type": "Customer-initiated N2P MDU Complex"
   }
  },
  {
   "type": "Feature",
   "geometry": {
    "type": "Point",
    "coordinates": [
     145.13570157,
     -37.02711522
    ]
   },
   "properties": {
    "name": "UNIT 3, 12 GUILD STREET SEYMOUR 3660",
    "locID": "LOC000057421809",
    "tech": "FTTN",
    "upgrade": "FTTP_SA",
    "gnaf_pid": "GAVIC412273132",
    "tech_change_status": "Eligible To Order",
    "program_type": "On-Demand N2P SDU/MDU Simple",
    "target_eligibility_quarter": "NA"
   }
  },
  {
   "type": "Feature",
   "geometry": {
    "type": "Point",
    "coordinates": [
     145.14276601,
     -37.02870057
    ]
   },
   "properties": {
    "name": "UNIT 1, 68 ANZAC AVENUE SEYMOUR 3660",
    "locID": "LOC000036851922",
    "tech": "FTTN",
    "upgrade": "FTTP",
    "gnaf_pid": "GAVIC412273139",
    "tech_change_status": "Eligible To Order",
    "program_type": "On-Demand N2P SDU/MDU Simple",
    "target_eligibility_quarter": "NA"
   }
  },
  {
   "type": "Feature",
   "geometry": {
    "type": "Point",
    "coordinates": [
     145.1487176,
     -37.0201779
    ]
   },
   "properties": {
    "name": "UNIT 2, 9 GRATTAN STREET SEYMOUR 3660",
    "locID": "LOC000036865635",
    "tech": "FTTN",
    "upgrade": "FTTP_SA",
    "gnaf_pid": "GAVIC412274027",
    "tech_change_status": "Eligible To Order",
    "program_type": "On-Demand N2P SDU/MDU Simple",
    "target_eligibility_quarter": "NA"
   }
  },
  {
   "type": "Feature",
   "geometry": {
    "type": "Point",
    "coordinates": [
     145.14068649,
     -37.02488481
    ]
   },
   "properties": {
    "name": "16 MOYLE STREET SEYMOUR 3660",
    "locID": "LOC000044618873",
    "tech": "FTTP",
    "upgrade": "FTTP_NA",
    "gnaf_pid": "GAVIC412274074",
    "tech_change_status": "Previous Tech Disconnected",
    "program_type": "On-Demand N2P SDU/MDU Simple",
    "target_eligibility_quarter": "NA"
   }
  },
  {
   "type": "Feature",
   "geometry": {
    "type": "Point",
    "coordinates": [
     145.14468171,
     -37.03051867
    ]
   },
   "properties": {
    "name": "UNIT 6, 11 ANGLESEY STREET SEYMOUR 3660",
    "locID": "LOC000074745716",
    "tech": "FTTN",
    "upgrade": "FTTP_NA",
    "gnaf_pid": "GAVIC412274889",
    "tech_change_status": "MDU Complex Eligible To Apply",
    "program_type": "Customer-initiated N2P MDU Complex"
   }
  },
  {
   "type": "Feature",
   "geometry": {
    "type": "Point",
    "coordinates": [
     145.14887773,
     -37.02089382
    ]
   },
   "properties": {
    "name": "UNIT 3, 4 GRATTAN STREET SEYMOUR 3660",
    "locID": "LOC000079008292",
    "tech": "FTTN",
    "upgrade": "FTTP_NA",
    "gnaf_pid": "GAVIC412274926",
    "tech_change_status": "MDU Complex Eligible To Apply",
    "program_type": "Customer-initiated N2P MDU Complex"
   }
  },
  {
   "type": "Feature",
   "geometry": {
    "type": "Point",
    "coordinates": [
     145.14221036,
     -37.02925691
    ]
   },
   "properties": {
    "name": "35 LOCO STREET SEYMOUR 3660",
    "locID": "LOC000092499020",
    "tech": "FTTP",
    "upgrade": "NULL_NA",
    "gnaf_pid": "GAVIC412274979",
    "program_type": "On-Demand N2P SDU/MDU Simple",
    "target_eligibility_quarter": "NA"
   }
  },
  {
   "type": "Feature",
   "geometry": {
    "type": "Point",
    "coordinates": [
     145.14702103,
     -37.06152585
    ]
   },
   "properties": {
    "name": "8 HUME AND HOVELL ROAD SEYMOUR 3660",
    "locID": "LOC000074716420",
    "tech": "FTTN",
    "upgrade": "FTTP_SA",
    "gnaf_pid": "GAVIC412275684",
    "tech_change_status": "Eligible To Order",
    "program_type": "On-Demand N2P SDU/MDU Simple",
    "target_eligibility_quarter": "NA"
   }
  },
  {
   "type": "Feature",
   "geometry": {
    "type": "Point",
    "coordinates": [
     145.14141821,
     -37.02607306
    ]
   },
   "properties": {
    "name": "9 VICTORIA STREET SEYMOUR 3660",
    "locID": "LOC000075857950",
    "tech": "FTTN",
    "upgrade": "FTTP_SA",
    "gnaf_pid": "GAVIC412275704",
    "tech_change_status": "Eligible To Order",
    "program_type": "On-Demand N2P SDU/MDU Simple",
    "target_eligibility_quarter": "NA"
   }
  },
  {
   "type": "Feature",
   "geometry": {
    "type": "Point",
    "coordinates": [
     145.1537421,
     -37.01265364
    ]
   },
   "properties": {
    "name": "42A AVENEL ROAD SEYMOUR 3660",
    "locID": "LOC000047320112",
    "tech": "FTTN",
    "upgrade": "FTTP_SA",
    "gnaf_pid": "GAVIC412275727",
    "tech_change_status": "Eligible To Order",
    "program_type": "On-Demand N2P SDU/MDU Simple",
    "target_eligibility_quarter": "NA"
   }
  },
  {
   "type": "Feature",
   "geometry": {
    "type": "Point",
    "coordinates": [
     145.14468171,
     -37.03051867
    ]
   },
   "properties": {
    "name": "UNIT 4, 11 ANGLESEY STREET SEYMOUR 3660",
    "locID": "LOC000073812431",
    "tech": "FTTN",
    "upgrade": "FTTP_NA",
    "gnaf_pid": "GAVIC412275729",
    "tech_change_status": "MDU Complex Eligible To Apply",
    "program_type": "Customer-initiated N2P MDU Complex"
   }
  },
  {
   "type": "Feature",
   "geometry": {
    "type": "Point",
    "coordinates": [
     145.14468171,
     -37.03051867
    ]
   },
   "properties": {
    "name": "UNIT 8, 11 ANGLESEY STREET SEYMOUR 3660",
    "locID": "LOC000074238009",
    "tech": "FTTN",
    "upgrade": "FTTP_NA",
    "gnaf_pid": "GAVIC412275730",
    "tech_change_status": "MDU Complex Eligible To Apply",
    "program_type": "Customer-initiated N2P MDU Complex"
   }
  },
  {
   "type": "Feature",
   "geometry": {
    "type": "Point",
    "coordinates": [
     145.13534508,
     -37.02186673
    ]
   },
   "properties": {
    "name": "UNIT 2, 38 WALLIS STREET SEYMOUR 3660",
    "locID": "LOC000092180409",
    "tech": "FTTN",
    "upgrade": "FTTP_NA",
    "gnaf_pid": "GAVIC412275768",
    "tech_change_status": "MDU Complex Eligible To Apply",
    "program_type": "Customer-initiated N2P MDU Complex"
   }
  },
  {
   "type": "Feature",
   "geometry": {
    "type": "Point",
    "coordinates": [
     145.13603575,
     -37.03063235
    ]
   },
   "properties": {
    "name": "UNIT 1, 47A THE ESPLANADE SEYMOUR 3660",
    "locID": "LOC000101893571",
    "tech": "FTTN",
    "upgrade": "FTTP_SA",
    "gnaf_pid": "GAVIC412275787",
    "tech_change_status": "Eligible To Order",
    "program_type": "On-Demand N2P SDU/MDU Simple",
    "target_eligibility_quarter": "NA"
   }
  },
  {
   "type": "Feature",
   "geometry": {
    "type": "Point",
    "coordinates": [
     145.14468171,
     -37.03051867
    ]
   },
   "properties": {
    "name": "UNIT 9, 11 ANGLESEY STREET SEYMOUR 3660",
    "locID": "LOC000074205852",
    "tech": "FTTN",
    "upgrade": "FTTP_NA",
    "gnaf_pid": "GAVIC412275863",
    "tech_change_status": "MDU Complex Eligible To Apply",
    "program_type": "Customer-initiated N2P MDU Complex"
   }
  },
  {
   "type": "Feature",
   "geometry": {
    "type": "Point",
    "coordinates": [
     145.13562993,
     -37.02478716
    ]
   },
   "properties": {
    "name": "UNIT 2, 88 STATION STREET SEYMOUR 3660",
    "locID": "LOC000177869374",
    "tech": "FTTN",
    "upgrade": "FTTP_NA",
    "gnaf_pid": "GAVIC412275889",
    "tech_change_status": "MDU Complex Eligible To Apply",
    "program_type": "Customer-initiated N2P MDU Complex"
   }
  },
  {
   "type": "Feature",
   "geometry": {
    "type": "Point",
    "coordinates": [
     145.14949817,
     -37.01127921
    ]
   },
   "properties": {
    "name": "UNIT 6, 82 REDBANK ROAD SEYMOUR 3660",
    "locID": "LOC000040061574",
    "tech": "FTTN",
    "upgrade": "FTTP_NA",
    "gnaf_pid": "GAVIC412275891",
    "tech_change_status": "MDU Complex Eligible To Apply",
    "program_type": "Customer-initiated N2P MDU Complex"
   }
  },
  {
   "type": "Feature",
   "geometry": {
    "type": "Point",
    "coordinates": [
     145.14115052,
     -37.02817554
    ]
   },
   "properties": {
    "name": "1 HUNT STREET SEYMOUR 3660",
    "locID": "LOC000035345514",
    "tech": "FTTN",
    "upgrade": "FTTP_SA",
    "gnaf_pid": "GAVIC412276584",
    "tech_change_status": "Eligible To Order",
    "program_type": "On-Demand N2P SDU/MDU Simple",
    "target_eligibility_quarter": "NA"
   }
  },
  {
   "type": "Feature",
   "geometry": {
    "type": "Point",
    "coordinates": [
     145.12444555,
     -37.02285922
    ]
   },
   "properties": {
    "name": "2 PIPER STREET SEYMOUR 3660",
    "locID": "LOC000046727824",
    "tech": "FTTN",
    "upgrade": "FTTP_SA",
    "gnaf_pid": "GAVIC412276589",
    "tech_change_status": "Eligible To Order",
    "program_type": "On-Demand N2P SDU/MDU Simple",
    "target_eligibility_quarter": "NA"
   }
  },
  {
   "type": "Feature",
   "geometry": {
    "type": "Point",
    "coordinates": [
     145.13100764,
     -37.02680538
    ]
   },
   "properties": {
    "name": "134 ELIZA STREET SEYMOUR 3660",
    "locID": "LOC100056741573",
    "tech": "FTTP",
    "upgrade": "FTTP_NA",
    "gnaf_pid": "GAVIC412276592",
    "tech_change_status": "Previous Tech Disconnected",
    "program_type": "On-Demand N2P SDU/MDU Simple",
    "target_eligibility_quarter": "NA"
   }
  },
  {
   "type": "Feature",
   "geometry": {
    "type": "Point",
    "coordinates": [
     145.14171944,
     -37.02451336
    ]
   },
   "properties": {
    "name": "31 VICTORIA STREET SEYMOUR 3660",
    "locID": "LOC000071794696",
    "tech": "FTTN",
    "upgrade": "FTTP_SA",
    "gnaf_pid": "GAVIC412276791",
    "tech_change_status": "Eligible To Order",
    "program_type": "On-Demand N2P SDU/MDU Simple",
    "target_eligibility_quarter": "NA"
   }
  },
  {
   "type": "Feature",
   "geometry": {
    "type": "Point",
    "coordinates": [
     145.14069903,
     -37.02470056
    ]
   },
   "properties": {
    "name": "UNIT 2, 18 MOYLE STREET SEYMOUR 3660",
    "locID": "LOC000094290871",
    "tech": "FTTN",
    "upgrade": "FTTP_SA",
    "gnaf_pid": "GAVIC412276796",
    "tech_change_status": "Eligible To Order",
    "program_type": "On-Demand N2P SDU/MDU Simple",
    "target_eligibility_quarter": "NA"
   }
  },
  {
   "type": "Feature",
   "geometry": {
    "type": "Point",
    "coordinates": [
     145.14133729,
     -37.02648449
    ]
   },
   "properties": {
    "name": "3 VICTORIA STREET SEYMOUR 3660",
    "locID": "LOC000035270667",
    "tech": "FTTN",
    "upgrade": "FTTP_SA",
    "gnaf_pid": "GAVIC412276799",
    "tech_change_status": "Eligible To Order",
    "program_type": "On-Demand N2P SDU/MDU Simple",
    "target_eligibility_quarter": "NA"
   }
  },
  {
   "type": "Feature",
   "geometry": {
    "type": "Point",
    "coordinates": [
     145.1425655,
     -37.02402115
    ]
   },
   "properties": {
    "name": "28 WIMBLE STREET SEYMOUR 3660",
    "locID": "LOC000088452985",
    "tech": "FTTP",
    "upgrade": "FTTP_NA",
    "gnaf_pid": "GAVIC412277483",
    "tech_change_status": "Previous Tech Disconnected",
    "program_type": "On-Demand N2P SDU/MDU Simple",
    "target_eligibility_quarter": "NA"
   }
  },
  {
   "type": "Feature",
   "geometry": {
    "type": "Point",
    "coordinates": [
     145.14407176,
     -37.01426109
    ]
   },
   "properties": {
    "name": "2 FOLEY AVENUE SEYMOUR 3660",
    "locID": "LOC000024723718",
    "tech": "WIRELESS",
    "upgrade": "NULL_NA",
    "gnaf_pid": "GAVIC412277638",
    "tech_change_status": "Not Planned",
    "program_type": "Fixed Wireless and Satellite Upgrade Program",
    "target_eligibility_quarter": "NA"
   }
  },
  {
   "type": "Feature",
   "geometry": {
    "type": "Point",
    "coordinates": [
     145.13547695,
     -37.02820888
    ]
   },
   "properties": {
    "name": "30 PARK STREET SEYMOUR 3660",
    "locID": "LOC000011975608",
    "tech": "FTTN",
    "upgrade": "FTTP_NA",
    "gnaf_pid": "GAVIC412277698",
    "tech_change_status": "MDU Complex Eligible To Apply",
    "program_type": "Customer-initiated N2P MDU Complex"
   }
  },
  {
   "type": "Feature",
   "geometry": {
    "type": "Point",
    "coordinates": [
     145.14617636,
     -37.01720865
    ]
   },
   "properties": {
    "name": "7 REDBANK ROAD SEYMOUR 3660",
    "locID": "LOC000125179741",
    "tech": "FTTN",
    "upgrade": "FTTP_SA",
    "gnaf_pid": "GAVIC412278446",
    "tech_change_status": "Eligible To Order",
    "program_type": "On-Demand N2P SDU/MDU Simple",
    "target_eligibility_quarter": "NA"
   }
  },
  {
   "type": "Feature",
   "geometry": {
    "type": "Point",
    "coordinates": [
     145.14577385,
     -37.01824438
    ]
   },
   "properties": {
    "name": "163 HIGH STREET SEYMOUR 3660",
    "locID": "LOC000071064148",
    "tech": "FTTN",
    "upgrade": "FTTP_SA",
    "gnaf_pid": "GAVIC412278449",
    "tech_change_status": "Eligible To Order",
    "program_type": "On-Demand N2P SDU/MDU Simple",
    "target_eligibility_quarter": "NA"
   }
  },
  {
   "type": "Feature",
   "geometry": {
    "type": "Point",
    "coordinates": [
     145.14899693,
     -37.01028006
    ]
   },
   "properties": {
    "name": "81 REDBANK ROAD SEYMOUR 3660",
    "locID": "LOC000107625235",
    "tech": "FTTN",
    "upgrade": "FTTP_SA",
    "gnaf_pid": "GAVIC412278450",
    "tech_change_status": "Eligible To Order",
    "program_type": "On-Demand N2P SDU/MDU Simple",
    "target_eligibility_quarter": "NA"
   }
  },
  {
   "type": "Feature",
   "geometry": {
    "type": "Point",
    "coordinates": [
     145.15826935,
     -37.07660786
    ]
   },
   "properties": {
    "name": "770 TELEGRAPH ROAD SEYMOUR 3660",
    "locID": "LOC000024310072",
    "tech": "WIRELESS",
    "upgrade": "NULL_NA",
    "gnaf_pid": "GAVIC412278466",
    "tech_change_status": "Not Planned",
    "program_type": "Fixed Wireless and Satellite Upgrade Program",
    "target_eligibility_quarter": "Dec 2024"
   }
  },
  {
   "type": "Feature",
   "geometry": {
    "type": "Point",
    "coordinates": [
     145.14468171,
     -37.03051867
    ]
   },
   "properties": {
    "name": "UNIT 13, 11 ANGLESEY STREET SEYMOUR 3660",
    "locID": "LOC000074247489",
    "tech": "FTTN",
    "upgrade": "FTTP_NA",
    "gnaf_pid": "GAVIC412278514",
    "tech_change_status": "MDU Complex Eligible To Apply",
    "program_type": "Customer-initiated N2P MDU Complex"
   }
  },
  {
   "type": "Feature",
   "geometry": {
    "type": "Point",
    "coordinates": [
     145.14069903,
     -37.02470056
    ]
   },
   "properties": {
    "name": "UNIT 1, 18 MOYLE STREET SEYMOUR 3660",
    "locID": "LOC000094083272",
    "tech": "FTTN",
    "upgrade": "FTTP_SA",
    "gnaf_pid": "GAVIC412278534",
    "tech_change_status": "Eligible To Order",
    "program_type": "On-Demand N2P SDU/MDU Simple",
    "target_eligibility_quarter": "NA"
   }
  },
  {
   "type": "Feature",
   "geometry": {
    "type": "Point",
    "coordinates": [
     145.14468171,
     -37.03051867
    ]
   },
   "properties": {
    "name": "UNIT 11, 11 ANGLESEY STREET SEYMOUR 3660",
    "locID": "LOC000074169401",
    "tech": "FTTN",
    "upgrade": "FTTP_NA",
    "gnaf_pid": "GAVIC412278538",
    "tech_change_status": "MDU Complex Eligible To Apply",
    "program_type": "Customer-initiated N2P MDU Complex"
   }
  },
  {
   "type": "Feature",
   "geometry": {
    "type": "Point",
    "coordinates": [
     145.16813469,
     -37.03729676
    ]
   },
   "properties": {
    "name": "55 KOBYBOYN ROAD SEYMOUR 3660",
    "locID": "LOC000022975787",
    "tech": "WIRELESS",
    "upgrade": "NULL_NA",
    "gnaf_pid": "GAVIC412279301",
    "tech_change_status": "Not Planned",
    "program_type": "Fixed Wireless and Satellite Upgrade Program",
    "target_eligibility_quarter": "Dec 2024"
   }
  },
  {
   "type": "Feature",
   "geometry": {
    "type": "Point",
    "coordinates": [
     145.14161233,
     -37.02505259
    ]
   },
   "properties": {
    "name": "23 VICTORIA STREET SEYMOUR 3660",
    "locID": "LOC000028834873",
    "tech": "FTTN",
    "upgrade": "FTTP",
    "gnaf_pid": "GAVIC412279321",
    "tech_change_status": "Eligible To Order",
    "program_type": "On-Demand N2P SDU/MDU Simple",
    "target_eligibility_quarter": "NA"
   }
  },
  {
   "type": "Feature",
   "geometry": {
    "type": "Point",
    "coordinates": [
     145.14468171,
     -37.03051867
    ]
   },
   "properties": {
    "name": "UNIT 12, 11 ANGLESEY STREET SEYMOUR 3660",
    "locID": "LOC000074036474",
    "tech": "FTTN",
    "upgrade": "FTTP_NA",
    "gnaf_pid": "GAVIC412279326",
    "tech_change_status": "MDU Complex Eligible To Apply",
    "program_type": "Customer-initiated N2P MDU Complex"
   }
  },
  {
   "type": "Feature",
   "geometry": {
    "type": "Point",
    "coordinates": [
     145.13513707,
     -37.02288505
    ]
   },
   "properties": {
    "name": "UNIT 6, 38 WALLIS STREET SEYMOUR 3660",
    "locID": "LOC000091967263",
    "tech": "FTTN",
    "upgrade": "FTTP_NA",
    "gnaf_pid": "GAVIC412279347",
    "tech_change_status": "MDU Complex Eligible To Apply",
    "program_type": "Customer-initiated N2P MDU Complex"
   }
  },
  {
   "type": "Feature",
   "geometry": {
    "type": "Point",
    "coordinates": [
     145.14037947,
     -37.02495703
    ]
   },
   "properties": {
    "name": "15 MOYLE STREET SEYMOUR 3660",
    "locID": "LOC000103458113",
    "tech": "FTTN",
    "upgrade": "FTTP_SA",
    "gnaf_pid": "GAVIC412279350",
    "tech_change_status": "Eligible To Order",
    "program_type": "On-Demand N2P SDU/MDU Simple",
    "target_eligibility_quarter": "NA"
   }
  },
  {
   "type": "Feature",
   "geometry": {
    "type": "Point",
    "coordinates": [
     145.14237083,
     -37.02337606
    ]
   },
   "properties": {
    "name": "32 VICTORIA STREET SEYMOUR 3660",
    "locID": "LOC000016865631",
    "tech": "FTTN",
    "upgrade": "FTTP_SA",
    "gnaf_pid": "GAVIC412279351",
    "tech_change_status": "Eligible To Order",
    "program_type": "On-Demand N2P SDU/MDU Simple",
    "target_eligibility_quarter": "NA"
   }
  },
  {
   "type": "Feature",
   "geometry": {
    "type": "Point",
    "coordinates": [
     145.14183967,
     -37.02391292
    ]
   },
   "properties": {
    "name": "37 VICTORIA STREET SEYMOUR 3660",
    "locID": "LOC000028890975",
    "tech": "FTTN",
    "upgrade": "FTTP",
    "gnaf_pid": "GAVIC412279357",
    "tech_change_status": "Eligible To Order",
    "program_type": "On-Demand N2P SDU/MDU Simple",
    "target_eligibility_quarter": "NA"
   }
  },
  {
   "type": "Feature",
   "geometry": {
    "type": "Point",
    "coordinates": [
     145.14033286,
     -37.02100249
    ]
   },
   "properties": {
    "name": "UNIT 6, 1 MCINTYRE STREET SEYMOUR 3660",
    "locID": "LOC000020231608",
    "tech": "FTTN",
    "upgrade": "FTTP_NA",
    "gnaf_pid": "GAVIC412279366",
    "tech_change_status": "MDU Complex Eligible To Apply",
    "program_type": "Customer-initiated N2P MDU Complex"
   }
  },
  {
   "type": "Feature",
   "geometry": {
    "type": "Point",
    "coordinates": [
     145.14061965,
     -37.02138483
    ]
   },
   "properties": {
    "name": "UNIT 9, 1 MCINTYRE STREET SEYMOUR 3660",
    "locID": "LOC000020117714",
    "tech": "FTTN",
    "upgrade": "FTTP_NA",
    "gnaf_pid": "GAVIC412279367",
    "tech_change_status": "MDU Complex Eligible To Apply",
    "program_type": "Customer-initiated N2P MDU Complex"
   }
  },
  {
   "type": "Feature",
   "geometry": {
    "type": "Point",
    "coordinates": [
     145.13138397,
     -37.02048537
    ]
   },
   "properties": {
    "name": "UNIT 4, 12 HIGH STREET SEYMOUR 3660",
    "locID": "LOC000066273342",
    "tech": "FTTN",
    "upgrade": "FTTP_NA",
    "gnaf_pid": "GAVIC412279368",
    "tech_change_status": "MDU Complex Eligible To Apply",
    "program_type": "Customer-initiated N2P MDU Complex"
   }
  },
  {
   "type": "Feature",
   "geometry": {
    "type": "Point",
    "coordinates": [
     145.13680013,
     -37.02265416
    ]
   },
   "properties": {
    "name": "27 TRISTAN STREET SEYMOUR 3660",
    "locID": "LOC000125223832",
    "tech": "FTTP",
    "upgrade": "NULL_NA",
    "gnaf_pid": "GAVIC412279370",
    "tech_change_status": "Previous Tech Disconnected",
    "program_type": "On-Demand N2P SDU/MDU Simple",
    "target_eligibility_quarter": "NA"
   }
  },
  {
   "type": "Feature",
   "geometry": {
    "type": "Point",
    "coordinates": [
     145.1313278,
     -37.02063098
    ]
   },
   "properties": {
    "name": "UNIT 5, 12 HIGH STREET SEYMOUR 3660",
    "locID": "LOC000066155173",
    "tech": "FTTN",
    "upgrade": "FTTP_NA",
    "gnaf_pid": "GAVIC412279503",
    "tech_change_status": "MDU Complex Eligible To Apply",
    "program_type": "Customer-initiated N2P MDU Complex"
   }
  },
  {
   "type": "Feature",
   "geometry": {
    "type": "Point",
    "coordinates": [
     145.13341395,
     -37.02478741
    ]
   },
   "properties": {
    "name": "11 TALLAROOK STREET SEYMOUR 3660",
    "locID": "LOC000046612010",
    "tech": "FTTN",
    "upgrade": "FTTP_SA",
    "gnaf_pid": "GAVIC412280030",
    "tech_change_status": "Eligible To Order",
    "program_type": "On-Demand N2P SDU/MDU Simple",
    "target_eligibility_quarter": "NA"
   }
  },
  {
   "type": "Feature",
   "geometry": {
    "type": "Point",
    "coordinates": [
     145.13673356,
     -37.03041973
    ]
   },
   "properties": {
    "name": "UNIT 3, 47A THE ESPLANADE SEYMOUR 3660",
    "locID": "LOC000102216778",
    "tech": "FTTN",
    "upgrade": "FTTP_SA",
    "gnaf_pid": "GAVIC412280041",
    "tech_change_status": "Eligible To Order",
    "program_type": "On-Demand N2P SDU/MDU Simple",
    "target_eligibility_quarter": "NA"
   }
  },
  {
   "type": "Feature",
   "geometry": {
    "type": "Point",
    "coordinates": [
     145.14163011,
     -37.02496305
    ]
   },
   "properties": {
    "name": "25 VICTORIA STREET SEYMOUR 3660",
    "locID": "LOC000031070270",
    "tech": "FTTP",
    "upgrade": "FTTP_NA",
    "gnaf_pid": "GAVIC412280069",
    "tech_change_status": "Previous Tech Disconnected",
    "program_type": "On-Demand N2P SDU/MDU Simple",
    "target_eligibility_quarter": "NA"
   }
  },
  {
   "type": "Feature",
   "geometry": {
    "type": "Point",
    "coordinates": [
     145.13139098,
     -37.02075295
    ]
   },
   "properties": {
    "name": "UNIT 2, 12 HIGH STREET SEYMOUR 3660",
    "locID": "LOC000066176344",
    "tech": "FTTN",
    "upgrade": "FTTP_NA",
    "gnaf_pid": "GAVIC412280189",
    "tech_change_status": "MDU Complex Eligible To Apply",
    "program_type": "Customer-initiated N2P MDU Complex"
   }
  },
  {
   "type": "Feature",
   "geometry": {
    "type": "Point",
    "coordinates": [
     145.1485332,
     -37.02483841
    ]
   },
   "properties": {
    "name": "UNIT 2, 89 WIMBLE STREET SEYMOUR 3660",
    "locID": "LOC000179404253",
    "tech": "FTTP",
    "upgrade": "FTTP_NA",
    "gnaf_pid": "GAVIC412280479",
    "tech_change_status": "Previous Tech Disconnected",
    "program_type": "On-Demand N2P SDU/MDU Simple",
    "target_eligibility_quarter": "NA"
   }
  },
  {
   "type": "Feature",
   "geometry": {
    "type": "Point",
    "coordinates": [
     145.13634839,
     -37.02830803
    ]
   },
   "properties": {
    "name": "32 PARK STREET SEYMOUR 3660",
    "locID": "LOC000047450116",
    "tech": "FTTN",
    "upgrade": "FTTP_SA",
    "gnaf_pid": "GAVIC412280891",
    "tech_change_status": "Eligible To Order",
    "program_type": "On-Demand N2P SDU/MDU Simple",
    "target_eligibility_quarter": "NA"
   }
  },
  {
   "type": "Feature",
   "geometry": {
    "type": "Point",
    "coordinates": [
     145.14568429,
     -37.02283541
    ]
   },
   "properties": {
    "name": "54 OAK STREET SEYMOUR 3660",
    "locID": "LOC000059603331",
    "tech": "FTTN",
    "upgrade": "FTTP_SA",
    "gnaf_pid": "GAVIC412282832",
    "tech_change_status": "Eligible To Order",
    "program_type": "On-Demand N2P SDU/MDU Simple",
    "target_eligibility_quarter": "NA"
   }
  },
  {
   "type": "Feature",
   "geometry": {
    "type": "Point",
    "coordinates": [
     145.15021425,
     -37.03180625
    ]
   },
   "properties": {
    "name": "UNIT 2, 5 HOWE STREET SEYMOUR 3660",
    "locID": "LOC000039373275",
    "tech": "FTTN",
    "upgrade": "FTTP_NA",
    "gnaf_pid": "GAVIC412282847",
    "tech_change_status": "MDU Complex Eligible To Apply",
    "program_type": "Customer-initiated N2P MDU Complex"
   }
  },
  {
   "type": "Feature",
   "geometry": {
    "type": "Point",
    "coordinates": [
     145.13844029,
     -37.02573466
    ]
   },
   "properties": {
    "name": "7 DOWLING AVENUE SEYMOUR 3660",
    "locID": "LOC000033750379",
    "tech": "FTTN",
    "upgrade": "FTTP_SA",
    "gnaf_pid": "GAVIC412282870",
    "tech_change_status": "Eligible To Order",
    "program_type": "On-Demand N2P SDU/MDU Simple",
    "target_eligibility_quarter": "NA"
   }
  },
  {
   "type": "Feature",
   "geometry": {
    "type": "Point",
    "coordinates": [
     145.14137995,
     -37.02621476
    ]
   },
   "properties": {
    "name": "7 VICTORIA STREET SEYMOUR 3660",
    "locID": "LOC000076170823",
    "tech": "FTTN",
    "upgrade": "FTTP_SA",
    "gnaf_pid": "GAVIC412282884",
    "tech_change_status": "Eligible To Order",
    "program_type": "On-Demand N2P SDU/MDU Simple",
    "target_eligibility_quarter": "NA"
   }
  },
  {
   "type": "Feature",
   "geometry": {
    "type": "Point",
    "coordinates": [
     145.14135457,
     -37.02634281
    ]
   },
   "properties": {
    "name": "5 VICTORIA STREET SEYMOUR 3660",
    "locID": "LOC000019631595",
    "tech": "FTTN",
    "upgrade": "FTTP_SA",
    "gnaf_pid": "GAVIC412282885",
    "tech_change_status": "Eligible To Order",
    "program_type": "On-Demand N2P SDU/MDU Simple",
    "target_eligibility_quarter": "NA"
   }
  },
  {
   "type": "Feature",
   "geometry": {
    "type": "Point",
    "coordinates": [
     145.14073915,
     -37.02453066
    ]
   },
   "properties": {
    "name": "20 MOYLE STREET SEYMOUR 3660",
    "locID": "LOC000051860060",
    "tech": "FTTP",
    "upgrade": "FTTP_NA",
    "gnaf_pid": "GAVIC412282886",
    "tech_change_status": "Previous Tech Disconnected",
    "program_type": "On-Demand N2P SDU/MDU Simple",
    "target_eligibility_quarter": "NA"
   }
  },
  {
   "type": "Feature",
   "geometry": {
    "type": "Point",
    "coordinates": [
     145.14520461,
     -37.02520868
    ]
   },
   "properties": {
    "name": "UNIT 3, 36 OAK STREET SEYMOUR 3660",
    "locID": "LOC000063783072",
    "tech": "FTTN",
    "upgrade": "FTTP_NA",
    "gnaf_pid": "GAVIC412283831",
    "tech_change_status": "MDU Complex Eligible To Apply",
    "program_type": "Customer-initiated N2P MDU Complex"
   }
  },
  {
   "type": "Feature",
   "geometry": {
    "type": "Point",
    "coordinates": [
     145.15974584,
     -37.0738734
    ]
   },
   "properties": {
    "name": "700 TELEGRAPH ROAD SEYMOUR 3660",
    "locID": "LOC000108114444",
    "tech": "WIRELESS",
    "upgrade": "NULL_NA",
    "gnaf_pid": "GAVIC412285438",
    "tech_change_status": "Not Planned",
    "program_type": "Fixed Wireless and Satellite Upgrade Program",
    "target_eligibility_quarter": "Dec 2024"
   }
  },
  {
   "type": "Feature",
   "geometry": {
    "type": "Point",
    "coordinates": [
     145.14949817,
     -37.01127921
    ]
   },
   "properties": {
    "name": "UNIT 4, 82 REDBANK ROAD SEYMOUR 3660",
    "locID": "LOC000039574918",
    "tech": "FTTN",
    "upgrade": "FTTP_NA",
    "gnaf_pid": "GAVIC412285504",
    "tech_change_status": "MDU Complex Eligible To Apply",
    "program_type": "Customer-initiated N2P MDU Complex"
   }
  },
  {
   "type": "Feature",
   "geometry": {
    "type": "Point",
    "coordinates": [
     145.14011463,
     -37.03033462
    ]
   },
   "properties": {
    "name": "13 STEWART STREET SEYMOUR 3660",
    "locID": "LOC000090962827",
    "tech": "FTTN",
    "upgrade": "FTTP_SA",
    "gnaf_pid": "GAVIC412285555",
    "tech_change_status": "Eligible To Order",
    "program_type": "On-Demand N2P SDU/MDU Simple",
    "target_eligibility_quarter": "NA"
   }
  },
  {
   "type": "Feature",
   "geometry": {
    "type": "Point",
    "coordinates": [
     145.14754784,
     -37.00827028
    ]
   },
   "properties": {
    "name": "89 REDBANK ROAD SEYMOUR 3660",
    "locID": "LOC000036459941",
    "tech": "FTTN",
    "upgrade": "FTTP_SA",
    "gnaf_pid": "GAVIC412285622",
    "tech_change_status": "Eligible To Order",
    "program_type": "On-Demand N2P SDU/MDU Simple",
    "target_eligibility_quarter": "NA"
   }
  },
  {
   "type": "Feature",
   "geometry": {
    "type": "Point",
    "coordinates": [
     145.1482653,
     -37.00871943
    ]
   },
   "properties": {
    "name": "87 REDBANK ROAD SEYMOUR 3660",
    "locID": "LOC000104489060",
    "tech": "FTTN",
    "upgrade": "FTTP_SA",
    "gnaf_pid": "GAVIC412285623",
    "tech_change_status": "Eligible To Order",
    "program_type": "On-Demand N2P SDU/MDU Simple",
    "target_eligibility_quarter": "NA"
   }
  },
  {
   "type": "Feature",
   "geometry": {
    "type": "Point",
    "coordinates": [
     145.14423283,
     -37.01789912
    ]
   },
   "properties": {
    "name": "28 HANLEY CRESCENT SEYMOUR 3660",
    "locID": "LOC000026164565",
    "tech": "FTTN",
    "upgrade": "FTTP_SA",
    "gnaf_pid": "GAVIC412285626",
    "tech_change_status": "Eligible To Order",
    "program_type": "On-Demand N2P SDU/MDU Simple",
    "target_eligibility_quarter": "NA"
   }
  },
  {
   "type": "Feature",
   "geometry": {
    "type": "Point",
    "coordinates": [
     145.14949817,
     -37.01127921
    ]
   },
   "properties": {
    "name": "UNIT 5, 82 REDBANK ROAD SEYMOUR 3660",
    "locID": "LOC000040175581",
    "tech": "FTTN",
    "upgrade": "FTTP_NA",
    "gnaf_pid": "GAVIC412286130",
    "tech_change_status": "MDU Complex Eligible To Apply",
    "program_type": "Customer-initiated N2P MDU Complex"
   }
  },
  {
   "type": "Feature",
   "geometry": {
    "type": "Point",
    "coordinates": [
     145.13968176,
     -37.03297749
    ]
   },
   "properties": {
    "name": "24 DELHI STREET SEYMOUR 3660",
    "locID": "LOC000071532108",
    "tech": "FTTP",
    "upgrade": "NULL_NA",
    "gnaf_pid": "GAVIC412286180",
    "program_type": "On-Demand N2P SDU/MDU Simple",
    "target_eligibility_quarter": "NA"
   }
  },
  {
   "type": "Feature",
   "geometry": {
    "type": "Point",
    "coordinates": [
     145.13985237,
     -37.02132115
    ]
   },
   "properties": {
    "name": "23 CRAWFORD STREET SEYMOUR 3660",
    "locID": "LOC100052451542",
    "tech": "FTTN",
    "upgrade": "FTTP_SA",
    "gnaf_pid": "GAVIC412286232",
    "tech_change_status": "Eligible To Order",
    "program_type": "On-Demand N2P SDU/MDU Simple",
    "target_eligibility_quarter": "NA"
   }
  },
  {
   "type": "Feature",
   "geometry": {
    "type": "Point",
    "coordinates": [
     145.13728721,
     -37.0227182
    ]
   },
   "properties": {
    "name": "UNIT 1, 23 TRISTAN STREET SEYMOUR 3660",
    "locID": "LOC000007107256",
    "tech": "FTTN",
    "upgrade": "FTTP_SA",
    "gnaf_pid": "GAVIC412287438",
    "tech_change_status": "Eligible To Order",
    "program_type": "On-Demand N2P SDU/MDU Simple",
    "target_eligibility_quarter": "NA"
   }
  },
  {
   "type": "Feature",
   "geometry": {
    "type": "Point",
    "coordinates": [
     145.13592439,
     -37.03030991
    ]
   },
   "properties": {
    "name": "45 THE ESPLANADE SEYMOUR 3660",
    "locID": "LOC000100732703",
    "tech": "FTTN",
    "upgrade": "FTTP_SA",
    "gnaf_pid": "GAVIC412288157",
    "tech_change_status": "Eligible To Order",
    "program_type": "On-Demand N2P SDU/MDU Simple",
    "target_eligibility_quarter": "NA"
   }
  },
  {
   "type": "Feature",
   "geometry": {
    "type": "Point",
    "coordinates": [
     145.14594093,
     -37.01101978
    ]
   },
   "properties": {
    "name": "23 GOULBURN VALLEY HIGHWAY SEYMOUR 3660",
    "locID": "LOC000092608541",
    "tech": "WIRELESS",
    "upgrade": "NULL_NA",
    "gnaf_pid": "GAVIC412288164",
    "tech_change_status": "Not Planned",
    "program_type": "Fixed Wireless and Satellite Upgrade Program",
    "target_eligibility_quarter": "Dec 2024"
   }
  },
  {
   "type": "Feature",
   "geometry": {
    "type": "Point",
    "coordinates": [
     145.13013161,
     -37.0170087
    ]
   },
   "properties": {
    "name": "4 HANNA STREET SEYMOUR 3660",
    "locID": "LOC000051728251",
    "tech": "FTTN",
    "upgrade": "FTTP_SA",
    "gnaf_pid": "GAVIC412288168",
    "tech_change_status": "Eligible To Order",
    "program_type": "On-Demand N2P SDU/MDU Simple",
    "target_eligibility_quarter": "NA"
   }
  },
  {
   "type": "Feature",
   "geometry": {
    "type": "Point",
    "coordinates": [
     145.1383244,
     -37.02583109
    ]
   },
   "properties": {
    "name": "5 DOWLING AVENUE SEYMOUR 3660",
    "locID": "LOC000035239659",
    "tech": "FTTN",
    "upgrade": "FTTP_SA",
    "gnaf_pid": "GAVIC412288169",
    "tech_change_status": "Eligible To Order",
    "program_type": "On-Demand N2P SDU/MDU Simple",
    "target_eligibility_quarter": "NA"
   }
  },
  {
   "type": "Feature",
   "geometry": {
    "type": "Point",
    "coordinates": [
     145.14885629,
     -37.03101412
    ]
   },
   "properties": {
    "name": "UNIT 5, 24 POLLARD STREET SEYMOUR 3660",
    "locID": "LOC000047855163",
    "tech": "FTTN",
    "upgrade": "FTTP_NA",
    "gnaf_pid": "GAVIC412288200",
    "tech_change_status": "MDU Complex Eligible To Apply",
    "program_type": "Customer-initiated N2P MDU Complex"
   }
  },
  {
   "type": "Feature",
   "geometry": {
    "type": "Point",
    "coordinates": [
     145.14061965,
     -37.02138483
    ]
   },
   "properties": {
    "name": "UNIT 2, 1 MCINTYRE STREET SEYMOUR 3660",
    "locID": "LOC000020207311",
    "tech": "FTTN",
    "upgrade": "FTTP_NA",
    "gnaf_pid": "GAVIC412289814",
    "tech_change_status": "MDU Complex Eligible To Apply",
    "program_type": "Customer-initiated N2P MDU Complex"
   }
  },
  {
   "type": "Feature",
   "geometry": {
    "type": "Point",
    "coordinates": [
     145.14061965,
     -37.02138483
    ]
   },
   "properties": {
    "name": "UNIT 4, 1 MCINTYRE STREET SEYMOUR 3660",
    "locID": "LOC000020301626",
    "tech": "FTTN",
    "upgrade": "FTTP_NA",
    "gnaf_pid": "GAVIC412289816",
    "tech_change_status": "MDU Complex Eligible To Apply",
    "program_type": "Customer-initiated N2P MDU Complex"
   }
  },
  {
   "type": "Feature",
   "geometry": {
    "type": "Point",
    "coordinates": [
     145.13534508,
     -37.02186673
    ]
   },
   "properties": {
    "name": "UNIT 1, 38 WALLIS STREET SEYMOUR 3660",
    "locID": "LOC000091932840",
    "tech": "FTTN",
    "upgrade": "FTTP_NA",
    "gnaf_pid": "GAVIC412289818",
    "tech_change_status": "MDU Complex Eligible To Apply",
    "program_type": "Customer-initiated N2P MDU Complex"
   }
  },
  {
   "type": "Feature",
   "geometry": {
    "type": "Point",
    "coordinates": [
     145.13985237,
     -37.02132115
    ]
   },
   "properties": {
    "name": "UNIT 1, 23 CRAWFORD STREET SEYMOUR 3660",
    "locID": "LOC100052451542",
    "tech": "FTTN",
    "upgrade": "FTTP_SA",
    "gnaf_pid": "GAVIC412289821",
    "tech_change_status": "Eligible To Order",
    "program_type": "On-Demand N2P SDU/MDU Simple",
    "target_eligibility_quarter": "NA"
   }
  },
  {
   "type": "Feature",
   "geometry": {
    "type": "Point",
    "coordinates": [
     145.13694644,
     -37.01981869
    ]
   },
   "properties": {
    "name": "4 PRESIDENT STREET SEYMOUR 3660",
    "locID": "LOC000125197767",
    "tech": "FTTN",
    "upgrade": "FTTP_NA",
    "gnaf_pid": "GAVIC412289856",
    "tech_change_status": "MDU Complex Eligible To Apply",
    "program_type": "Customer-initiated N2P MDU Complex"
   }
  },
  {
   "type": "Feature",
   "geometry": {
    "type": "Point",
    "coordinates": [
     145.13106105,
     -37.01819228
    ]
   },
   "properties": {
    "name": "66 EMILY STREET SEYMOUR 3660",
    "locID": "LOC000125179597",
    "tech": "FTTN",
    "upgrade": "FTTP_SA",
    "gnaf_pid": "GAVIC412289871",
    "tech_change_status": "Eligible To Order",
    "program_type": "On-Demand N2P SDU/MDU Simple",
    "target_eligibility_quarter": "NA"
   }
  },
  {
   "type": "Feature",
   "geometry": {
    "type": "Point",
    "coordinates": [
     145.14131294,
     -37.02480909
    ]
   },
   "properties": {
    "name": "UNIT 3, 27 VICTORIA STREET SEYMOUR 3660",
    "locID": "LOC000086332222",
    "tech": "FTTN",
    "upgrade": "FTTP_SA",
    "gnaf_pid": "GAVIC412289877",
    "tech_change_status": "Eligible To Order",
    "program_type": "On-Demand N2P SDU/MDU Simple",
    "target_eligibility_quarter": "NA"
   }
  },
  {
   "type": "Feature",
   "geometry": {
    "type": "Point",
    "coordinates": [
     145.137703,
     -37.02150754
    ]
   },
   "properties": {
    "name": "22 BUTLER STREET SEYMOUR 3660",
    "locID": "LOC000023568650",
    "tech": "FTTN",
    "upgrade": "FTTP",
    "gnaf_pid": "GAVIC412289904",
    "tech_change_status": "Eligible To Order",
    "program_type": "On-Demand N2P SDU/MDU Simple",
    "target_eligibility_quarter": "NA"
   }
  },
  {
   "type": "Feature",
   "geometry": {
    "type": "Point",
    "coordinates": [
     145.14061965,
     -37.02138483
    ]
   },
   "properties": {
    "name": "UNIT 7, 1 MCINTYRE STREET SEYMOUR 3660",
    "locID": "LOC000020171151",
    "tech": "FTTN",
    "upgrade": "FTTP_NA",
    "gnaf_pid": "GAVIC412289910",
    "tech_change_status": "MDU Complex Eligible To Apply",
    "program_type": "Customer-initiated N2P MDU Complex"
   }
  },
  {
   "type": "Feature",
   "geometry": {
    "type": "Point",
    "coordinates": [
     145.14887773,
     -37.02089382
    ]
   },
   "properties": {
    "name": "UNIT 4, 4 GRATTAN STREET SEYMOUR 3660",
    "locID": "LOC000079008292",
    "tech": "FTTN",
    "upgrade": "FTTP_NA",
    "gnaf_pid": "GAVIC412289950",
    "tech_change_status": "MDU Complex Eligible To Apply",
    "program_type": "Customer-initiated N2P MDU Complex"
   }
  },
  {
   "type": "Feature",
   "geometry": {
    "type": "Point",
    "coordinates": [
     145.1487176,
     -37.0201779
    ]
   },
   "properties": {
    "name": "UNIT 3, 9 GRATTAN STREET SEYMOUR 3660",
    "locID": "LOC000036923084",
    "tech": "FTTP",
    "upgrade": "FTTP_NA",
    "gnaf_pid": "GAVIC412289966",
    "tech_change_status": "Previous Tech Disconnected",
    "program_type": "On-Demand N2P SDU/MDU Simple",
    "target_eligibility_quarter": "NA"
   }
  },
  {
   "type": "Feature",
   "geometry": {
    "type": "Point",
    "coordinates": [
     145.14468171,
     -37.03051867
    ]
   },
   "properties": {
    "name": "UNIT 7, 11 ANGLESEY STREET SEYMOUR 3660",
    "locID": "LOC000074274604",
    "tech": "FTTN",
    "upgrade": "FTTP_NA",
    "gnaf_pid": "GAVIC412290704",
    "tech_change_status": "MDU Complex Eligible To Apply",
    "program_type": "Customer-initiated N2P MDU Complex"
   }
  },
  {
   "type": "Feature",
   "geometry": {
    "type": "Point",
    "coordinates": [
     145.14473823,
     -37.01799054
    ]
   },
   "properties": {
    "name": "26 HANLEY CRESCENT SEYMOUR 3660",
    "locID": "LOC000061912954",
    "tech": "FTTN",
    "upgrade": "FTTP_SA",
    "gnaf_pid": "GAVIC412290736",
    "tech_change_status": "Eligible To Order",
    "program_type": "On-Demand N2P SDU/MDU Simple",
    "target_eligibility_quarter": "NA"
   }
  },
  {
   "type": "Feature",
   "geometry": {
    "type": "Point",
    "coordinates": [
     145.13513707,
     -37.02288505
    ]
   },
   "properties": {
    "name": "UNIT 4, 38 WALLIS STREET SEYMOUR 3660",
    "locID": "LOC000092176311",
    "tech": "FTTN",
    "upgrade": "FTTP_NA",
    "gnaf_pid": "GAVIC412291909",
    "tech_change_status": "MDU Complex Eligible To Apply",
    "program_type": "Customer-initiated N2P MDU Complex"
   }
  },
  {
   "type": "Feature",
   "geometry": {
    "type": "Point",
    "coordinates": [
     145.14033489,
     -37.02099246
    ]
   },
   "properties": {
    "name": "34 CRAWFORD STREET SEYMOUR 3660",
    "locID": "LOC000032693223",
    "tech": "FTTN",
    "upgrade": "FTTP_NA",
    "gnaf_pid": "GAVIC412291914",
    "tech_change_status": "MDU Complex Eligible To Apply",
    "program_type": "Customer-initiated N2P MDU Complex"
   }
  },
  {
   "type": "Feature",
   "geometry": {
    "type": "Point",
    "coordinates": [
     145.13819188,
     -37.0238837
    ]
   },
   "properties": {
    "name": "26 STATION STREET SEYMOUR 3660",
    "locID": "LOC000036860937",
    "tech": "FTTN",
    "upgrade": "FTTP_SA",
    "gnaf_pid": "GAVIC412291916",
    "tech_change_status": "Eligible To Order",
    "program_type": "On-Demand N2P SDU/MDU Simple",
    "target_eligibility_quarter": "NA"
   }
  },
  {
   "type": "Feature",
   "geometry": {
    "type": "Point",
    "coordinates": [
     145.15307402,
     -37.01680565
    ]
   },
   "properties": {
    "name": "144 TARCOMBE ROAD SEYMOUR 3660",
    "locID": "LOC000182925746",
    "tech": "FTTP",
    "upgrade": "NULL_NA",
    "gnaf_pid": "GAVIC412293181"
   }
  },
  {
   "type": "Feature",
   "geometry": {
    "type": "Point",
    "coordinates": [
     145.12391941,
     -37.02141391
    ]
   },
   "properties": {
    "name": "14A EMILY STREET SEYMOUR 3660",
    "locID": "LOC000097073832",
    "tech": "FTTP",
    "upgrade": "FTTP_NA",
    "gnaf_pid": "GAVIC412293501",
    "tech_change_status": "Previous Tech Disconnected",
    "program_type": "On-Demand N2P SDU/MDU Simple",
    "target_eligibility_quarter": "NA"
   }
  },
  {
   "type": "Feature",
   "geometry": {
    "type": "Point",
    "coordinates": [
     145.1249561,
     -37.02270341
    ]
   },
   "properties": {
    "name": "6 PIPER STREET SEYMOUR 3660",
    "locID": "LOC000051489105",
    "tech": "FTTN",
    "upgrade": "FTTP_SA",
    "gnaf_pid": "GAVIC412293503",
    "tech_change_status": "Eligible To Order",
    "program_type": "On-Demand N2P SDU/MDU Simple",
    "target_eligibility_quarter": "NA"
   }
  },
  {
   "type": "Feature",
   "geometry": {
    "type": "Point",
    "coordinates": [
     145.12474378,
     -37.0227682
    ]
   },
   "properties": {
    "name": "4 PIPER STREET SEYMOUR 3660",
    "locID": "LOC000006124793",
    "tech": "FTTP",
    "upgrade": "FTTP_NA",
    "gnaf_pid": "GAVIC412293505",
    "tech_change_status": "Previous Tech Disconnected",
    "program_type": "On-Demand N2P SDU/MDU Simple",
    "target_eligibility_quarter": "NA"
   }
  },
  {
   "type": "Feature",
   "geometry": {
    "type": "Point",
    "coordinates": [
     145.11967009,
     -37.02117096
    ]
   },
   "properties": {
    "name": "4 EMILY STREET SEYMOUR 3660",
    "locID": "LOC000066570450",
    "tech": "WIRELESS",
    "upgrade": "NULL_NA",
    "gnaf_pid": "GAVIC412293506",
    "tech_change_status": "Not Planned",
    "program_type": "Fixed Wireless and Satellite Upgrade Program",
    "target_eligibility_quarter": "NA"
   }
  },
  {
   "type": "Feature",
   "geometry": {
    "type": "Point",
    "coordinates": [
     145.13133674,
     -37.02073965
    ]
   },
   "properties": {
    "name": "UNIT 6, 12 HIGH STREET SEYMOUR 3660",
    "locID": "LOC000066511731",
    "tech": "FTTN",
    "upgrade": "FTTP_NA",
    "gnaf_pid": "GAVIC412293557",
    "tech_change_status": "MDU Complex Eligible To Apply",
    "program_type": "Customer-initiated N2P MDU Complex"
   }
  },
  {
   "type": "Feature",
   "geometry": {
    "type": "Point",
    "coordinates": [
     145.14061965,
     -37.02138483
    ]
   },
   "properties": {
    "name": "UNIT 8, 1 MCINTYRE STREET SEYMOUR 3660",
    "locID": "LOC000020435379",
    "tech": "FTTN",
    "upgrade": "FTTP_NA",
    "gnaf_pid": "GAVIC412293561",
    "tech_change_status": "MDU Complex Eligible To Apply",
    "program_type": "Customer-initiated N2P MDU Complex"
   }
  },
  {
   "type": "Feature",
   "geometry": {
    "type": "Point",
    "coordinates": [
     145.14061965,
     -37.02138483
    ]
   },
   "properties": {
    "name": "UNIT 5, 1 MCINTYRE STREET SEYMOUR 3660",
    "locID": "LOC000020218376",
    "tech": "FTTN",
    "upgrade": "FTTP_NA",
    "gnaf_pid": "GAVIC412293562",
    "tech_change_status": "MDU Complex Eligible To Apply",
    "program_type": "Customer-initiated N2P MDU Complex"
   }
  },
  {
   "type": "Feature",
   "geometry": {
    "type": "Point",
    "coordinates": [
     145.14885629,
     -37.03101412
    ]
   },
   "properties": {
    "name": "UNIT 3, 24 POLLARD STREET SEYMOUR 3660",
    "locID": "LOC000045987127",
    "tech": "FTTN",
    "upgrade": "FTTP_NA",
    "gnaf_pid": "GAVIC412295008",
    "tech_change_status": "MDU Complex Eligible To Apply",
    "program_type": "Customer-initiated N2P MDU Complex"
   }
  },
  {
   "type": "Feature",
   "geometry": {
    "type": "Point",
    "coordinates": [
     145.17316584,
     -37.0244956
    ]
   },
   "properties": {
    "name": "155 HIGHLANDS ROAD SEYMOUR 3660",
    "locID": "LOC000016911894",
    "tech": "WIRELESS",
    "upgrade": "NULL_NA",
    "gnaf_pid": "GAVIC412295040",
    "tech_change_status": "Not Planned",
    "program_type": "Fixed Wireless and Satellite Upgrade Program",
    "target_eligibility_quarter": "Dec 2024"
   }
  },
  {
   "type": "Feature",
   "geometry": {
    "type": "Point",
    "coordinates": [
     145.14555093,
     -37.02828694
    ]
   },
   "properties": {
    "name": "38 ALFRED STREET SEYMOUR 3660",
    "locID": "LOC000058575202",
    "tech": "FTTN",
    "upgrade": "FTTP_SA",
    "gnaf_pid": "GAVIC412295042",
    "tech_change_status": "Eligible To Order",
    "program_type": "On-Demand N2P SDU/MDU Simple",
    "target_eligibility_quarter": "NA"
   }
  },
  {
   "type": "Feature",
   "geometry": {
    "type": "Point",
    "coordinates": [
     145.14885629,
     -37.03101412
    ]
   },
   "properties": {
    "name": "UNIT 1, 24 POLLARD STREET SEYMOUR 3660",
    "locID": "LOC000048271413",
    "tech": "FTTN",
    "upgrade": "FTTP_NA",
    "gnaf_pid": "GAVIC412295054",
    "tech_change_status": "MDU Complex Eligible To Apply",
    "program_type": "Customer-initiated N2P MDU Complex"
   }
  },
  {
   "type": "Feature",
   "geometry": {
    "type": "Point",
    "coordinates": [
     145.14885629,
     -37.03101412
    ]
   },
   "properties": {
    "name": "UNIT 2, 24 POLLARD STREET SEYMOUR 3660",
    "locID": "LOC000045987127",
    "tech": "FTTN",
    "upgrade": "FTTP_NA",
    "gnaf_pid": "GAVIC412295180",
    "tech_change_status": "MDU Complex Eligible To Apply",
    "program_type": "Customer-initiated N2P MDU Complex"
   }
  },
  {
   "type": "Feature",
   "geometry": {
    "type": "Point",
    "coordinates": [
     145.13534508,
     -37.02186673
    ]
   },
   "properties": {
    "name": "UNIT 5, 38 WALLIS STREET SEYMOUR 3660",
    "locID": "LOC000090319998",
    "tech": "FTTN",
    "upgrade": "FTTP_NA",
    "gnaf_pid": "GAVIC412296015",
    "tech_change_status": "MDU Complex Eligible To Apply",
    "program_type": "Customer-initiated N2P MDU Complex"
   }
  },
  {
   "type": "Feature",
   "geometry": {
    "type": "Point",
    "coordinates": [
     145.14512375,
     -37.02561121
    ]
   },
   "properties": {
    "name": "32 OAK STREET SEYMOUR 3660",
    "locID": "LOC000038163100",
    "tech": "FTTP",
    "upgrade": "FTTP_NA",
    "gnaf_pid": "GAVIC412296035",
    "tech_change_status": "Previous Tech Disconnected",
    "program_type": "On-Demand N2P SDU/MDU Simple",
    "target_eligibility_quarter": "NA"
   }
  },
  {
   "type": "Feature",
   "geometry": {
    "type": "Point",
    "coordinates": [
     145.15016419,
     -37.01757379
    ]
   },
   "properties": {
    "name": "UNIT 1, 118 TARCOMBE ROAD SEYMOUR 3660",
    "locID": "LOC000012757395",
    "tech": "FTTN",
    "upgrade": "FTTP_SA",
    "gnaf_pid": "GAVIC412296166",
    "tech_change_status": "Eligible To Order",
    "program_type": "On-Demand N2P SDU/MDU Simple",
    "target_eligibility_quarter": "NA"
   }
  },
  {
   "type": "Feature",
   "geometry": {
    "type": "Point",
    "coordinates": [
     145.1310425,
     -37.02013075
    ]
   },
   "properties": {
    "name": "8 HIGH STREET SEYMOUR 3660",
    "locID": "LOC000026105105",
    "tech": "FTTN",
    "upgrade": "FTTP_SA",
    "gnaf_pid": "GAVIC412296261",
    "tech_change_status": "Eligible To Order",
    "program_type": "On-Demand N2P SDU/MDU Simple",
    "target_eligibility_quarter": "NA"
   }
  },
  {
   "type": "Feature",
   "geometry": {
    "type": "Point",
    "coordinates": [
     145.14123589,
     -37.02586073
    ]
   },
   "properties": {
    "name": "UNIT 2, 10 BETA STREET SEYMOUR 3660",
    "locID": "LOC000033488705",
    "tech": "FTTN",
    "upgrade": "FTTP_NA",
    "gnaf_pid": "GAVIC412296265",
    "tech_change_status": "MDU Complex Eligible To Apply",
    "program_type": "Customer-initiated N2P MDU Complex"
   }
  },
  {
   "type": "Feature",
   "geometry": {
    "type": "Point",
    "coordinates": [
     145.13725594,
     -37.02283273
    ]
   },
   "properties": {
    "name": "UNIT 2, 23 TRISTAN STREET SEYMOUR 3660",
    "locID": "LOC000007187935",
    "tech": "FTTN",
    "upgrade": "FTTP_SA",
    "gnaf_pid": "GAVIC412296266",
    "tech_change_status": "Eligible To Order",
    "program_type": "On-Demand N2P SDU/MDU Simple",
    "target_eligibility_quarter": "NA"
   }
  },
  {
   "type": "Feature",
   "geometry": {
    "type": "Point",
    "coordinates": [
     145.14938797,
     -37.02573589
    ]
   },
   "properties": {
    "name": "UNIT 4, 96 WIMBLE STREET SEYMOUR 3660",
    "locID": "LOC000092377254",
    "tech": "FTTN",
    "upgrade": "FTTP_NA",
    "gnaf_pid": "GAVIC412296806",
    "tech_change_status": "MDU Complex Eligible To Apply",
    "program_type": "Customer-initiated N2P MDU Complex"
   }
  },
  {
   "type": "Feature",
   "geometry": {
    "type": "Point",
    "coordinates": [
     145.14854319,
     -37.03148992
    ]
   },
   "properties": {
    "name": "UNIT 3, 147 ANZAC AVENUE SEYMOUR 3660",
    "locID": "LOC000075218766",
    "tech": "FTTN",
    "upgrade": "FTTP_NA",
    "gnaf_pid": "GAVIC412296812",
    "tech_change_status": "MDU Complex Eligible To Apply",
    "program_type": "Customer-initiated N2P MDU Complex"
   }
  },
  {
   "type": "Feature",
   "geometry": {
    "type": "Point",
    "coordinates": [
     145.14069903,
     -37.02470056
    ]
   },
   "properties": {
    "name": "18 MOYLE STREET SEYMOUR 3660",
    "locID": "LOC000094083272",
    "tech": "FTTN",
    "upgrade": "FTTP_SA",
    "gnaf_pid": "GAVIC412298628",
    "tech_change_status": "Eligible To Order",
    "program_type": "On-Demand N2P SDU/MDU Simple",
    "target_eligibility_quarter": "NA"
   }
  },
  {
   "type": "Feature",
   "geometry": {
    "type": "Point",
    "coordinates": [
     145.14627371,
     -37.02473614
    ]
   },
   "properties": {
    "name": "66 WIMBLE STREET SEYMOUR 3660",
    "locID": "LOC000023477867",
    "tech": "FTTN",
    "upgrade": "FTTP_SA",
    "gnaf_pid": "GAVIC412298730",
    "tech_change_status": "Eligible To Order",
    "program_type": "On-Demand N2P SDU/MDU Simple",
    "target_eligibility_quarter": "NA"
   }
  },
  {
   "type": "Feature",
   "geometry": {
    "type": "Point",
    "coordinates": [
     145.14963916,
     -37.0109342
    ]
   },
   "properties": {
    "name": "UNIT 2, 86 REDBANK ROAD SEYMOUR 3660",
    "locID": "LOC000039244172",
    "tech": "FTTP",
    "upgrade": "FTTP_NA",
    "gnaf_pid": "GAVIC412298757",
    "tech_change_status": "Previous Tech Disconnected",
    "program_type": "On-Demand N2P SDU/MDU Simple",
    "target_eligibility_quarter": "NA"
   }
  },
  {
   "type": "Feature",
   "geometry": {
    "type": "Point",
    "coordinates": [
     145.14458074,
     -37.02829513
    ]
   },
   "properties": {
    "name": "8 OAK STREET SEYMOUR 3660",
    "locID": "LOC000125179521",
    "tech": "FTTP",
    "upgrade": "NULL_NA",
    "gnaf_pid": "GAVIC412299516",
    "program_type": "On-Demand N2P SDU/MDU Simple",
    "target_eligibility_quarter": "NA"
   }
  },
  {
   "type": "Feature",
   "geometry": {
    "type": "Point",
    "coordinates": [
     145.13702444,
     -37.02429369
    ]
   },
   "properties": {
    "name": "52 STATION STREET SEYMOUR 3660",
    "locID": "LOC000063673755",
    "tech": "FTTN",
    "upgrade": "FTTP_SA",
    "gnaf_pid": "GAVIC412299657",
    "tech_change_status": "Eligible To Order",
    "program_type": "On-Demand N2P SDU/MDU Simple",
    "target_eligibility_quarter": "NA"
   }
  },
  {
   "type": "Feature",
   "geometry": {
    "type": "Point",
    "coordinates": [
     145.14165358,
     -37.02484491
    ]
   },
   "properties": {
    "name": "UNIT 1, 27 VICTORIA STREET SEYMOUR 3660",
    "locID": "LOC000086332222",
    "tech": "FTTN",
    "upgrade": "FTTP_SA",
    "gnaf_pid": "GAVIC412299658",
    "tech_change_status": "Eligible To Order",
    "program_type": "On-Demand N2P SDU/MDU Simple",
    "target_eligibility_quarter": "NA"
   }
  },
  {
   "type": "Feature",
   "geometry": {
    "type": "Point",
    "coordinates": [
     145.14949817,
     -37.01127921
    ]
   },
   "properties": {
    "name": "UNIT 3, 82 REDBANK ROAD SEYMOUR 3660",
    "locID": "LOC000040002598",
    "tech": "FTTN",
    "upgrade": "FTTP_NA",
    "gnaf_pid": "GAVIC412299659",
    "tech_change_status": "MDU Complex Eligible To Apply",
    "program_type": "Customer-initiated N2P MDU Complex"
   }
  },
  {
   "type": "Feature",
   "geometry": {
    "type": "Point",
    "coordinates": [
     145.14854319,
     -37.03148992
    ]
   },
   "properties": {
    "name": "UNIT 2, 147 ANZAC AVENUE SEYMOUR 3660",
    "locID": "LOC000075602898",
    "tech": "FTTN",
    "upgrade": "FTTP_NA",
    "gnaf_pid": "GAVIC412299665",
    "tech_change_status": "MDU Complex Eligible To Apply",
    "program_type": "Customer-initiated N2P MDU Complex"
   }
  },
  {
   "type": "Feature",
   "geometry": {
    "type": "Point",
    "coordinates": [
     145.14061965,
     -37.02138483
    ]
   },
   "properties": {
    "name": "UNIT 3, 1 MCINTYRE STREET SEYMOUR 3660",
    "locID": "LOC000020507541",
    "tech": "FTTN",
    "upgrade": "FTTP_NA",
    "gnaf_pid": "GAVIC412300463",
    "tech_change_status": "MDU Complex Eligible To Apply",
    "program_type": "Customer-initiated N2P MDU Complex"
   }
  },
  {
   "type": "Feature",
   "geometry": {
    "type": "Point",
    "coordinates": [
     145.14854319,
     -37.03148992
    ]
   },
   "properties": {
    "name": "UNIT 4, 147 ANZAC AVENUE SEYMOUR 3660",
    "locID": "LOC000075374318",
    "tech": "FTTN",
    "upgrade": "FTTP_NA",
    "gnaf_pid": "GAVIC412300465",
    "tech_change_status": "MDU Complex Eligible To Apply",
    "program_type": "Customer-initiated N2P MDU Complex"
   }
  },
  {
   "type": "Feature",
   "geometry": {
    "type": "Point",
    "coordinates": [
     145.14854319,
     -37.03148992
    ]
   },
   "properties": {
    "name": "UNIT 5, 147 ANZAC AVENUE SEYMOUR 3660",
    "locID": "LOC000077895393",
    "tech": "FTTN",
    "upgrade": "FTTP_NA",
    "gnaf_pid": "GAVIC412300639",
    "tech_change_status": "MDU Complex Eligible To Apply",
    "program_type": "Customer-initiated N2P MDU Complex"
   }
  },
  {
   "type": "Feature",
   "geometry": {
    "type": "Point",
    "coordinates": [
     145.13513707,
     -37.02288505
    ]
   },
   "properties": {
    "name": "UNIT 7, 38 WALLIS STREET SEYMOUR 3660",
    "locID": "LOC000092288084",
    "tech": "FTTN",
    "upgrade": "FTTP_NA",
    "gnaf_pid": "GAVIC412302352",
    "tech_change_status": "MDU Complex Eligible To Apply",
    "program_type": "Customer-initiated N2P MDU Complex"
   }
  },
  {
   "type": "Feature",
   "geometry": {
    "type": "Point",
    "coordinates": [
     145.14885629,
     -37.03101412
    ]
   },
   "properties": {
    "name": "UNIT 6, 24 POLLARD STREET SEYMOUR 3660",
    "locID": "LOC000048275924",
    "tech": "FTTN",
    "upgrade": "FTTP_NA",
    "gnaf_pid": "GAVIC412303048",
    "tech_change_status": "MDU Complex Eligible To Apply",
    "program_type": "Customer-initiated N2P MDU Complex"
   }
  },
  {
   "type": "Feature",
   "geometry": {
    "type": "Point",
    "coordinates": [
     145.15021425,
     -37.03180625
    ]
   },
   "properties": {
    "name": "UNIT 4, 5 HOWE STREET SEYMOUR 3660",
    "locID": "LOC000039679681",
    "tech": "FTTN",
    "upgrade": "FTTP_NA",
    "gnaf_pid": "GAVIC412303055",
    "tech_change_status": "MDU Complex Eligible To Apply",
    "program_type": "Customer-initiated N2P MDU Complex"
   }
  },
  {
   "type": "Feature",
   "geometry": {
    "type": "Point",
    "coordinates": [
     145.14907992,
     -37.01229602
    ]
   },
   "properties": {
    "name": "70 REDBANK ROAD SEYMOUR 3660",
    "locID": "LOC000115041143",
    "tech": "FTTN",
    "upgrade": "FTTP_NA",
    "gnaf_pid": "GAVIC412303068",
    "tech_change_status": "MDU Complex Eligible To Apply",
    "program_type": "Customer-initiated N2P MDU Complex"
   }
  },
  {
   "type": "Feature",
   "geometry": {
    "type": "Point",
    "coordinates": [
     145.1473713,
     -37.02025183
    ]
   },
   "properties": {
    "name": "UNIT 2, 3 ABDALLAH ROAD SEYMOUR 3660",
    "locID": "LOC000018415157",
    "tech": "FTTN",
    "upgrade": "FTTP_SA",
    "gnaf_pid": "GAVIC412303211",
    "tech_change_status": "Eligible To Order",
    "program_type": "On-Demand N2P SDU/MDU Simple",
    "target_eligibility_quarter": "NA"
   }
  },
  {
   "type": "Feature",
   "geometry": {
    "type": "Point",
    "coordinates": [
     145.13751806,
     -37.02412108
    ]
   },
   "properties": {
    "name": "40A STATION STREET SEYMOUR 3660",
    "locID": "LOC000018187288",
    "tech": "FTTN",
    "upgrade": "NULL_NA",
    "gnaf_pid": "GAVIC412303219",
    "tech_change_status": "Not Planned"
   }
  },
  {
   "type": "Feature",
   "geometry": {
    "type": "Point",
    "coordinates": [
     145.15021425,
     -37.03180625
    ]
   },
   "properties": {
    "name": "UNIT 1, 5 HOWE STREET SEYMOUR 3660",
    "locID": "LOC000040012247",
    "tech": "FTTN",
    "upgrade": "FTTP_NA",
    "gnaf_pid": "GAVIC412304109",
    "tech_change_status": "MDU Complex Eligible To Apply",
    "program_type": "Customer-initiated N2P MDU Complex"
   }
  },
  {
   "type": "Feature",
   "geometry": {
    "type": "Point",
    "coordinates": [
     145.14235904,
     -37.02408191
    ]
   },
   "properties": {
    "name": "26 WIMBLE STREET SEYMOUR 3660",
    "locID": "LOC000027825282",
    "tech": "FTTN",
    "upgrade": "FTTP_SA",
    "gnaf_pid": "GAVIC412305972",
    "tech_change_status": "Eligible To Order",
    "program_type": "On-Demand N2P SDU/MDU Simple",
    "target_eligibility_quarter": "NA"
   }
  },
  {
   "type": "Feature",
   "geometry": {
    "type": "Point",
    "coordinates": [
     145.16222563,
     -37.02639808
    ]
   },
   "properties": {
    "name": "42 HIGHLANDS ROAD SEYMOUR 3660",
    "locID": "LOC000019463669",
    "tech": "FTTN",
    "upgrade": "FTTP_SA",
    "gnaf_pid": "GAVIC412306596",
    "tech_change_status": "Eligible To Order",
    "program_type": "On-Demand N2P SDU/MDU Simple",
    "target_eligibility_quarter": "NA"
   }
  },
  {
   "type": "Feature",
   "geometry": {
    "type": "Point",
    "coordinates": [
     145.15337214,
     -37.02959678
    ]
   },
   "properties": {
    "name": "UNIT 3, 44 SINCLAIR CRESCENT SEYMOUR 3660",
    "locID": "LOC000077060327",
    "tech": "FTTN",
    "upgrade": "FTTP_SA",
    "gnaf_pid": "GAVIC412306597",
    "tech_change_status": "Eligible To Order",
    "program_type": "On-Demand N2P SDU/MDU Simple",
    "target_eligibility_quarter": "NA"
   }
  },
  {
   "type": "Feature",
   "geometry": {
    "type": "Point",
    "coordinates": [
     145.15337214,
     -37.02959678
    ]
   },
   "properties": {
    "name": "UNIT 2, 44 SINCLAIR CRESCENT SEYMOUR 3660",
    "locID": "LOC000077387060",
    "tech": "FTTP",
    "upgrade": "FTTP_NA",
    "gnaf_pid": "GAVIC412306598",
    "tech_change_status": "Previous Tech Disconnected",
    "program_type": "On-Demand N2P SDU/MDU Simple",
    "target_eligibility_quarter": "NA"
   }
  },
  {
   "type": "Feature",
   "geometry": {
    "type": "Point",
    "coordinates": [
     145.14885629,
     -37.03101412
    ]
   },
   "properties": {
    "name": "UNIT 4, 24 POLLARD STREET SEYMOUR 3660",
    "locID": "LOC000045987127",
    "tech": "FTTN",
    "upgrade": "FTTP_NA",
    "gnaf_pid": "GAVIC412306805",
    "tech_change_status": "MDU Complex Eligible To Apply",
    "program_type": "Customer-initiated N2P MDU Complex"
   }
  },
  {
   "type": "Feature",
   "geometry": {
    "type": "Point",
    "coordinates": [
     145.14145715,
     -37.02482799
    ]
   },
   "properties": {
    "name": "UNIT 2, 27 VICTORIA STREET SEYMOUR 3660",
    "locID": "LOC000086332222",
    "tech": "FTTN",
    "upgrade": "FTTP_SA",
    "gnaf_pid": "GAVIC412306942",
    "tech_change_status": "Eligible To Order",
    "program_type": "On-Demand N2P SDU/MDU Simple",
    "target_eligibility_quarter": "NA"
   }
  },
  {
   "type": "Feature",
   "geometry": {
    "type": "Point",
    "coordinates": [
     145.14887773,
     -37.02089382
    ]
   },
   "properties": {
    "name": "UNIT 2, 4 GRATTAN STREET SEYMOUR 3660",
    "locID": "LOC000078118120",
    "tech": "FTTN",
    "upgrade": "FTTP_NA",
    "gnaf_pid": "GAVIC412306958",
    "tech_change_status": "MDU Complex Eligible To Apply",
    "program_type": "Customer-initiated N2P MDU Complex"
   }
  },
  {
   "type": "Feature",
   "geometry": {
    "type": "Point",
    "coordinates": [
     145.13885124,
     -37.02364927
    ]
   },
   "properties": {
    "name": "12 STATION STREET SEYMOUR 3660",
    "locID": "LOC000077369230",
    "tech": "FTTP",
    "upgrade": "FTTP_NA",
    "gnaf_pid": "GAVIC412307575",
    "tech_change_status": "Previous Tech Disconnected",
    "program_type": "On-Demand N2P SDU/MDU Simple",
    "target_eligibility_quarter": "NA"
   }
  },
  {
   "type": "Feature",
   "geometry": {
    "type": "Point",
    "coordinates": [
     145.14762602,
     -37.03010432
    ]
   },
   "properties": {
    "name": "UNIT 2, 6 POLLARD STREET SEYMOUR 3660",
    "locID": "LOC000039348397",
    "tech": "FTTN",
    "upgrade": "FTTP_SA",
    "gnaf_pid": "GAVIC412308154",
    "tech_change_status": "Eligible To Order",
    "program_type": "On-Demand N2P SDU/MDU Simple",
    "target_eligibility_quarter": "NA"
   }
  },
  {
   "type": "Feature",
   "geometry": {
    "type": "Point",
    "coordinates": [
     145.15021425,
     -37.03180625
    ]
   },
   "properties": {
    "name": "UNIT 3, 5 HOWE STREET SEYMOUR 3660",
    "locID": "LOC000040163348",
    "tech": "FTTN",
    "upgrade": "FTTP_NA",
    "gnaf_pid": "GAVIC412308158",
    "tech_change_status": "MDU Complex Eligible To Apply",
    "program_type": "Customer-initiated N2P MDU Complex"
   }
  },
  {
   "type": "Feature",
   "geometry": {
    "type": "Point",
    "coordinates": [
     145.12690143,
     -37.02067146
    ]
   },
   "properties": {
    "name": "35A EMILY STREET SEYMOUR 3660",
    "locID": "LOC000125232797",
    "tech": "FTTP",
    "upgrade": "FTTP_NA",
    "gnaf_pid": "GAVIC414458090",
    "tech_change_status": "Previous Tech Disconnected",
    "program_type": "On-Demand N2P SDU/MDU Simple",
    "target_eligibility_quarter": "NA"
   }
  },
  {
   "type": "Feature",
   "geometry": {
    "type": "Point",
    "coordinates": [
     145.15632271,
     -37.02666611
    ]
   },
   "properties": {
    "name": "124 WIMBLE STREET SEYMOUR 3660",
    "locID": "LOC000021813325",
    "tech": "FTTN",
    "upgrade": "FTTP",
    "gnaf_pid": "GAVIC414458828",
    "tech_change_status": "Eligible To Order",
    "program_type": "On-Demand N2P SDU/MDU Simple",
    "target_eligibility_quarter": "NA"
   }
  },
  {
   "type": "Feature",
   "geometry": {
    "type": "Point",
    "coordinates": [
     145.15205958,
     -37.02449193
    ]
   },
   "properties": {
    "name": "115 WIMBLE STREET SEYMOUR 3660",
    "locID": "LOC000180634296",
    "tech": "FTTN",
    "upgrade": "FTTP",
    "gnaf_pid": "GAVIC414458831",
    "tech_change_status": "New Tech Connected"
   }
  },
  {
   "type": "Feature",
   "geometry": {
    "type": "Point",
    "coordinates": [
     145.15720815,
     -37.02586583
    ]
   },
   "properties": {
    "name": "UNIT 2, 145 WIMBLE STREET SEYMOUR 3660",
    "locID": "LOC000016531822",
    "tech": "FTTN",
    "upgrade": "FTTP_NA",
    "gnaf_pid": "GAVIC414458833",
    "tech_change_status": "MDU Complex Eligible To Apply",
    "program_type": "Customer-initiated N2P MDU Complex"
   }
  },
  {
   "type": "Feature",
   "geometry": {
    "type": "Point",
    "coordinates": [
     145.15720815,
     -37.02586583
    ]
   },
   "properties": {
    "name": "UNIT 3, 145 WIMBLE STREET SEYMOUR 3660",
    "locID": "LOC000016044059",
    "tech": "FTTN",
    "upgrade": "FTTP_NA",
    "gnaf_pid": "GAVIC414458834",
    "tech_change_status": "MDU Complex Eligible To Apply",
    "program_type": "Customer-initiated N2P MDU Complex"
   }
  },
  {
   "type": "Feature",
   "geometry": {
    "type": "Point",
    "coordinates": [
     145.14686051,
     -37.03018858
    ]
   },
   "properties": {
    "name": "UNIT 1, 6 KEITH STREET SEYMOUR 3660",
    "locID": "LOC000173328803",
    "tech": "FTTN",
    "upgrade": "FTTP_SA",
    "gnaf_pid": "GAVIC414458917",
    "tech_change_status": "Eligible To Order",
    "program_type": "On-Demand N2P SDU/MDU Simple",
    "target_eligibility_quarter": "NA"
   }
  },
  {
   "type": "Feature",
   "geometry": {
    "type": "Point",
    "coordinates": [
     145.13147896,
     -37.02379499
    ]
   },
   "properties": {
    "name": "28 ALEXANDER STREET SEYMOUR 3660",
    "locID": "LOC000125228228",
    "tech": "FTTN",
    "upgrade": "FTTP_SA",
    "gnaf_pid": "GAVIC414462291",
    "tech_change_status": "Eligible To Order",
    "program_type": "On-Demand N2P SDU/MDU Simple",
    "target_eligibility_quarter": "NA"
   }
  },
  {
   "type": "Feature",
   "geometry": {
    "type": "Point",
    "coordinates": [
     145.13147896,
     -37.02379499
    ]
   },
   "properties": {
    "name": "30 ALEXANDER STREET SEYMOUR 3660",
    "locID": "LOC000125228228",
    "tech": "FTTN",
    "upgrade": "FTTP_SA",
    "gnaf_pid": "GAVIC414462292",
    "tech_change_status": "Eligible To Order",
    "program_type": "On-Demand N2P SDU/MDU Simple",
    "target_eligibility_quarter": "NA"
   }
  },
  {
   "type": "Feature",
   "geometry": {
    "type": "Point",
    "coordinates": [
     145.13106105,
     -37.01819228
    ]
   },
   "properties": {
    "name": "66-68 EMILY STREET SEYMOUR 3660",
    "locID": "LOC000125179597",
    "tech": "FTTN",
    "upgrade": "FTTP_SA",
    "gnaf_pid": "GAVIC414462616",
    "tech_change_status": "Eligible To Order",
    "program_type": "On-Demand N2P SDU/MDU Simple",
    "target_eligibility_quarter": "NA"
   }
  },
  {
   "type": "Feature",
   "geometry": {
    "type": "Point",
    "coordinates": [
     145.12756898,
     -37.01980145
    ]
   },
   "properties": {
    "name": "34 EMILY STREET SEYMOUR 3660",
    "locID": "LOC000080476369",
    "tech": "FTTN",
    "upgrade": "FTTP_SA",
    "gnaf_pid": "GAVIC414462631",
    "tech_change_status": "Eligible To Order",
    "program_type": "On-Demand N2P SDU/MDU Simple",
    "target_eligibility_quarter": "NA"
   }
  },
  {
   "type": "Feature",
   "geometry": {
    "type": "Point",
    "coordinates": [
     145.12475067,
     -37.0210764
    ]
   },
   "properties": {
    "name": "16 EMILY STREET SEYMOUR 3660",
    "locID": "LOC000045388587",
    "tech": "FTTN",
    "upgrade": "FTTP_SA",
    "gnaf_pid": "GAVIC414462637",
    "tech_change_status": "Eligible To Order",
    "program_type": "On-Demand N2P SDU/MDU Simple",
    "target_eligibility_quarter": "NA"
   }
  },
  {
   "type": "Feature",
   "geometry": {
    "type": "Point",
    "coordinates": [
     145.12108212,
     -37.02150667
    ]
   },
   "properties": {
    "name": "46 EMILY STREET SEYMOUR 3660",
    "locID": "LOC000007020675",
    "tech": "FTTN",
    "upgrade": "FTTP_SA",
    "gnaf_pid": "GAVIC414462643",
    "tech_change_status": "Eligible To Order",
    "program_type": "On-Demand N2P SDU/MDU Simple",
    "target_eligibility_quarter": "NA"
   }
  },
  {
   "type": "Feature",
   "geometry": {
    "type": "Point",
    "coordinates": [
     145.13513707,
     -37.02288505
    ]
   },
   "properties": {
    "name": "UNIT 5, 30 WALLIS STREET SEYMOUR 3660",
    "locID": "LOC000172741661",
    "tech": "FTTN",
    "upgrade": "FTTP_NA",
    "gnaf_pid": "GAVIC414463360",
    "tech_change_status": "MDU Complex Eligible To Apply",
    "program_type": "Customer-initiated N2P MDU Complex"
   }
  },
  {
   "type": "Feature",
   "geometry": {
    "type": "Point",
    "coordinates": [
     145.13829904,
     -37.02901159
    ]
   },
   "properties": {
    "name": "26 GOULBURN STREET SEYMOUR 3660",
    "locID": "LOC000069461407",
    "tech": "FTTP",
    "upgrade": "FTTP_NA",
    "gnaf_pid": "GAVIC414464177",
    "tech_change_status": "Previous Tech Disconnected",
    "program_type": "On-Demand N2P SDU/MDU Simple",
    "target_eligibility_quarter": "NA"
   }
  },
  {
   "type": "Feature",
   "geometry": {
    "type": "Point",
    "coordinates": [
     145.14762602,
     -37.03010432
    ]
   },
   "properties": {
    "name": "6 POLLARD STREET SEYMOUR 3660",
    "locID": "LOC000039348397",
    "tech": "FTTN",
    "upgrade": "FTTP_SA",
    "gnaf_pid": "GAVIC414464985",
    "tech_change_status": "Eligible To Order",
    "program_type": "On-Demand N2P SDU/MDU Simple",
    "target_eligibility_quarter": "NA"
   }
  },
  {
   "type": "Feature",
   "geometry": {
    "type": "Point",
    "coordinates": [
     145.14686051,
     -37.03018858
    ]
   },
   "properties": {
    "name": "UNIT 2, 6 KEITH STREET SEYMOUR 3660",
    "locID": "LOC000173328803",
    "tech": "FTTN",
    "upgrade": "FTTP_SA",
    "gnaf_pid": "GAVIC414464986",
    "tech_change_status": "Eligible To Order",
    "program_type": "On-Demand N2P SDU/MDU Simple",
    "target_eligibility_quarter": "NA"
   }
  },
  {
   "type": "Feature",
   "geometry": {
    "type": "Point",
    "coordinates": [
     145.14686051,
     -37.03018858
    ]
   },
   "properties": {
    "name": "UNIT 3, 6 KEITH STREET SEYMOUR 3660",
    "locID": "LOC000173328803",
    "tech": "FTTN",
    "upgrade": "FTTP_SA",
    "gnaf_pid": "GAVIC414464987",
    "tech_change_status": "Eligible To Order",
    "program_type": "On-Demand N2P SDU/MDU Simple",
    "target_eligibility_quarter": "NA"
   }
  },
  {
   "type": "Feature",
   "geometry": {
    "type": "Point",
    "coordinates": [
     145.14686051,
     -37.03018858
    ]
   },
   "properties": {
    "name": "UNIT 4, 6 KEITH STREET SEYMOUR 3660",
    "locID": "LOC000173328803",
    "tech": "FTTN",
    "upgrade": "FTTP_SA",
    "gnaf_pid": "GAVIC414464988",
    "tech_change_status": "Eligible To Order",
    "program_type": "On-Demand N2P SDU/MDU Simple",
    "target_eligibility_quarter": "NA"
   }
  },
  {
   "type": "Feature",
   "geometry": {
    "type": "Point",
    "coordinates": [
     145.14686051,
     -37.03018858
    ]
   },
   "properties": {
    "name": "UNIT 5, 6 KEITH STREET SEYMOUR 3660",
    "locID": "LOC000173328803",
    "tech": "FTTN",
    "upgrade": "FTTP_SA",
    "gnaf_pid": "GAVIC414464989",
    "tech_change_status": "Eligible To Order",
    "program_type": "On-Demand N2P SDU/MDU Simple",
    "target_eligibility_quarter": "NA"
   }
  },
  {
   "type": "Feature",
   "geometry": {
    "type": "Point",
    "coordinates": [
     145.14686051,
     -37.03018858
    ]
   },
   "properties": {
    "name": "UNIT 6, 6 KEITH STREET SEYMOUR 3660",
    "locID": "LOC000173328803",
    "tech": "FTTN",
    "upgrade": "FTTP_SA",
    "gnaf_pid": "GAVIC414464990",
    "tech_change_status": "Eligible To Order",
    "program_type": "On-Demand N2P SDU/MDU Simple",
    "target_eligibility_quarter": "NA"
   }
  },
  {
   "type": "Feature",
   "geometry": {
    "type": "Point",
    "coordinates": [
     145.14686051,
     -37.03018858
    ]
   },
   "properties": {
    "name": "UNIT 7, 6 KEITH STREET SEYMOUR 3660",
    "locID": "LOC000173328803",
    "tech": "FTTN",
    "upgrade": "FTTP_SA",
    "gnaf_pid": "GAVIC414464991",
    "tech_change_status": "Eligible To Order",
    "program_type": "On-Demand N2P SDU/MDU Simple",
    "target_eligibility_quarter": "NA"
   }
  },
  {
   "type": "Feature",
   "geometry": {
    "type": "Point",
    "coordinates": [
     145.13949686,
     -37.02307515
    ]
   },
   "properties": {
    "name": "5 CRAWFORD STREET SEYMOUR 3660",
    "locID": "LOC000084932894",
    "tech": "FTTN",
    "upgrade": "FTTP_SA",
    "gnaf_pid": "GAVIC414467095",
    "tech_change_status": "Eligible To Order",
    "program_type": "On-Demand N2P SDU/MDU Simple",
    "target_eligibility_quarter": "NA"
   }
  },
  {
   "type": "Feature",
   "geometry": {
    "type": "Point",
    "coordinates": [
     145.19046207,
     -37.02868038
    ]
   },
   "properties": {
    "name": "2 DEMPSEY ROAD SEYMOUR 3660",
    "locID": "LOC000051129402",
    "tech": "WIRELESS",
    "upgrade": "NULL_NA",
    "gnaf_pid": "GAVIC414467177",
    "tech_change_status": "Not Planned",
    "program_type": "Fixed Wireless and Satellite Upgrade Program",
    "target_eligibility_quarter": "Dec 2024"
   }
  },
  {
   "type": "Feature",
   "geometry": {
    "type": "Point",
    "coordinates": [
     145.13443881,
     -37.0243682
    ]
   },
   "properties": {
    "name": "UNIT 2, 5A WALLIS STREET SEYMOUR 3660",
    "locID": "LOC000046820184",
    "tech": "FTTN",
    "upgrade": "FTTP_SA",
    "gnaf_pid": "GAVIC414467931",
    "tech_change_status": "Eligible To Order",
    "program_type": "On-Demand N2P SDU/MDU Simple",
    "target_eligibility_quarter": "NA"
   }
  },
  {
   "type": "Feature",
   "geometry": {
    "type": "Point",
    "coordinates": [
     145.15232727,
     -37.0255653
    ]
   },
   "properties": {
    "name": "125 WIMBLE STREET SEYMOUR 3660",
    "locID": "LOC000095930149",
    "tech": "FTTN",
    "upgrade": "FTTP_SA",
    "gnaf_pid": "GAVIC414467998",
    "tech_change_status": "Eligible To Order",
    "program_type": "On-Demand N2P SDU/MDU Simple",
    "target_eligibility_quarter": "NA"
   }
  },
  {
   "type": "Feature",
   "geometry": {
    "type": "Point",
    "coordinates": [
     145.15720815,
     -37.02586583
    ]
   },
   "properties": {
    "name": "UNIT 1, 145 WIMBLE STREET SEYMOUR 3660",
    "locID": "LOC000016531822",
    "tech": "FTTN",
    "upgrade": "FTTP_NA",
    "gnaf_pid": "GAVIC414467999",
    "tech_change_status": "MDU Complex Eligible To Apply",
    "program_type": "Customer-initiated N2P MDU Complex"
   }
  },
  {
   "type": "Feature",
   "geometry": {
    "type": "Point",
    "coordinates": [
     145.15720815,
     -37.02586583
    ]
   },
   "properties": {
    "name": "UNIT 4, 145 WIMBLE STREET SEYMOUR 3660",
    "locID": "LOC000016028793",
    "tech": "FTTN",
    "upgrade": "FTTP_NA",
    "gnaf_pid": "GAVIC414468004",
    "tech_change_status": "MDU Complex Eligible To Apply",
    "program_type": "Customer-initiated N2P MDU Complex"
   }
  },
  {
   "type": "Feature",
   "geometry": {
    "type": "Point",
    "coordinates": [
     145.13248049,
     -37.01804081
    ]
   },
   "properties": {
    "name": "UNIT 1, 57 EMILY STREET SEYMOUR 3660",
    "locID": "LOC000005741552",
    "tech": "FTTN",
    "upgrade": "FTTP_NA",
    "gnaf_pid": "GAVIC414468722",
    "tech_change_status": "MDU Complex Eligible To Apply",
    "program_type": "Customer-initiated N2P MDU Complex"
   }
  },
  {
   "type": "Feature",
   "geometry": {
    "type": "Point",
    "coordinates": [
     145.13252107,
     -37.01811419
    ]
   },
   "properties": {
    "name": "UNIT 2, 57 EMILY STREET SEYMOUR 3660",
    "locID": "LOC000005201820",
    "tech": "FTTN",
    "upgrade": "FTTP_NA",
    "gnaf_pid": "GAVIC414468723",
    "tech_change_status": "MDU Complex Eligible To Apply",
    "program_type": "Customer-initiated N2P MDU Complex"
   }
  },
  {
   "type": "Feature",
   "geometry": {
    "type": "Point",
    "coordinates": [
     145.13252107,
     -37.01811419
    ]
   },
   "properties": {
    "name": "UNIT 3, 57 EMILY STREET SEYMOUR 3660",
    "locID": "LOC000005193163",
    "tech": "FTTN",
    "upgrade": "FTTP_NA",
    "gnaf_pid": "GAVIC414468724",
    "tech_change_status": "MDU Complex Eligible To Apply",
    "program_type": "Customer-initiated N2P MDU Complex"
   }
  },
  {
   "type": "Feature",
   "geometry": {
    "type": "Point",
    "coordinates": [
     145.13252107,
     -37.01811419
    ]
   },
   "properties": {
    "name": "UNIT 4, 57 EMILY STREET SEYMOUR 3660",
    "locID": "LOC000005142360",
    "tech": "FTTN",
    "upgrade": "FTTP_NA",
    "gnaf_pid": "GAVIC414468725",
    "tech_change_status": "MDU Complex Eligible To Apply",
    "program_type": "Customer-initiated N2P MDU Complex"
   }
  },
  {
   "type": "Feature",
   "geometry": {
    "type": "Point",
    "coordinates": [
     145.13252107,
     -37.01811419
    ]
   },
   "properties": {
    "name": "UNIT 5, 57 EMILY STREET SEYMOUR 3660",
    "locID": "LOC000005213829",
    "tech": "FTTN",
    "upgrade": "FTTP_NA",
    "gnaf_pid": "GAVIC414468726",
    "tech_change_status": "MDU Complex Eligible To Apply",
    "program_type": "Customer-initiated N2P MDU Complex"
   }
  },
  {
   "type": "Feature",
   "geometry": {
    "type": "Point",
    "coordinates": [
     145.13252107,
     -37.01811419
    ]
   },
   "properties": {
    "name": "UNIT 6, 57 EMILY STREET SEYMOUR 3660",
    "locID": "LOC000005337177",
    "tech": "FTTN",
    "upgrade": "FTTP_NA",
    "gnaf_pid": "GAVIC414468727",
    "tech_change_status": "MDU Complex Eligible To Apply",
    "program_type": "Customer-initiated N2P MDU Complex"
   }
  },
  {
   "type": "Feature",
   "geometry": {
    "type": "Point",
    "coordinates": [
     145.13252107,
     -37.01811419
    ]
   },
   "properties": {
    "name": "UNIT 7, 57 EMILY STREET SEYMOUR 3660",
    "locID": "LOC000005197127",
    "tech": "FTTN",
    "upgrade": "FTTP_NA",
    "gnaf_pid": "GAVIC414468728",
    "tech_change_status": "MDU Complex Eligible To Apply",
    "program_type": "Customer-initiated N2P MDU Complex"
   }
  },
  {
   "type": "Feature",
   "geometry": {
    "type": "Point",
    "coordinates": [
     145.13252107,
     -37.01811419
    ]
   },
   "properties": {
    "name": "UNIT 8, 57 EMILY STREET SEYMOUR 3660",
    "locID": "LOC000005372700",
    "tech": "FTTN",
    "upgrade": "FTTP_NA",
    "gnaf_pid": "GAVIC414468729",
    "tech_change_status": "MDU Complex Eligible To Apply",
    "program_type": "Customer-initiated N2P MDU Complex"
   }
  },
  {
   "type": "Feature",
   "geometry": {
    "type": "Point",
    "coordinates": [
     145.13248049,
     -37.01804081
    ]
   },
   "properties": {
    "name": "UNIT 9, 57 EMILY STREET SEYMOUR 3660",
    "locID": "LOC000005175366",
    "tech": "FTTN",
    "upgrade": "FTTP_NA",
    "gnaf_pid": "GAVIC414468730",
    "tech_change_status": "MDU Complex Eligible To Apply",
    "program_type": "Customer-initiated N2P MDU Complex"
   }
  },
  {
   "type": "Feature",
   "geometry": {
    "type": "Point",
    "coordinates": [
     145.13252107,
     -37.01811419
    ]
   },
   "properties": {
    "name": "UNIT 10, 57 EMILY STREET SEYMOUR 3660",
    "locID": "LOC000005205215",
    "tech": "FTTN",
    "upgrade": "FTTP_NA",
    "gnaf_pid": "GAVIC414468731",
    "tech_change_status": "MDU Complex Eligible To Apply",
    "program_type": "Customer-initiated N2P MDU Complex"
   }
  },
  {
   "type": "Feature",
   "geometry": {
    "type": "Point",
    "coordinates": [
     145.13252107,
     -37.01811419
    ]
   },
   "properties": {
    "name": "UNIT 11, 57 EMILY STREET SEYMOUR 3660",
    "locID": "LOC000005741552",
    "tech": "FTTN",
    "upgrade": "FTTP_NA",
    "gnaf_pid": "GAVIC414468732",
    "tech_change_status": "MDU Complex Eligible To Apply",
    "program_type": "Customer-initiated N2P MDU Complex"
   }
  },
  {
   "type": "Feature",
   "geometry": {
    "type": "Point",
    "coordinates": [
     145.13252107,
     -37.01811419
    ]
   },
   "properties": {
    "name": "UNIT 12, 57 EMILY STREET SEYMOUR 3660",
    "locID": "LOC000005237413",
    "tech": "FTTN",
    "upgrade": "FTTP_NA",
    "gnaf_pid": "GAVIC414468733",
    "tech_change_status": "MDU Complex Eligible To Apply",
    "program_type": "Customer-initiated N2P MDU Complex"
   }
  },
  {
   "type": "Feature",
   "geometry": {
    "type": "Point",
    "coordinates": [
     145.13252107,
     -37.01811419
    ]
   },
   "properties": {
    "name": "UNIT 13, 57 EMILY STREET SEYMOUR 3660",
    "locID": "LOC000005235949",
    "tech": "FTTN",
    "upgrade": "FTTP_NA",
    "gnaf_pid": "GAVIC414468734",
    "tech_change_status": "MDU Complex Eligible To Apply",
    "program_type": "Customer-initiated N2P MDU Complex"
   }
  },
  {
   "type": "Feature",
   "geometry": {
    "type": "Point",
    "coordinates": [
     145.13252107,
     -37.01811419
    ]
   },
   "properties": {
    "name": "UNIT 14, 57 EMILY STREET SEYMOUR 3660",
    "locID": "LOC000005282372",
    "tech": "FTTN",
    "upgrade": "FTTP_NA",
    "gnaf_pid": "GAVIC414468735",
    "tech_change_status": "MDU Complex Eligible To Apply",
    "program_type": "Customer-initiated N2P MDU Complex"
   }
  },
  {
   "type": "Feature",
   "geometry": {
    "type": "Point",
    "coordinates": [
     145.13252107,
     -37.01811419
    ]
   },
   "properties": {
    "name": "UNIT 15, 57 EMILY STREET SEYMOUR 3660",
    "locID": "LOC000005337177",
    "tech": "FTTN",
    "upgrade": "FTTP_NA",
    "gnaf_pid": "GAVIC414468736",
    "tech_change_status": "MDU Complex Eligible To Apply",
    "program_type": "Customer-initiated N2P MDU Complex"
   }
  },
  {
   "type": "Feature",
   "geometry": {
    "type": "Point",
    "coordinates": [
     145.13252107,
     -37.01811419
    ]
   },
   "properties": {
    "name": "UNIT 16, 57 EMILY STREET SEYMOUR 3660",
    "locID": "LOC000005274579",
    "tech": "FTTN",
    "upgrade": "FTTP_NA",
    "gnaf_pid": "GAVIC414468737",
    "tech_change_status": "MDU Complex Eligible To Apply",
    "program_type": "Customer-initiated N2P MDU Complex"
   }
  },
  {
   "type": "Feature",
   "geometry": {
    "type": "Point",
    "coordinates": [
     145.13252107,
     -37.01811419
    ]
   },
   "properties": {
    "name": "UNIT 17, 57 EMILY STREET SEYMOUR 3660",
    "locID": "LOC000005132623",
    "tech": "FTTN",
    "upgrade": "FTTP_NA",
    "gnaf_pid": "GAVIC414468738",
    "tech_change_status": "MDU Complex Eligible To Apply",
    "program_type": "Customer-initiated N2P MDU Complex"
   }
  },
  {
   "type": "Feature",
   "geometry": {
    "type": "Point",
    "coordinates": [
     145.11465601,
     -37.02219121
    ]
   },
   "properties": {
    "name": "1 EMILY STREET SEYMOUR 3660",
    "locID": "LOC000073043749",
    "tech": "WIRELESS",
    "upgrade": "NULL_NA",
    "gnaf_pid": "GAVIC414468746",
    "tech_change_status": "Not Planned",
    "program_type": "Fixed Wireless and Satellite Upgrade Program",
    "target_eligibility_quarter": "NA"
   }
  },
  {
   "type": "Feature",
   "geometry": {
    "type": "Point",
    "coordinates": [
     145.14425837,
     -37.0170663
    ]
   },
   "properties": {
    "name": "12 MALLETT CRESCENT SEYMOUR 3660",
    "locID": "LOC000125202304",
    "tech": "FTTN",
    "upgrade": "FTTP_SA",
    "gnaf_pid": "GAVIC414471660",
    "tech_change_status": "Eligible To Order",
    "program_type": "On-Demand N2P SDU/MDU Simple",
    "target_eligibility_quarter": "NA"
   }
  },
  {
   "type": "Feature",
   "geometry": {
    "type": "Point",
    "coordinates": [
     145.13513707,
     -37.02288505
    ]
   },