{
 "type": "FeatureCollection",
 "generated": "2023-09-25T13:33:59.970631",
 "suburb": "SOMERS",
 "features": [
  {
   "type": "Feature",
   "geometry": {
    "type": "Point",
    "coordinates": [
     145.14043506,
     -38.37739017
    ]
   },
   "properties": {
    "name": "4 LUXTON DRIVE SOMERS 3927",
    "locID": "LOC000083001560",
    "tech": "WIRELESS",
    "upgrade": "NULL_NA",
    "gnaf_pid": "GAVIC412281947"
   }
  },
  {
   "type": "Feature",
   "geometry": {
    "type": "Point",
    "coordinates": [
     145.16309653,
     -38.39391951
    ]
   },
   "properties": {
    "name": "108 CAMP HILL ROAD SOMERS 3927",
    "locID": "LOC000114562587",
    "tech": "FTTN",
    "upgrade": "NULL_NA",
    "gnaf_pid": "GAVIC412281953"
   }
  },
  {
   "type": "Feature",
   "geometry": {
    "type": "Point",
    "coordinates": [
     145.1642358,
     -38.39284758
    ]
   },
   "properties": {
    "name": "UNIT 28, 93 CAMP HILL ROAD SOMERS 3927",
    "locID": "LOC000022792420",
    "tech": "FTTN",
    "upgrade": "NULL_NA",
    "gnaf_pid": "GAVIC412281957"
   }
  },
  {
   "type": "Feature",
   "geometry": {
    "type": "Point",
    "coordinates": [
     145.15332662,
     -38.38774203
    ]
   },
   "properties": {
    "name": "59 BEACH HILL AVENUE SOMERS 3927",
    "locID": "LOC000186415984",
    "tech": "FTTN",
    "upgrade": "NULL_NA",
    "gnaf_pid": "GAVIC412281997"
   }
  },
  {
   "type": "Feature",
   "geometry": {
    "type": "Point",
    "coordinates": [
     145.15251253,
     -38.3875267
    ]
   },
   "properties": {
    "name": "60 BEACH HILL AVENUE SOMERS 3927",
    "locID": "ChIJ3SOXFs_p1WoR6nWflmN3LMw",
    "tech": "FTTN",
    "upgrade": "UNKNOWN",
    "gnaf_pid": "GAVIC412296116"
   }
  },
  {
   "type": "Feature",
   "geometry": {
    "type": "Point",
    "coordinates": [
     145.17621624,
     -38.38935665
    ]
   },
   "properties": {
    "name": "1 HENTY GROVE SOMERS 3927",
    "locID": "LOC000069863573",
    "tech": "FTTN",
    "upgrade": "NULL_NA",
    "gnaf_pid": "GAVIC412296612"
   }
  },
  {
   "type": "Feature",
   "geometry": {
    "type": "Point",
    "coordinates": [
     145.1642358,
     -38.39284758
    ]
   },
   "properties": {
    "name": "UNIT 41, 93 CAMP HILL ROAD SOMERS 3927",
    "locID": "LOC000022586601",
    "tech": "FTTN",
    "upgrade": "NULL_NA",
    "gnaf_pid": "GAVIC412296613"
   }
  },
  {
   "type": "Feature",
   "geometry": {
    "type": "Point",
    "coordinates": [
     145.17477016,
     -38.39239752
    ]
   },
   "properties": {
    "name": "13 SOUTH CRESCENT SOMERS 3927",
    "locID": "EikxMyBTb3V0aCBDcmVzLCBTb21lcnMgVklDIDM5MjcsIEF1c3RyYWxpYSIwEi4KFAoSCQMRYoGu6dVqEXAgGOx0VgQTEA0qFAoSCVM9EKCu6dVqESE4bo1hv9hB",
    "tech": "FTTN",
    "upgrade": "UNKNOWN",
    "gnaf_pid": "GAVIC412296619"
   }
  },
  {
   "type": "Feature",
   "geometry": {
    "type": "Point",
    "coordinates": [
     145.17890489,
     -38.38784729
    ]
   },
   "properties": {
    "name": "10 HUME ROAD SOMERS 3927",
    "locID": "ChIJfei52FTo1WoRaZJs602Qh8g",
    "tech": "FTTN",
    "upgrade": "UNKNOWN",
    "gnaf_pid": "GAVIC412298456"
   }
  },
  {
   "type": "Feature",
   "geometry": {
    "type": "Point",
    "coordinates": [
     145.16122542,
     -38.38409644
    ]
   },
   "properties": {
    "name": "12 ALEXANDRA AVENUE SOMERS 3927",
    "locID": "ChIJjyyMFbXp1WoRrlcnqTn9_lY",
    "tech": "FTTN",
    "upgrade": "UNKNOWN",
    "gnaf_pid": "GAVIC412298461"
   }
  },
  {
   "type": "Feature",
   "geometry": {
    "type": "Point",
    "coordinates": [
     145.1642358,
     -38.39284758
    ]
   },
   "properties": {
    "name": "UNIT 4, 93 CAMP HILL ROAD SOMERS 3927",
    "locID": "LOC000022543094",
    "tech": "FTTN",
    "upgrade": "NULL_NA",
    "gnaf_pid": "GAVIC412298462"
   }
  },
  {
   "type": "Feature",
   "geometry": {
    "type": "Point",
    "coordinates": [
     145.1642358,
     -38.39284758
    ]
   },
   "properties": {
    "name": "UNIT 54, 93 CAMP HILL ROAD SOMERS 3927",
    "locID": "LOC000022675872",
    "tech": "FTTN",
    "upgrade": "NULL_NA",
    "gnaf_pid": "GAVIC412298469"
   }
  },
  {
   "type": "Feature",
   "geometry": {
    "type": "Point",
    "coordinates": [
     145.16768407,
     -38.39239505
    ]
   },
   "properties": {
    "name": "1 CHARLES COURT SOMERS 3927",
    "locID": "LOC000042775405",
    "tech": "FTTN",
    "upgrade": "NULL_NA",
    "gnaf_pid": "GAVIC412300219"
   }
  },
  {
   "type": "Feature",
   "geometry": {
    "type": "Point",
    "coordinates": [
     145.1642358,
     -38.39284758
    ]
   },
   "properties": {
    "name": "UNIT 20, 93 CAMP HILL ROAD SOMERS 3927",
    "locID": "LOC000022975079",
    "tech": "FTTN",
    "upgrade": "NULL_NA",
    "gnaf_pid": "GAVIC412300405"
   }
  },
  {
   "type": "Feature",
   "geometry": {
    "type": "Point",
    "coordinates": [
     145.16001752,
     -38.38702595
    ]
   },
   "properties": {
    "name": "106 ALEXANDRA AVENUE SOMERS 3927",
    "locID": "ChIJwyQyB7bp1WoRuKg44grHY6c",
    "tech": "FTTN",
    "upgrade": "UNKNOWN",
    "gnaf_pid": "GAVIC412300974"
   }
  },
  {
   "type": "Feature",
   "geometry": {
    "type": "Point",
    "coordinates": [
     145.17661522,
     -38.39246664
    ]
   },
   "properties": {
    "name": "7 LORNE GROVE EAST SOMERS 3927",
    "locID": "Ei43IExvcm5lIEdyb3ZlIEVhc3QsIFNvbWVycyBWSUMgMzkyNywgQXVzdHJhbGlhIjASLgoUChIJTTJqV6np1WoRYCYY7HRWBBMQByoUChIJwaUe_qvp1WoR1_B1vb3_TUI",
    "tech": "FTTN",
    "upgrade": "UNKNOWN",
    "gnaf_pid": "GAVIC412301097"
   }
  },
  {
   "type": "Feature",
   "geometry": {
    "type": "Point",
    "coordinates": [
     145.15871149,
     -38.39292793
    ]
   },
   "properties": {
    "name": "12A THE BOULEVARD SOMERS 3927",
    "locID": "LOC000030846368",
    "tech": "FTTN",
    "upgrade": "NULL_NA",
    "gnaf_pid": "GAVIC412302128"
   }
  },
  {
   "type": "Feature",
   "geometry": {
    "type": "Point",
    "coordinates": [
     145.15251253,
     -38.3875267
    ]
   },
   "properties": {
    "name": "23 BEACH HILL AVENUE SOMERS 3927",
    "locID": "ChIJ3SOXFs_p1WoRAZ6nU3csNMw",
    "tech": "FTTN",
    "upgrade": "UNKNOWN",
    "gnaf_pid": "GAVIC412303745"
   }
  },
  {
   "type": "Feature",
   "geometry": {
    "type": "Point",
    "coordinates": [
     145.15251253,
     -38.3875267
    ]
   },
   "properties": {
    "name": "27 BEACH HILL AVENUE SOMERS 3927",
    "locID": "Ei0yNyBCZWFjaCBIaWxsIEF2ZSwgU29tZXJzIFZJQyAzOTI3LCBBdXN0cmFsaWEiMBIuChQKEgnFKDHByOnVahEf-S15rUC8bxAbKhQKEgmh9LSRxenVahE01oHvaQD8gw",
    "tech": "FTTN",
    "upgrade": "UNKNOWN",
    "gnaf_pid": "GAVIC412303746"
   }
  },
  {
   "type": "Feature",
   "geometry": {
    "type": "Point",
    "coordinates": [
     145.1642358,
     -38.39284758
    ]
   },
   "properties": {
    "name": "UNIT 64, 93 CAMP HILL ROAD SOMERS 3927",
    "locID": "LOC000022624512",
    "tech": "FTTN",
    "upgrade": "NULL_NA",
    "gnaf_pid": "GAVIC412304329"
   }
  },
  {
   "type": "Feature",
   "geometry": {
    "type": "Point",
    "coordinates": [
     145.178393,
     -38.387453
    ]
   },
   "properties": {
    "name": "10A BURKE ROAD SOMERS 3927",
    "locID": "LOC000072021313",
    "tech": "FTTN",
    "upgrade": "NULL_NA",
    "gnaf_pid": "GAVIC412304677"
   }
  },
  {
   "type": "Feature",
   "geometry": {
    "type": "Point",
    "coordinates": [
     145.16641346,
     -38.38163271
    ]
   },
   "properties": {
    "name": "60A SANDY POINT ROAD SOMERS 3927",
    "locID": "ChIJc--8Z0zo1WoRnQUIjkEWTW0",
    "tech": "FTTN",
    "upgrade": "UNKNOWN",
    "gnaf_pid": "GAVIC412304759"
   }
  },
  {
   "type": "Feature",
   "geometry": {
    "type": "Point",
    "coordinates": [
     145.179216,
     -38.38979
    ]
   },
   "properties": {
    "name": "UNIT 2, 42 SOUTH BEACH ROAD SOMERS 3927",
    "locID": "LOC000083558700",
    "tech": "FTTN",
    "upgrade": "NULL_NA",
    "gnaf_pid": "GAVIC412304795"
   }
  },
  {
   "type": "Feature",
   "geometry": {
    "type": "Point",
    "coordinates": [
     145.16960006,
     -38.39465336
    ]
   },
   "properties": {
    "name": "52 TASMAN ROAD SOMERS 3927",
    "locID": "LOC000074074697",
    "tech": "FTTN",
    "upgrade": "NULL_NA",
    "gnaf_pid": "GAVIC412304801"
   }
  },
  {
   "type": "Feature",
   "geometry": {
    "type": "Point",
    "coordinates": [
     145.163309,
     -38.394228
    ]
   },
   "properties": {
    "name": "111 CAMP HILL ROAD SOMERS 3927",
    "locID": "ChIJrUGuu7np1WoRcivahdiWhZ0",
    "tech": "FTTN",
    "upgrade": "UNKNOWN",
    "gnaf_pid": "GAVIC412304802"
   }
  },
  {
   "type": "Feature",
   "geometry": {
    "type": "Point",
    "coordinates": [
     145.1755106,
     -38.38628579
    ]
   },
   "properties": {
    "name": "10 STURT ROAD SOMERS 3927",
    "locID": "ChIJbVB0aFPo1WoRcpvIl60xn1A",
    "tech": "FTTN",
    "upgrade": "UNKNOWN",
    "gnaf_pid": "GAVIC412305709"
   }
  },
  {
   "type": "Feature",
   "geometry": {
    "type": "Point",
    "coordinates": [
     145.16327175,
     -38.39359037
    ]
   },
   "properties": {
    "name": "102 CAMP HILL ROAD SOMERS 3927",
    "locID": "ChIJQ2Fgxrnp1WoRkD14nu9wZuA",
    "tech": "FTTN",
    "upgrade": "UNKNOWN",
    "gnaf_pid": "GAVIC412305711"
   }
  },
  {
   "type": "Feature",
   "geometry": {
    "type": "Point",
    "coordinates": [
     145.15627055,
     -38.39311823
    ]
   },
   "properties": {
    "name": "1B PARKLANDS AVENUE SOMERS 3927",
    "locID": "LOC000076978892",
    "tech": "FTTN",
    "upgrade": "NULL_NA",
    "gnaf_pid": "GAVIC412307246"
   }
  },
  {
   "type": "Feature",
   "geometry": {
    "type": "Point",
    "coordinates": [
     145.1642358,
     -38.39284758
    ]
   },
   "properties": {
    "name": "UNIT 32, 93 CAMP HILL ROAD SOMERS 3927",
    "locID": "LOC000022998705",
    "tech": "FTTN",
    "upgrade": "NULL_NA",
    "gnaf_pid": "GAVIC412307268"
   }
  },
  {
   "type": "Feature",
   "geometry": {
    "type": "Point",
    "coordinates": [
     145.1642358,
     -38.39284758
    ]
   },
   "properties": {
    "name": "UNIT 46, 93 CAMP HILL ROAD SOMERS 3927",
    "locID": "LOC000022810743",
    "tech": "FTTN",
    "upgrade": "NULL_NA",
    "gnaf_pid": "GAVIC412307280"
   }
  },
  {
   "type": "Feature",
   "geometry": {
    "type": "Point",
    "coordinates": [
     145.15191179,
     -38.38718677
    ]
   },
   "properties": {
    "name": "70 BEACH HILL AVENUE SOMERS 3927",
    "locID": "LOC000011164614",
    "tech": "FTTN",
    "upgrade": "NULL_NA",
    "gnaf_pid": "GAVIC412327019"
   }
  },
  {
   "type": "Feature",
   "geometry": {
    "type": "Point",
    "coordinates": [
     145.1642358,
     -38.39284758
    ]
   },
   "properties": {
    "name": "UNIT 1, 93 CAMP HILL ROAD SOMERS 3927",
    "locID": "LOC000023028501",
    "tech": "FTTN",
    "upgrade": "NULL_NA",
    "gnaf_pid": "GAVIC412327031"
   }
  },
  {
   "type": "Feature",
   "geometry": {
    "type": "Point",
    "coordinates": [
     145.16708026,
     -38.38619858
    ]
   },
   "properties": {
    "name": "34 CAMP HILL ROAD SOMERS 3927",
    "locID": "ChIJ6_HhELPp1WoRLC8cqcd3E7U",
    "tech": "FTTN",
    "upgrade": "UNKNOWN",
    "gnaf_pid": "GAVIC412327035"
   }
  },
  {
   "type": "Feature",
   "geometry": {
    "type": "Point",
    "coordinates": [
     145.14756729,
     -38.38381079
    ]
   },
   "properties": {
    "name": "143 LORD SOMERS ROAD SOMERS 3927",
    "locID": "Ei4xNDMgTG9yZCBTb21lcnMgUmQsIFNvbWVycyBWSUMgMzkyNywgQXVzdHJhbGlhIjESLwoUChIJ91WXD9vp1WoR4BsY7HRWBBMQjwEqFAoSCXeK9enR6dVqEYJkOcqkSUj5",
    "tech": "FTTN",
    "upgrade": "UNKNOWN",
    "gnaf_pid": "GAVIC412327037"
   }
  },
  {
   "type": "Feature",
   "geometry": {
    "type": "Point",
    "coordinates": [
     145.174752,
     -38.387901
    ]
   },
   "properties": {
    "name": "4 STURT ROAD SOMERS 3927",
    "locID": "ChIJY6mxx6zp1WoR8CVbIGUw4SA",
    "tech": "FTTN",
    "upgrade": "UNKNOWN",
    "gnaf_pid": "GAVIC412327043"
   }
  },
  {
   "type": "Feature",
   "geometry": {
    "type": "Point",
    "coordinates": [
     145.15251253,
     -38.3875267
    ]
   },
   "properties": {
    "name": "74 BEACH HILL AVENUE SOMERS 3927",
    "locID": "ChIJ3SOXFs_p1WoRt2UR6gwd3CU",
    "tech": "FTTN",
    "upgrade": "UNKNOWN",
    "gnaf_pid": "GAVIC412327070"
   }
  },
  {
   "type": "Feature",
   "geometry": {
    "type": "Point",
    "coordinates": [
     145.15251253,
     -38.3875267
    ]
   },
   "properties": {
    "name": "57 BEACH HILL AVENUE SOMERS 3927",
    "locID": "Ei01NyBCZWFjaCBIaWxsIEF2ZSwgU29tZXJzIFZJQyAzOTI3LCBBdXN0cmFsaWEiMBIuChQKEgkZm4Ewz-nVahEsOVVh7FOUBRA5KhQKEgmh9LSRxenVahE01oHvaQD8gw",
    "tech": "FTTN",
    "upgrade": "UNKNOWN",
    "gnaf_pid": "GAVIC412327074"
   }
  },
  {
   "type": "Feature",
   "geometry": {
    "type": "Point",
    "coordinates": [
     145.15157587,
     -38.39135153
    ]
   },
   "properties": {
    "name": "61 PARKLANDS AVENUE SOMERS 3927",
    "locID": "ChIJ5WSPVsTp1WoRaV9xKKciZcY",
    "tech": "FTTN",
    "upgrade": "UNKNOWN",
    "gnaf_pid": "GAVIC412328753"
   }
  },
  {
   "type": "Feature",
   "geometry": {
    "type": "Point",
    "coordinates": [
     145.16342575,
     -38.39304073
    ]
   },
   "properties": {
    "name": "98 CAMP HILL ROAD SOMERS 3927",
    "locID": "LOC000075224007",
    "tech": "FTTN",
    "upgrade": "NULL_NA",
    "gnaf_pid": "GAVIC412333116"
   }
  },
  {
   "type": "Feature",
   "geometry": {
    "type": "Point",
    "coordinates": [
     145.15267638,
     -38.38735476
    ]
   },
   "properties": {
    "name": "66 BEACH HILL AVENUE SOMERS 3927",
    "locID": "LOC000092792995",
    "tech": "FTTN",
    "upgrade": "NULL_NA",
    "gnaf_pid": "GAVIC412333158"
   }
  },
  {
   "type": "Feature",
   "geometry": {
    "type": "Point",
    "coordinates": [
     145.16715576,
     -38.38604574
    ]
   },
   "properties": {
    "name": "32 CAMP HILL ROAD SOMERS 3927",
    "locID": "LOC000022998705",
    "tech": "FTTN",
    "upgrade": "NULL_NA",
    "gnaf_pid": "GAVIC412336867"
   }
  },
  {
   "type": "Feature",
   "geometry": {
    "type": "Point",
    "coordinates": [
     145.16700475,
     -38.38635142
    ]
   },
   "properties": {
    "name": "36 CAMP HILL ROAD SOMERS 3927",
    "locID": "ChIJPUfcEbPp1WoRJHrNmbLMiXc",
    "tech": "FTTN",
    "upgrade": "UNKNOWN",
    "gnaf_pid": "GAVIC412336868"
   }
  },
  {
   "type": "Feature",
   "geometry": {
    "type": "Point",
    "coordinates": [
     145.16692924,
     -38.38650426
    ]
   },
   "properties": {
    "name": "38 CAMP HILL ROAD SOMERS 3927",
    "locID": "LOC000173531262",
    "tech": "FTTN",
    "upgrade": "NULL_NA",
    "gnaf_pid": "GAVIC412336869"
   }
  },
  {
   "type": "Feature",
   "geometry": {
    "type": "Point",
    "coordinates": [
     145.1642358,
     -38.39284758
    ]
   },
   "properties": {
    "name": "UNIT 49, 93 CAMP HILL ROAD SOMERS 3927",
    "locID": "LOC000022798870",
    "tech": "FTTN",
    "upgrade": "NULL_NA",
    "gnaf_pid": "GAVIC412336955"
   }
  },
  {
   "type": "Feature",
   "geometry": {
    "type": "Point",
    "coordinates": [
     145.17632542,
     -38.39095516
    ]
   },
   "properties": {
    "name": "9 ACACIA COURT SOMERS 3927",
    "locID": "ChIJDZORiavp1WoRHDXbvXncMF8",
    "tech": "FTTN",
    "upgrade": "UNKNOWN",
    "gnaf_pid": "GAVIC414720050"
   }
  },
  {
   "type": "Feature",
   "geometry": {
    "type": "Point",
    "coordinates": [
     145.17632542,
     -38.39095516
    ]
   },
   "properties": {
    "name": "1 ACACIA COURT SOMERS 3927",
    "locID": "ChIJDZORiavp1WoRny1RMRkwd9s",
    "tech": "FTTN",
    "upgrade": "UNKNOWN",
    "gnaf_pid": "GAVIC414720051"
   }
  },
  {
   "type": "Feature",
   "geometry": {
    "type": "Point",
    "coordinates": [
     145.17632542,
     -38.39095516
    ]
   },
   "properties": {
    "name": "2 ACACIA COURT SOMERS 3927",
    "locID": "ChIJDZORiavp1WoRHFtCetb-SQg",
    "tech": "FTTN",
    "upgrade": "UNKNOWN",
    "gnaf_pid": "GAVIC414720052"
   }
  },
  {
   "type": "Feature",
   "geometry": {
    "type": "Point",
    "coordinates": [
     145.17632542,
     -38.39095516
    ]
   },
   "properties": {
    "name": "3 ACACIA COURT SOMERS 3927",
    "locID": "ChIJDZORiavp1WoR-ZkvVOCW8h4",
    "tech": "FTTN",
    "upgrade": "UNKNOWN",
    "gnaf_pid": "GAVIC414720053"
   }
  },
  {
   "type": "Feature",
   "geometry": {
    "type": "Point",
    "coordinates": [
     145.17632542,
     -38.39095516
    ]
   },
   "properties": {
    "name": "4 ACACIA COURT SOMERS 3927",
    "locID": "ChIJDZORiavp1WoR_DOpzU8ZDEM",
    "tech": "FTTN",
    "upgrade": "UNKNOWN",
    "gnaf_pid": "GAVIC414720054"
   }
  },
  {
   "type": "Feature",
   "geometry": {
    "type": "Point",
    "coordinates": [
     145.17632542,
     -38.39095516
    ]
   },
   "properties": {
    "name": "5 ACACIA COURT SOMERS 3927",
    "locID": "ChIJDZORiavp1WoRZTdSmtlPbwY",
    "tech": "FTTN",
    "upgrade": "UNKNOWN",
    "gnaf_pid": "GAVIC414720055"
   }
  },
  {
   "type": "Feature",
   "geometry": {
    "type": "Point",
    "coordinates": [
     145.17632542,
     -38.39095516
    ]
   },
   "properties": {
    "name": "6 ACACIA COURT SOMERS 3927",
    "locID": "ChIJDZORiavp1WoR5oNLdwZIuU0",
    "tech": "FTTN",
    "upgrade": "UNKNOWN",
    "gnaf_pid": "GAVIC414720056"
   }
  },
  {
   "type": "Feature",
   "geometry": {
    "type": "Point",
    "coordinates": [
     145.17632542,
     -38.39095516
    ]
   },
   "properties": {
    "name": "7 ACACIA COURT SOMERS 3927",
    "locID": "ChIJDZORiavp1WoRyBMgNLx051I",
    "tech": "FTTN",
    "upgrade": "UNKNOWN",
    "gnaf_pid": "GAVIC414720057"
   }
  },
  {
   "type": "Feature",
   "geometry": {
    "type": "Point",
    "coordinates": [
     145.17632542,
     -38.39095516
    ]
   },
   "properties": {
    "name": "8 ACACIA COURT SOMERS 3927",
    "locID": "ChIJDZORiavp1WoRO8HPKrrUB7M",
    "tech": "FTTN",
    "upgrade": "UNKNOWN",
    "gnaf_pid": "GAVIC414720058"
   }
  },
  {
   "type": "Feature",
   "geometry": {
    "type": "Point",
    "coordinates": [
     145.17632542,
     -38.39095516
    ]
   },
   "properties": {
    "name": "10 ACACIA COURT SOMERS 3927",
    "locID": "ChIJDZORiavp1WoRZzyTFFiOnKk",
    "tech": "FTTN",
    "upgrade": "UNKNOWN",
    "gnaf_pid": "GAVIC414720059"
   }
  },
  {
   "type": "Feature",
   "geometry": {
    "type": "Point",
    "coordinates": [
     145.17632542,
     -38.39095516
    ]
   },
   "properties": {
    "name": "11 ACACIA COURT SOMERS 3927",
    "locID": "ChIJDZORiavp1WoRnW_ljpPR1MU",
    "tech": "FTTN",
    "upgrade": "UNKNOWN",
    "gnaf_pid": "GAVIC414720060"
   }
  },
  {
   "type": "Feature",
   "geometry": {
    "type": "Point",
    "coordinates": [
     145.17632542,
     -38.39095516
    ]
   },
   "properties": {
    "name": "12 ACACIA COURT SOMERS 3927",
    "locID": "ChIJDZORiavp1WoRsI_ewNlDVTE",
    "tech": "FTTN",
    "upgrade": "UNKNOWN",
    "gnaf_pid": "GAVIC414720061"
   }
  },
  {
   "type": "Feature",
   "geometry": {
    "type": "Point",
    "coordinates": [
     145.17632542,
     -38.39095516
    ]
   },
   "properties": {
    "name": "13 ACACIA COURT SOMERS 3927",
    "locID": "ChIJDZORiavp1WoRyczFpsJ2aik",
    "tech": "FTTN",
    "upgrade": "UNKNOWN",
    "gnaf_pid": "GAVIC414720062"
   }
  },
  {
   "type": "Feature",
   "geometry": {
    "type": "Point",
    "coordinates": [
     145.17632542,
     -38.39095516
    ]
   },
   "properties": {
    "name": "14 ACACIA COURT SOMERS 3927",
    "locID": "ChIJDZORiavp1WoRYALtPMHuLaY",
    "tech": "FTTN",
    "upgrade": "UNKNOWN",
    "gnaf_pid": "GAVIC414720063"
   }
  },
  {
   "type": "Feature",
   "geometry": {
    "type": "Point",
    "coordinates": [
     145.17632542,
     -38.39095516
    ]
   },
   "properties": {
    "name": "15 ACACIA COURT SOMERS 3927",
    "locID": "ChIJDZORiavp1WoRmEwxTCd3kIA",
    "tech": "FTTN",
    "upgrade": "UNKNOWN",
    "gnaf_pid": "GAVIC414720064"
   }
  },
  {
   "type": "Feature",
   "geometry": {
    "type": "Point",
    "coordinates": [
     145.16014421,
     -38.39350931
    ]
   },
   "properties": {
    "name": "1 THE BOULEVARD SOMERS 3927",
    "locID": "LOC000178667964",
    "tech": "FTTN",
    "upgrade": "NULL_NA",
    "gnaf_pid": "GAVIC414724209"
   }
  },
  {
   "type": "Feature",
   "geometry": {
    "type": "Point",
    "coordinates": [
     145.17784507,
     -38.38714212
    ]
   },
   "properties": {
    "name": "1 FORREST ROAD SOMERS 3927",
    "locID": "EigxIEZvcnJlc3QgUmQsIFNvbWVycyBWSUMgMzkyNywgQXVzdHJhbGlhIjASLgoUChIJV9vy8FTo1WoRwAsY7HRWBBMQASoUChIJMfYQ6lTo1WoRSw7m8zUNQwA",
    "tech": "FTTN",
    "upgrade": "UNKNOWN",
    "gnaf_pid": "GAVIC414738208"
   }
  },
  {
   "type": "Feature",
   "geometry": {
    "type": "Point",
    "coordinates": [
     145.17784507,
     -38.38714212
    ]
   },
   "properties": {
    "name": "2 FORREST ROAD SOMERS 3927",
    "locID": "ChIJI5106lTo1WoRMBgIHtTdW00",
    "tech": "FTTN",
    "upgrade": "UNKNOWN",
    "gnaf_pid": "GAVIC414738209"
   }
  },
  {
   "type": "Feature",
   "geometry": {
    "type": "Point",
    "coordinates": [
     145.17784507,
     -38.38714212
    ]
   },
   "properties": {
    "name": "3 FORREST ROAD SOMERS 3927",
    "locID": "ChIJI5106lTo1WoRMI5kmOO59mg",
    "tech": "FTTN",
    "upgrade": "UNKNOWN",
    "gnaf_pid": "GAVIC414738210"
   }
  },
  {
   "type": "Feature",
   "geometry": {
    "type": "Point",
    "coordinates": [
     145.17784507,
     -38.38714212
    ]
   },
   "properties": {
    "name": "4 FORREST ROAD SOMERS 3927",
    "locID": "ChIJI5106lTo1WoRg8o8XYly5kg",
    "tech": "FTTN",
    "upgrade": "UNKNOWN",
    "gnaf_pid": "GAVIC414738211"
   }
  },
  {
   "type": "Feature",
   "geometry": {
    "type": "Point",
    "coordinates": [
     145.17784507,
     -38.38714212
    ]
   },
   "properties": {
    "name": "5 FORREST ROAD SOMERS 3927",
    "locID": "ChIJI5106lTo1WoRVzi8krZ3NAs",
    "tech": "FTTN",
    "upgrade": "UNKNOWN",
    "gnaf_pid": "GAVIC414738212"
   }
  },
  {
   "type": "Feature",
   "geometry": {
    "type": "Point",
    "coordinates": [
     145.17784507,
     -38.38714212
    ]
   },
   "properties": {
    "name": "6 FORREST ROAD SOMERS 3927",
    "locID": "ChIJI5106lTo1WoRbtaMDWQWXx4",
    "tech": "FTTN",
    "upgrade": "UNKNOWN",
    "gnaf_pid": "GAVIC414738213"
   }
  },
  {
   "type": "Feature",
   "geometry": {
    "type": "Point",
    "coordinates": [
     145.17784507,
     -38.38714212
    ]
   },
   "properties": {
    "name": "7 FORREST ROAD SOMERS 3927",
    "locID": "ChIJI5106lTo1WoR1kNZ6Y2m9wk",
    "tech": "FTTN",
    "upgrade": "UNKNOWN",
    "gnaf_pid": "GAVIC414738214"
   }
  },
  {
   "type": "Feature",
   "geometry": {
    "type": "Point",
    "coordinates": [
     145.17784507,
     -38.38714212
    ]
   },
   "properties": {
    "name": "8 FORREST ROAD SOMERS 3927",
    "locID": "Eig4IEZvcnJlc3QgUmQsIFNvbWVycyBWSUMgMzkyNywgQXVzdHJhbGlhIjASLgoUChIJV9vy8FTo1WoRwAsY7HRWBBMQCCoUChIJMfYQ6lTo1WoRSw7m8zUNQwA",
    "tech": "FTTN",
    "upgrade": "UNKNOWN",
    "gnaf_pid": "GAVIC414738215"
   }
  },
  {
   "type": "Feature",
   "geometry": {
    "type": "Point",
    "coordinates": [
     145.17784507,
     -38.38714212
    ]
   },
   "properties": {
    "name": "9 FORREST ROAD SOMERS 3927",
    "locID": "ChIJI5106lTo1WoRRjJ7yLjJ5Mo",
    "tech": "FTTN",
    "upgrade": "UNKNOWN",
    "gnaf_pid": "GAVIC414738216"
   }
  },
  {
   "type": "Feature",
   "geometry": {
    "type": "Point",
    "coordinates": [
     145.17784507,
     -38.38714212
    ]
   },
   "properties": {
    "name": "10 FORREST ROAD SOMERS 3927",
    "locID": "ChIJI5106lTo1WoRDcMjoRH23Ts",
    "tech": "FTTN",
    "upgrade": "UNKNOWN",
    "gnaf_pid": "GAVIC414738217"
   }
  },
  {
   "type": "Feature",
   "geometry": {
    "type": "Point",
    "coordinates": [
     145.17784507,
     -38.38714212
    ]
   },
   "properties": {
    "name": "11 FORREST ROAD SOMERS 3927",
    "locID": "ChIJI5106lTo1WoRndG06Z3Fsus",
    "tech": "FTTN",
    "upgrade": "UNKNOWN",
    "gnaf_pid": "GAVIC414738218"
   }
  },
  {
   "type": "Feature",
   "geometry": {
    "type": "Point",
    "coordinates": [
     145.17784507,
     -38.38714212
    ]
   },
   "properties": {
    "name": "12 FORREST ROAD SOMERS 3927",
    "locID": "EikxMiBGb3JyZXN0IFJkLCBTb21lcnMgVklDIDM5MjcsIEF1c3RyYWxpYSIwEi4KFAoSCVfb8vBU6NVqEcALGOx0VgQTEAwqFAoSCTH2EOpU6NVqEUsO5vM1DUMA",
    "tech": "FTTN",
    "upgrade": "UNKNOWN",
    "gnaf_pid": "GAVIC414738219"
   }
  },
  {
   "type": "Feature",
   "geometry": {
    "type": "Point",
    "coordinates": [
     145.17784507,
     -38.38714212
    ]
   },
   "properties": {
    "name": "13 FORREST ROAD SOMERS 3927",
    "locID": "ChIJI5106lTo1WoRw_AbITpYpag",
    "tech": "FTTN",
    "upgrade": "UNKNOWN",
    "gnaf_pid": "GAVIC414738220"
   }
  },
  {
   "type": "Feature",
   "geometry": {
    "type": "Point",
    "coordinates": [
     145.17784507,
     -38.38714212
    ]
   },
   "properties": {
    "name": "14 FORREST ROAD SOMERS 3927",
    "locID": "ChIJI5106lTo1WoRlW325-m2Weo",
    "tech": "FTTN",
    "upgrade": "UNKNOWN",
    "gnaf_pid": "GAVIC414738221"
   }
  },
  {
   "type": "Feature",
   "geometry": {
    "type": "Point",
    "coordinates": [
     145.17784507,
     -38.38714212
    ]
   },
   "properties": {
    "name": "15 FORREST ROAD SOMERS 3927",
    "locID": "ChIJI5106lTo1WoRGUw7mxDrO-4",
    "tech": "FTTN",
    "upgrade": "UNKNOWN",
    "gnaf_pid": "GAVIC414738222"
   }
  },
  {
   "type": "Feature",
   "geometry": {
    "type": "Point",
    "coordinates": [
     145.17784507,
     -38.38714212
    ]
   },
   "properties": {
    "name": "16 FORREST ROAD SOMERS 3927",
    "locID": "ChIJI5106lTo1WoRIHVofw5YvuM",
    "tech": "FTTN",
    "upgrade": "UNKNOWN",
    "gnaf_pid": "GAVIC414738223"
   }
  },
  {
   "type": "Feature",
   "geometry": {
    "type": "Point",
    "coordinates": [
     145.17784507,
     -38.38714212
    ]
   },
   "properties": {
    "name": "17 FORREST ROAD SOMERS 3927",
    "locID": "ChIJI5106lTo1WoR_eiBgKXtQKs",
    "tech": "FTTN",
    "upgrade": "UNKNOWN",
    "gnaf_pid": "GAVIC414738224"
   }
  },
  {
   "type": "Feature",
   "geometry": {
    "type": "Point",
    "coordinates": [
     145.17784507,
     -38.38714212
    ]
   },
   "properties": {
    "name": "18 FORREST ROAD SOMERS 3927",
    "locID": "ChIJI5106lTo1WoRhMB1XD2x_Jw",
    "tech": "FTTN",
    "upgrade": "UNKNOWN",
    "gnaf_pid": "GAVIC414738225"
   }
  },
  {
   "type": "Feature",
   "geometry": {
    "type": "Point",
    "coordinates": [
     145.17784507,
     -38.38714212
    ]
   },
   "properties": {
    "name": "19 FORREST ROAD SOMERS 3927",
    "locID": "ChIJI5106lTo1WoRVsvW1G6TMPw",
    "tech": "FTTN",
    "upgrade": "UNKNOWN",
    "gnaf_pid": "GAVIC414738226"
   }
  },
  {
   "type": "Feature",
   "geometry": {
    "type": "Point",
    "coordinates": [
     145.17632542,
     -38.39095516
    ]
   },
   "properties": {
    "name": "16 ACACIA COURT SOMERS 3927",
    "locID": "ChIJDZORiavp1WoRHWoCQvcfexc",
    "tech": "FTTN",
    "upgrade": "UNKNOWN",
    "gnaf_pid": "GAVIC414759754"
   }
  },
  {
   "type": "Feature",
   "geometry": {
    "type": "Point",
    "coordinates": [
     145.17632542,
     -38.39095516
    ]
   },
   "properties": {
    "name": "17 ACACIA COURT SOMERS 3927",
    "locID": "ChIJDZORiavp1WoRi_l0Fa5Jr3Q",
    "tech": "FTTN",
    "upgrade": "UNKNOWN",
    "gnaf_pid": "GAVIC414759755"
   }
  },
  {
   "type": "Feature",
   "geometry": {
    "type": "Point",
    "coordinates": [
     145.17632542,
     -38.39095516
    ]
   },
   "properties": {
    "name": "18 ACACIA COURT SOMERS 3927",
    "locID": "ChIJDZORiavp1WoRChaRfP82Rgk",
    "tech": "FTTN",
    "upgrade": "UNKNOWN",
    "gnaf_pid": "GAVIC414759756"
   }
  },
  {
   "type": "Feature",
   "geometry": {
    "type": "Point",
    "coordinates": [
     145.17632542,
     -38.39095516
    ]
   },
   "properties": {
    "name": "19 ACACIA COURT SOMERS 3927",
    "locID": "ChIJDZORiavp1WoRsDFQb4BDUiM",
    "tech": "FTTN",
    "upgrade": "UNKNOWN",
    "gnaf_pid": "GAVIC414759757"
   }
  },
  {
   "type": "Feature",
   "geometry": {
    "type": "Point",
    "coordinates": [
     145.17632542,
     -38.39095516
    ]
   },
   "properties": {
    "name": "20 ACACIA COURT SOMERS 3927",
    "locID": "ChIJDZORiavp1WoR7kJFhU8gvOI",
    "tech": "FTTN",
    "upgrade": "UNKNOWN",
    "gnaf_pid": "GAVIC414759758"
   }
  },
  {
   "type": "Feature",
   "geometry": {
    "type": "Point",
    "coordinates": [
     145.17784507,
     -38.38714212
    ]
   },
   "properties": {
    "name": "20 FORREST ROAD SOMERS 3927",
    "locID": "ChIJI5106lTo1WoRshx_gmzbC_M",
    "tech": "FTTN",
    "upgrade": "UNKNOWN",
    "gnaf_pid": "GAVIC414764736"
   }
  },
  {
   "type": "Feature",
   "geometry": {
    "type": "Point",
    "coordinates": [
     145.18017435,
     -38.39161692
    ]
   },
   "properties": {
    "name": "1 SALAMAUA ROAD SOMERS 3927",
    "locID": "ChIJIbv3Xqrp1WoR2_8aj6xzs7I",
    "tech": "FTTN",
    "upgrade": "UNKNOWN",
    "gnaf_pid": "GAVIC414764737"
   }
  },
  {
   "type": "Feature",
   "geometry": {
    "type": "Point",
    "coordinates": [
     145.18017435,
     -38.39161692
    ]
   },
   "properties": {
    "name": "16 SALAMAUA ROAD SOMERS 3927",
    "locID": "ChIJIbv3Xqrp1WoRF8J7TrVDXuM",
    "tech": "FTTN",
    "upgrade": "UNKNOWN",
    "gnaf_pid": "GAVIC414764981"
   }
  },
  {
   "type": "Feature",
   "geometry": {
    "type": "Point",
    "coordinates": [
     145.18017435,
     -38.39161692
    ]
   },
   "properties": {
    "name": "17 SALAMAUA ROAD SOMERS 3927",
    "locID": "ChIJIbv3Xqrp1WoRr8E2yKFazik",
    "tech": "FTTN",
    "upgrade": "UNKNOWN",
    "gnaf_pid": "GAVIC414764982"
   }
  },
  {
   "type": "Feature",
   "geometry": {
    "type": "Point",
    "coordinates": [
     145.18017435,
     -38.39161692
    ]
   },
   "properties": {
    "name": "18 SALAMAUA ROAD SOMERS 3927",
    "locID": "ChIJIbv3Xqrp1WoR9h4K8X56B-4",
    "tech": "FTTN",
    "upgrade": "UNKNOWN",
    "gnaf_pid": "GAVIC414764983"
   }
  },
  {
   "type": "Feature",
   "geometry": {
    "type": "Point",
    "coordinates": [
     145.18017435,
     -38.39161692
    ]
   },
   "properties": {
    "name": "19 SALAMAUA ROAD SOMERS 3927",
    "locID": "ChIJIbv3Xqrp1WoR5Bbs3wKNH_c",
    "tech": "FTTN",
    "upgrade": "UNKNOWN",
    "gnaf_pid": "GAVIC414764984"
   }
  },
  {
   "type": "Feature",
   "geometry": {
    "type": "Point",
    "coordinates": [
     145.16111604,
     -38.39174295
    ]
   },
   "properties": {
    "name": "13 PALM BEACH GROVE SOMERS 3927",
    "locID": "ChIJ45A9i7fp1WoRstmpOFrl8uM",
    "tech": "FTTN",
    "upgrade": "UNKNOWN",
    "gnaf_pid": "GAVIC414779123"
   }
  },
  {
   "type": "Feature",
   "geometry": {
    "type": "Point",
    "coordinates": [
     145.16111604,
     -38.39174295
    ]
   },
   "properties": {
    "name": "14 PALM BEACH GROVE SOMERS 3927",
    "locID": "ChIJ45A9i7fp1WoRGn8yhdI623M",
    "tech": "FTTN",
    "upgrade": "UNKNOWN",
    "gnaf_pid": "GAVIC414779124"
   }
  },
  {
   "type": "Feature",
   "geometry": {
    "type": "Point",
    "coordinates": [
     145.16111604,
     -38.39174295
    ]
   },
   "properties": {
    "name": "15 PALM BEACH GROVE SOMERS 3927",
    "locID": "ChIJ45A9i7fp1WoRF6itr7Ht8G0",
    "tech": "FTTN",
    "upgrade": "UNKNOWN",
    "gnaf_pid": "GAVIC414779125"
   }
  },
  {
   "type": "Feature",
   "geometry": {
    "type": "Point",
    "coordinates": [
     145.16111604,
     -38.39174295
    ]
   },
   "properties": {
    "name": "16 PALM BEACH GROVE SOMERS 3927",
    "locID": "ChIJ45A9i7fp1WoRWTjA6A4_6w0",
    "tech": "FTTN",
    "upgrade": "UNKNOWN",
    "gnaf_pid": "GAVIC414779126"
   }
  },
  {
   "type": "Feature",
   "geometry": {
    "type": "Point",
    "coordinates": [
     145.16111604,
     -38.39174295
    ]
   },
   "properties": {
    "name": "17 PALM BEACH GROVE SOMERS 3927",
    "locID": "ChIJ45A9i7fp1WoRo4tcEOXx838",
    "tech": "FTTN",
    "upgrade": "UNKNOWN",
    "gnaf_pid": "GAVIC414779127"
   }
  },
  {
   "type": "Feature",
   "geometry": {
    "type": "Point",
    "coordinates": [
     145.16111604,
     -38.39174295
    ]
   },
   "properties": {
    "name": "18 PALM BEACH GROVE SOMERS 3927",
    "locID": "ChIJ45A9i7fp1WoRCpjKV7bKZ3c",
    "tech": "FTTN",
    "upgrade": "UNKNOWN",
    "gnaf_pid": "GAVIC414779128"
   }
  },
  {
   "type": "Feature",
   "geometry": {
    "type": "Point",
    "coordinates": [
     145.16111604,
     -38.39174295
    ]
   },
   "properties": {
    "name": "19 PALM BEACH GROVE SOMERS 3927",
    "locID": "ChIJ45A9i7fp1WoRjYB89keO5rA",
    "tech": "FTTN",
    "upgrade": "UNKNOWN",
    "gnaf_pid": "GAVIC414779129"
   }
  },
  {
   "type": "Feature",
   "geometry": {
    "type": "Point",
    "coordinates": [
     145.16111604,
     -38.39174295
    ]
   },
   "properties": {
    "name": "20 PALM BEACH GROVE SOMERS 3927",
    "locID": "ChIJ45A9i7fp1WoRXxyqLS7voZA",
    "tech": "FTTN",
    "upgrade": "UNKNOWN",
    "gnaf_pid": "GAVIC414779130"
   }
  },
  {
   "type": "Feature",
   "geometry": {
    "type": "Point",
    "coordinates": [
     145.16111604,
     -38.39174295
    ]
   },
   "properties": {
    "name": "52 PALM BEACH GROVE SOMERS 3927",
    "locID": "ChIJ45A9i7fp1WoRlr6O5wHmH0c",
    "tech": "FTTN",
    "upgrade": "UNKNOWN",
    "gnaf_pid": "GAVIC414779133"
   }
  },
  {
   "type": "Feature",
   "geometry": {
    "type": "Point",
    "coordinates": [
     145.16111604,
     -38.39174295
    ]
   },
   "properties": {
    "name": "64 PALM BEACH GROVE SOMERS 3927",
    "locID": "ChIJ45A9i7fp1WoRgvTgzzAQARM",
    "tech": "FTTN",
    "upgrade": "UNKNOWN",
    "gnaf_pid": "GAVIC414779134"
   }
  },
  {
   "type": "Feature",
   "geometry": {
    "type": "Point",
    "coordinates": [
     145.16111604,
     -38.39174295
    ]
   },
   "properties": {
    "name": "69 PALM BEACH GROVE SOMERS 3927",
    "locID": "ChIJ45A9i7fp1WoRV5m46UUKsww",
    "tech": "FTTN",
    "upgrade": "UNKNOWN",
    "gnaf_pid": "GAVIC414779135"
   }
  },
  {
   "type": "Feature",
   "geometry": {
    "type": "Point",
    "coordinates": [
     145.18017435,
     -38.39161692
    ]
   },
   "properties": {
    "name": "20 SALAMAUA ROAD SOMERS 3927",
    "locID": "ChIJIbv3Xqrp1WoRwygHz-3O5zU",
    "tech": "FTTN",
    "upgrade": "UNKNOWN",
    "gnaf_pid": "GAVIC414782895"
   }
  },
  {
   "type": "Feature",
   "geometry": {
    "type": "Point",
    "coordinates": [
     145.18091417,
     -38.39404793
    ]
   },
   "properties": {
    "name": "1 FALCON ROAD SOMERS 3927",
    "locID": "ChIJr3zP96np1WoRpBmdkm3u13Y",
    "tech": "FTTN",
    "upgrade": "UNKNOWN",
    "gnaf_pid": "GAVIC414782896"
   }
  },
  {
   "type": "Feature",
   "geometry": {
    "type": "Point",
    "coordinates": [
     145.18091417,
     -38.39404793
    ]
   },
   "properties": {
    "name": "2 FALCON ROAD SOMERS 3927",
    "locID": "ChIJr3zP96np1WoR0ygvthmWxOk",
    "tech": "FTTN",
    "upgrade": "UNKNOWN",
    "gnaf_pid": "GAVIC414782897"
   }
  },
  {
   "type": "Feature",
   "geometry": {
    "type": "Point",
    "coordinates": [
     145.18091417,
     -38.39404793
    ]
   },
   "properties": {
    "name": "3 FALCON ROAD SOMERS 3927",
    "locID": "ChIJr3zP96np1WoRmUgC1yqqxPc",
    "tech": "FTTN",
    "upgrade": "UNKNOWN",
    "gnaf_pid": "GAVIC414782898"
   }
  },
  {
   "type": "Feature",
   "geometry": {
    "type": "Point",
    "coordinates": [
     145.18091417,
     -38.39404793
    ]
   },
   "properties": {
    "name": "4 FALCON ROAD SOMERS 3927",
    "locID": "ChIJr3zP96np1WoRC9Hd_nETa9E",
    "tech": "FTTN",
    "upgrade": "UNKNOWN",
    "gnaf_pid": "GAVIC414782899"
   }
  },
  {
   "type": "Feature",
   "geometry": {
    "type": "Point",
    "coordinates": [
     145.18017435,
     -38.39161692
    ]
   },
   "properties": {
    "name": "2 SALAMAUA ROAD SOMERS 3927",
    "locID": "ChIJIbv3Xqrp1WoRByIvZP1IudQ",
    "tech": "FTTN",
    "upgrade": "UNKNOWN",
    "gnaf_pid": "GAVIC414782900"
   }
  },
  {
   "type": "Feature",
   "geometry": {
    "type": "Point",
    "coordinates": [
     145.18017435,
     -38.39161692
    ]
   },
   "properties": {
    "name": "3 SALAMAUA ROAD SOMERS 3927",
    "locID": "ChIJIbv3Xqrp1WoR7XS-NXImVL0",
    "tech": "FTTN",
    "upgrade": "UNKNOWN",
    "gnaf_pid": "GAVIC414782901"
   }
  },
  {
   "type": "Feature",
   "geometry": {
    "type": "Point",
    "coordinates": [
     145.18017435,
     -38.39161692
    ]
   },
   "properties": {
    "name": "4 SALAMAUA ROAD SOMERS 3927",
    "locID": "ChIJIbv3Xqrp1WoRb9yDPblbJaM",
    "tech": "FTTN",
    "upgrade": "UNKNOWN",
    "gnaf_pid": "GAVIC414782902"
   }
  },
  {
   "type": "Feature",
   "geometry": {
    "type": "Point",
    "coordinates": [
     145.18017435,
     -38.39161692
    ]
   },
   "properties": {
    "name": "5 SALAMAUA ROAD SOMERS 3927",
    "locID": "ChIJIbv3Xqrp1WoRxH-iRbtAw8g",
    "tech": "FTTN",
    "upgrade": "UNKNOWN",
    "gnaf_pid": "GAVIC414782903"
   }
  },
  {
   "type": "Feature",
   "geometry": {
    "type": "Point",
    "coordinates": [
     145.18017435,
     -38.39161692
    ]
   },
   "properties": {
    "name": "6 SALAMAUA ROAD SOMERS 3927",
    "locID": "ChIJIbv3Xqrp1WoRJCMs6pOd0Sc",
    "tech": "FTTN",
    "upgrade": "UNKNOWN",
    "gnaf_pid": "GAVIC414782904"
   }
  },
  {
   "type": "Feature",
   "geometry": {
    "type": "Point",
    "coordinates": [
     145.18017435,
     -38.39161692
    ]
   },
   "properties": {
    "name": "7 SALAMAUA ROAD SOMERS 3927",
    "locID": "ChIJIbv3Xqrp1WoRtcWhayca3H0",
    "tech": "FTTN",
    "upgrade": "UNKNOWN",
    "gnaf_pid": "GAVIC414782905"
   }
  },
  {
   "type": "Feature",
   "geometry": {
    "type": "Point",
    "coordinates": [
     145.18017435,
     -38.39161692
    ]
   },
   "properties": {
    "name": "8 SALAMAUA ROAD SOMERS 3927",
    "locID": "ChIJIbv3Xqrp1WoRXC_kxB_gX-o",
    "tech": "FTTN",
    "upgrade": "UNKNOWN",
    "gnaf_pid": "GAVIC414782906"
   }
  },
  {
   "type": "Feature",
   "geometry": {
    "type": "Point",
    "coordinates": [
     145.18017435,
     -38.39161692
    ]
   },
   "properties": {
    "name": "9 SALAMAUA ROAD SOMERS 3927",
    "locID": "ChIJIbv3Xqrp1WoRF4621NtXBp4",
    "tech": "FTTN",
    "upgrade": "UNKNOWN",
    "gnaf_pid": "GAVIC414782907"
   }
  },
  {
   "type": "Feature",
   "geometry": {
    "type": "Point",
    "coordinates": [
     145.18017435,
     -38.39161692
    ]
   },
   "properties": {
    "name": "10 SALAMAUA ROAD SOMERS 3927",
    "locID": "ChIJIbv3Xqrp1WoRb5oCaGWqUOo",
    "tech": "FTTN",
    "upgrade": "UNKNOWN",
    "gnaf_pid": "GAVIC414782908"
   }
  },
  {
   "type": "Feature",
   "geometry": {
    "type": "Point",
    "coordinates": [
     145.18017435,
     -38.39161692
    ]
   },
   "properties": {
    "name": "11 SALAMAUA ROAD SOMERS 3927",
    "locID": "ChIJIbv3Xqrp1WoRqAHm1H_gAqE",
    "tech": "FTTN",
    "upgrade": "UNKNOWN",
    "gnaf_pid": "GAVIC414782909"
   }
  },
  {
   "type": "Feature",
   "geometry": {
    "type": "Point",
    "coordinates": [
     145.18017435,
     -38.39161692
    ]
   },
   "properties": {
    "name": "12 SALAMAUA ROAD SOMERS 3927",
    "locID": "ChIJIbv3Xqrp1WoR6n-fN5FxYHE",
    "tech": "FTTN",
    "upgrade": "UNKNOWN",
    "gnaf_pid": "GAVIC414782910"
   }
  },
  {
   "type": "Feature",
   "geometry": {
    "type": "Point",
    "coordinates": [
     145.18017435,
     -38.39161692
    ]
   },
   "properties": {
    "name": "13 SALAMAUA ROAD SOMERS 3927",
    "locID": "ChIJIbv3Xqrp1WoRasagrpqH3JY",
    "tech": "FTTN",
    "upgrade": "UNKNOWN",
    "gnaf_pid": "GAVIC414782911"
   }
  },
  {
   "type": "Feature",
   "geometry": {
    "type": "Point",
    "coordinates": [
     145.18017435,
     -38.39161692
    ]
   },
   "properties": {
    "name": "14 SALAMAUA ROAD SOMERS 3927",
    "locID": "ChIJIbv3Xqrp1WoRr4d4Liit8lc",
    "tech": "FTTN",
    "upgrade": "UNKNOWN",
    "gnaf_pid": "GAVIC414782912"
   }
  },
  {
   "type": "Feature",
   "geometry": {
    "type": "Point",
    "coordinates": [
     145.18017435,
     -38.39161692
    ]
   },
   "properties": {
    "name": "15 SALAMAUA ROAD SOMERS 3927",
    "locID": "ChIJIbv3Xqrp1WoRJkvxoLHUwRg",
    "tech": "FTTN",
    "upgrade": "UNKNOWN",
    "gnaf_pid": "GAVIC414782913"
   }
  },
  {
   "type": "Feature",
   "geometry": {
    "type": "Point",
    "coordinates": [
     145.16900008,
     -38.39080089
    ]
   },
   "properties": {
    "name": "20 NORMAN STREET SOMERS 3927",
    "locID": "ChIJNyr7k7Hp1WoR7AIuVAnOyFM",
    "tech": "FTTN",
    "upgrade": "UNKNOWN",
    "gnaf_pid": "GAVIC414793842"
   }
  },
  {
   "type": "Feature",
   "geometry": {
    "type": "Point",
    "coordinates": [
     145.18091417,
     -38.39404793
    ]
   },
   "properties": {
    "name": "5 FALCON ROAD SOMERS 3927",
    "locID": "ChIJr3zP96np1WoRRo79RjYSbjY",
    "tech": "FTTN",
    "upgrade": "UNKNOWN",
    "gnaf_pid": "GAVIC414801060"
   }
  },
  {
   "type": "Feature",
   "geometry": {
    "type": "Point",
    "coordinates": [
     145.18091417,
     -38.39404793
    ]
   },
   "properties": {
    "name": "6 FALCON ROAD SOMERS 3927",
    "locID": "ChIJr3zP96np1WoRt54Tvyog4t4",
    "tech": "FTTN",
    "upgrade": "UNKNOWN",
    "gnaf_pid": "GAVIC414801061"
   }
  },
  {
   "type": "Feature",
   "geometry": {
    "type": "Point",
    "coordinates": [
     145.18091417,
     -38.39404793
    ]
   },
   "properties": {
    "name": "7 FALCON ROAD SOMERS 3927",
    "locID": "ChIJr3zP96np1WoRUtn10tVZrpQ",
    "tech": "FTTN",
    "upgrade": "UNKNOWN",
    "gnaf_pid": "GAVIC414801062"
   }
  },
  {
   "type": "Feature",
   "geometry": {
    "type": "Point",
    "coordinates": [
     145.18091417,
     -38.39404793
    ]
   },
   "properties": {
    "name": "8 FALCON ROAD SOMERS 3927",
    "locID": "ChIJr3zP96np1WoRXetZ1CEEpwA",
    "tech": "FTTN",
    "upgrade": "UNKNOWN",
    "gnaf_pid": "GAVIC414801063"
   }
  },
  {
   "type": "Feature",
   "geometry": {
    "type": "Point",
    "coordinates": [
     145.18091417,
     -38.39404793
    ]
   },
   "properties": {
    "name": "9 FALCON ROAD SOMERS 3927",
    "locID": "ChIJr3zP96np1WoRiFNY8ijN5nk",
    "tech": "FTTN",
    "upgrade": "UNKNOWN",
    "gnaf_pid": "GAVIC414801064"
   }
  },
  {
   "type": "Feature",
   "geometry": {
    "type": "Point",
    "coordinates": [
     145.18091417,
     -38.39404793
    ]
   },
   "properties": {
    "name": "10 FALCON ROAD SOMERS 3927",
    "locID": "ChIJr3zP96np1WoRp-9Nd6Zq4_w",
    "tech": "FTTN",
    "upgrade": "UNKNOWN",
    "gnaf_pid": "GAVIC414801065"
   }
  },
  {
   "type": "Feature",
   "geometry": {
    "type": "Point",
    "coordinates": [
     145.18091417,
     -38.39404793
    ]
   },
   "properties": {
    "name": "11 FALCON ROAD SOMERS 3927",
    "locID": "ChIJr3zP96np1WoRS52rOjTIXYo",
    "tech": "FTTN",
    "upgrade": "UNKNOWN",
    "gnaf_pid": "GAVIC414801066"
   }
  },
  {
   "type": "Feature",
   "geometry": {
    "type": "Point",
    "coordinates": [
     145.18091417,
     -38.39404793
    ]
   },
   "properties": {
    "name": "12 FALCON ROAD SOMERS 3927",
    "locID": "EigxMiBGYWxjb24gUmQsIFNvbWVycyBWSUMgMzkyNywgQXVzdHJhbGlhIjASLgoUChIJ-73E96np1WoRwCgY7HRWBBMQDCoUChIJ-73E96np1WoRtcW1lv0H7AY",
    "tech": "FTTN",
    "upgrade": "UNKNOWN",
    "gnaf_pid": "GAVIC414801067"
   }
  },
  {
   "type": "Feature",
   "geometry": {
    "type": "Point",
    "coordinates": [
     145.18091417,
     -38.39404793
    ]
   },
   "properties": {
    "name": "13 FALCON ROAD SOMERS 3927",
    "locID": "ChIJr3zP96np1WoR70tbV9sTxkM",
    "tech": "FTTN",
    "upgrade": "UNKNOWN",
    "gnaf_pid": "GAVIC414801068"
   }
  },
  {
   "type": "Feature",
   "geometry": {
    "type": "Point",
    "coordinates": [
     145.18091417,
     -38.39404793
    ]
   },
   "properties": {
    "name": "14 FALCON ROAD SOMERS 3927",
    "locID": "ChIJr3zP96np1WoRx04gI1Jafxg",
    "tech": "FTTN",
    "upgrade": "UNKNOWN",
    "gnaf_pid": "GAVIC414801069"
   }
  },
  {
   "type": "Feature",
   "geometry": {
    "type": "Point",
    "coordinates": [
     145.18091417,
     -38.39404793
    ]
   },
   "properties": {
    "name": "15 FALCON ROAD SOMERS 3927",
    "locID": "ChIJr3zP96np1WoR38_OM3Q_0EA",
    "tech": "FTTN",
    "upgrade": "UNKNOWN",
    "gnaf_pid": "GAVIC414801070"
   }
  },
  {
   "type": "Feature",
   "geometry": {
    "type": "Point",
    "coordinates": [
     145.18091417,
     -38.39404793
    ]
   },
   "properties": {
    "name": "16 FALCON ROAD SOMERS 3927",
    "locID": "ChIJr3zP96np1WoR1tX5GmWxDjE",
    "tech": "FTTN",
    "upgrade": "UNKNOWN",
    "gnaf_pid": "GAVIC414801071"
   }
  },
  {
   "type": "Feature",
   "geometry": {
    "type": "Point",
    "coordinates": [
     145.18091417,
     -38.39404793
    ]
   },
   "properties": {
    "name": "17 FALCON ROAD SOMERS 3927",
    "locID": "ChIJr3zP96np1WoRONzsgGWWPwI",
    "tech": "FTTN",
    "upgrade": "UNKNOWN",
    "gnaf_pid": "GAVIC414801072"
   }
  },
  {
   "type": "Feature",
   "geometry": {
    "type": "Point",
    "coordinates": [
     145.18091417,
     -38.39404793
    ]
   },
   "properties": {
    "name": "18 FALCON ROAD SOMERS 3927",
    "locID": "ChIJr3zP96np1WoR0rFKVbIXhzM",
    "tech": "FTTN",
    "upgrade": "UNKNOWN",
    "gnaf_pid": "GAVIC414801073"
   }
  },
  {
   "type": "Feature",
   "geometry": {
    "type": "Point",
    "coordinates": [
     145.18091417,
     -38.39404793
    ]
   },
   "properties": {
    "name": "19 FALCON ROAD SOMERS 3927",
    "locID": "ChIJr3zP96np1WoR1BqWKnKC3Yg",
    "tech": "FTTN",
    "upgrade": "UNKNOWN",
    "gnaf_pid": "GAVIC414801074"
   }
  },
  {
   "type": "Feature",
   "geometry": {
    "type": "Point",
    "coordinates": [
     145.18091417,
     -38.39404793
    ]
   },
   "properties": {
    "name": "20 FALCON ROAD SOMERS 3927",
    "locID": "ChIJr3zP96np1WoRHJj_VpyWsQc",
    "tech": "FTTN",
    "upgrade": "UNKNOWN",
    "gnaf_pid": "GAVIC414801075"
   }
  },
  {
   "type": "Feature",
   "geometry": {
    "type": "Point",
    "coordinates": [
     145.14720786,
     -38.38887457
    ]
   },
   "properties": {
    "name": "1 LINDELL AVENUE SOMERS 3927",
    "locID": "ChIJRY0j6Nrp1WoRVDlGm1JcjlE",
    "tech": "FTTN",
    "upgrade": "UNKNOWN",
    "gnaf_pid": "GAVIC414811958"
   }
  },
  {
   "type": "Feature",
   "geometry": {
    "type": "Point",
    "coordinates": [
     145.14720786,
     -38.38887457
    ]
   },
   "properties": {
    "name": "2 LINDELL AVENUE SOMERS 3927",
    "locID": "ChIJRY0j6Nrp1WoRNklL-fPxHMU",
    "tech": "FTTN",
    "upgrade": "UNKNOWN",
    "gnaf_pid": "GAVIC414811959"
   }
  },
  {
   "type": "Feature",
   "geometry": {
    "type": "Point",
    "coordinates": [
     145.14720786,
     -38.38887457
    ]
   },
   "properties": {
    "name": "3 LINDELL AVENUE SOMERS 3927",
    "locID": "ChIJRY0j6Nrp1WoRvYHxBfXRfZI",
    "tech": "FTTN",
    "upgrade": "UNKNOWN",
    "gnaf_pid": "GAVIC414811960"
   }
  },
  {
   "type": "Feature",
   "geometry": {
    "type": "Point",
    "coordinates": [
     145.14720786,
     -38.38887457
    ]
   },
   "properties": {
    "name": "4 LINDELL AVENUE SOMERS 3927",
    "locID": "ChIJRY0j6Nrp1WoRL8zuISPj2fU",
    "tech": "FTTN",
    "upgrade": "UNKNOWN",
    "gnaf_pid": "GAVIC414811961"
   }
  },
  {
   "type": "Feature",
   "geometry": {
    "type": "Point",
    "coordinates": [
     145.14720786,
     -38.38887457
    ]
   },
   "properties": {
    "name": "5 LINDELL AVENUE SOMERS 3927",
    "locID": "ChIJRY0j6Nrp1WoRRoL-X_LCI4U",
    "tech": "FTTN",
    "upgrade": "UNKNOWN",
    "gnaf_pid": "GAVIC414811962"
   }
  },
  {
   "type": "Feature",
   "geometry": {
    "type": "Point",
    "coordinates": [
     145.14720786,
     -38.38887457
    ]
   },
   "properties": {
    "name": "6 LINDELL AVENUE SOMERS 3927",
    "locID": "ChIJRY0j6Nrp1WoR0lFckfZR5uE",
    "tech": "FTTN",
    "upgrade": "UNKNOWN",
    "gnaf_pid": "GAVIC414811963"
   }
  },
  {
   "type": "Feature",
   "geometry": {
    "type": "Point",
    "coordinates": [
     145.14720786,
     -38.38887457
    ]
   },
   "properties": {
    "name": "7 LINDELL AVENUE SOMERS 3927",
    "locID": "ChIJRY0j6Nrp1WoR6DzVyay8Vv0",
    "tech": "FTTN",
    "upgrade": "UNKNOWN",
    "gnaf_pid": "GAVIC414811964"
   }
  },
  {
   "type": "Feature",
   "geometry": {
    "type": "Point",
    "coordinates": [
     145.14720786,
     -38.38887457
    ]
   },
   "properties": {
    "name": "8 LINDELL AVENUE SOMERS 3927",
    "locID": "ChIJRY0j6Nrp1WoRu8uoeYCWCs4",
    "tech": "FTTN",
    "upgrade": "UNKNOWN",
    "gnaf_pid": "GAVIC414811965"
   }
  },
  {
   "type": "Feature",
   "geometry": {
    "type": "Point",
    "coordinates": [
     145.14720786,
     -38.38887457
    ]
   },
   "properties": {
    "name": "9 LINDELL AVENUE SOMERS 3927",
    "locID": "ChIJRY0j6Nrp1WoRScdDfsWZtoM",
    "tech": "FTTN",
    "upgrade": "UNKNOWN",
    "gnaf_pid": "GAVIC414811966"
   }
  },
  {
   "type": "Feature",
   "geometry": {
    "type": "Point",
    "coordinates": [
     145.14720786,
     -38.38887457
    ]
   },
   "properties": {
    "name": "10 LINDELL AVENUE SOMERS 3927",
    "locID": "ChIJRY0j6Nrp1WoRMF0NEa_8coY",
    "tech": "FTTN",
    "upgrade": "UNKNOWN",
    "gnaf_pid": "GAVIC414811967"
   }
  },
  {
   "type": "Feature",
   "geometry": {
    "type": "Point",
    "coordinates": [
     145.14720786,
     -38.38887457
    ]
   },
   "properties": {
    "name": "11 LINDELL AVENUE SOMERS 3927",
    "locID": "ChIJRY0j6Nrp1WoRqHv4vIK3NXs",
    "tech": "FTTN",
    "upgrade": "UNKNOWN",
    "gnaf_pid": "GAVIC414811968"
   }
  },
  {
   "type": "Feature",
   "geometry": {
    "type": "Point",
    "coordinates": [
     145.14720786,
     -38.38887457
    ]
   },
   "properties": {
    "name": "12 LINDELL AVENUE SOMERS 3927",
    "locID": "ChIJRY0j6Nrp1WoRrs4WJWJn77E",
    "tech": "FTTN",
    "upgrade": "UNKNOWN",
    "gnaf_pid": "GAVIC414811969"
   }
  },
  {
   "type": "Feature",
   "geometry": {
    "type": "Point",
    "coordinates": [
     145.14720786,
     -38.38887457
    ]
   },
   "properties": {
    "name": "13 LINDELL AVENUE SOMERS 3927",
    "locID": "ChIJRY0j6Nrp1WoRVmk63oCuVI0",
    "tech": "FTTN",
    "upgrade": "UNKNOWN",
    "gnaf_pid": "GAVIC414811970"
   }
  },
  {
   "type": "Feature",
   "geometry": {
    "type": "Point",
    "coordinates": [
     145.14720786,
     -38.38887457
    ]
   },
   "properties": {
    "name": "14 LINDELL AVENUE SOMERS 3927",
    "locID": "ChIJRY0j6Nrp1WoRneXTFd4KJSk",
    "tech": "FTTN",
    "upgrade": "UNKNOWN",
    "gnaf_pid": "GAVIC414811971"
   }
  },
  {
   "type": "Feature",
   "geometry": {
    "type": "Point",
    "coordinates": [
     145.14720786,
     -38.38887457
    ]
   },
   "properties": {
    "name": "15 LINDELL AVENUE SOMERS 3927",
    "locID": "ChIJRY0j6Nrp1WoRA9OGVAL0-qo",
    "tech": "FTTN",
    "upgrade": "UNKNOWN",
    "gnaf_pid": "GAVIC414811972"
   }
  },
  {
   "type": "Feature",
   "geometry": {
    "type": "Point",
    "coordinates": [
     145.14720786,
     -38.38887457
    ]
   },
   "properties": {
    "name": "16 LINDELL AVENUE SOMERS 3927",
    "locID": "ChIJRY0j6Nrp1WoRxbvTRU2GNhQ",
    "tech": "FTTN",
    "upgrade": "UNKNOWN",
    "gnaf_pid": "GAVIC414811973"
   }
  },
  {
   "type": "Feature",
   "geometry": {
    "type": "Point",
    "coordinates": [
     145.14720786,
     -38.38887457
    ]
   },
   "properties": {
    "name": "17 LINDELL AVENUE SOMERS 3927",
    "locID": "ChIJRY0j6Nrp1WoRuHse0yXaNGE",
    "tech": "FTTN",
    "upgrade": "UNKNOWN",
    "gnaf_pid": "GAVIC414811974"
   }
  },
  {
   "type": "Feature",
   "geometry": {
    "type": "Point",
    "coordinates": [
     145.14720786,
     -38.38887457
    ]
   },
   "properties": {
    "name": "18 LINDELL AVENUE SOMERS 3927",
    "locID": "ChIJRY0j6Nrp1WoR-uFRe33ipsk",
    "tech": "FTTN",
    "upgrade": "UNKNOWN",
    "gnaf_pid": "GAVIC414811975"
   }
  },
  {
   "type": "Feature",
   "geometry": {
    "type": "Point",
    "coordinates": [
     145.14720786,
     -38.38887457
    ]
   },
   "properties": {
    "name": "19 LINDELL AVENUE SOMERS 3927",
    "locID": "ChIJRY0j6Nrp1WoRNcDRIII-TBo",
    "tech": "FTTN",
    "upgrade": "UNKNOWN",
    "gnaf_pid": "GAVIC414811976"
   }
  },
  {
   "type": "Feature",
   "geometry": {
    "type": "Point",
    "coordinates": [
     145.14720786,
     -38.38887457
    ]
   },
   "properties": {
    "name": "20 LINDELL AVENUE SOMERS 3927",
    "locID": "ChIJRY0j6Nrp1WoRZQJzaYpr_0k",
    "tech": "FTTN",
    "upgrade": "UNKNOWN",
    "gnaf_pid": "GAVIC414811977"
   }
  },
  {
   "type": "Feature",
   "geometry": {
    "type": "Point",
    "coordinates": [
     145.16111604,
     -38.39174295
    ]
   },
   "properties": {
    "name": "1 PALM BEACH GROVE SOMERS 3927",
    "locID": "ChIJ45A9i7fp1WoRQX93SWxaccc",
    "tech": "FTTN",
    "upgrade": "UNKNOWN",
    "gnaf_pid": "GAVIC414815200"
   }
  },
  {
   "type": "Feature",
   "geometry": {
    "type": "Point",
    "coordinates": [
     145.16111604,
     -38.39174295
    ]
   },
   "properties": {
    "name": "2 PALM BEACH GROVE SOMERS 3927",
    "locID": "ChIJ45A9i7fp1WoRwFWurLX2nYw",
    "tech": "FTTN",
    "upgrade": "UNKNOWN",
    "gnaf_pid": "GAVIC414815201"
   }
  },
  {
   "type": "Feature",
   "geometry": {
    "type": "Point",
    "coordinates": [
     145.16111604,
     -38.39174295
    ]
   },
   "properties": {
    "name": "3 PALM BEACH GROVE SOMERS 3927",
    "locID": "LOC000077175279",
    "tech": "FTTN",
    "upgrade": "NULL_NA",
    "gnaf_pid": "GAVIC414815202"
   }
  },
  {
   "type": "Feature",
   "geometry": {
    "type": "Point",
    "coordinates": [
     145.16111604,
     -38.39174295
    ]
   },
   "properties": {
    "name": "4 PALM BEACH GROVE SOMERS 3927",
    "locID": "ChIJ45A9i7fp1WoRJAZyRYdcA4M",
    "tech": "FTTN",
    "upgrade": "UNKNOWN",
    "gnaf_pid": "GAVIC414815203"
   }
  },
  {
   "type": "Feature",
   "geometry": {
    "type": "Point",
    "coordinates": [
     145.16111604,
     -38.39174295
    ]
   },
   "properties": {
    "name": "5 PALM BEACH GROVE SOMERS 3927",
    "locID": "ChIJ45A9i7fp1WoRk5qV75dCPPg",
    "tech": "FTTN",
    "upgrade": "UNKNOWN",
    "gnaf_pid": "GAVIC414815204"
   }
  },
  {
   "type": "Feature",
   "geometry": {
    "type": "Point",
    "coordinates": [
     145.16111604,
     -38.39174295
    ]
   },
   "properties": {
    "name": "6 PALM BEACH GROVE SOMERS 3927",
    "locID": "ChIJ45A9i7fp1WoRj5zqBo2eroI",
    "tech": "FTTN",
    "upgrade": "UNKNOWN",
    "gnaf_pid": "GAVIC414815205"
   }
  },
  {
   "type": "Feature",
   "geometry": {
    "type": "Point",
    "coordinates": [
     145.16111604,
     -38.39174295
    ]
   },
   "properties": {
    "name": "7 PALM BEACH GROVE SOMERS 3927",
    "locID": "LOC000077175279",
    "tech": "FTTN",
    "upgrade": "NULL_NA",
    "gnaf_pid": "GAVIC414815206"
   }
  },
  {
   "type": "Feature",
   "geometry": {
    "type": "Point",
    "coordinates": [
     145.16111604,
     -38.39174295
    ]
   },
   "properties": {
    "name": "8 PALM BEACH GROVE SOMERS 3927",
    "locID": "LOC000104632988",
    "tech": "FTTN",
    "upgrade": "NULL_NA",
    "gnaf_pid": "GAVIC414815207"
   }
  },
  {
   "type": "Feature",
   "geometry": {
    "type": "Point",
    "coordinates": [
     145.16111604,
     -38.39174295
    ]
   },
   "properties": {
    "name": "9 PALM BEACH GROVE SOMERS 3927",
    "locID": "LOC000042660052",
    "tech": "FTTN",
    "upgrade": "NULL_NA",
    "gnaf_pid": "GAVIC414815208"
   }
  },
  {
   "type": "Feature",
   "geometry": {
    "type": "Point",
    "coordinates": [
     145.16111604,
     -38.39174295
    ]
   },
   "properties": {
    "name": "10 PALM BEACH GROVE SOMERS 3927",
    "locID": "ChIJ45A9i7fp1WoRc8lUVCl0rwg",
    "tech": "FTTN",
    "upgrade": "UNKNOWN",
    "gnaf_pid": "GAVIC414815209"
   }
  },
  {
   "type": "Feature",
   "geometry": {
    "type": "Point",
    "coordinates": [
     145.16111604,
     -38.39174295
    ]
   },
   "properties": {
    "name": "11 PALM BEACH GROVE SOMERS 3927",
    "locID": "ChIJ45A9i7fp1WoRl5h3lBnCD3Q",
    "tech": "FTTN",
    "upgrade": "UNKNOWN",
    "gnaf_pid": "GAVIC414815210"
   }
  },
  {
   "type": "Feature",
   "geometry": {
    "type": "Point",
    "coordinates": [
     145.16111604,
     -38.39174295
    ]
   },
   "properties": {
    "name": "12 PALM BEACH GROVE SOMERS 3927",
    "locID": "ChIJ45A9i7fp1WoR4ThAEcii4f4",
    "tech": "FTTN",
    "upgrade": "UNKNOWN",
    "gnaf_pid": "GAVIC414815211"
   }
  },
  {
   "type": "Feature",
   "geometry": {
    "type": "Point",
    "coordinates": [
     145.179799,
     -38.394846
    ]
   },
   "properties": {
    "name": "21 BELVEDERE ROAD SOMERS 3927",
    "locID": "LOC000103381974",
    "tech": "FTTN",
    "upgrade": "NULL_NA",
    "gnaf_pid": "GAVIC419544733"
   }
  },
  {
   "type": "Feature",
   "geometry": {
    "type": "Point",
    "coordinates": [
     145.173442,
     -38.393584
    ]
   },
   "properties": {
    "name": "3 EVANS STREET SOMERS 3927",
    "locID": "LOC000081840210",
    "tech": "FTTN",
    "upgrade": "NULL_NA",
    "gnaf_pid": "GAVIC419549562"
   }
  },
  {
   "type": "Feature",
   "geometry": {
    "type": "Point",
    "coordinates": [
     145.158323,
     -38.39014
    ]
   },
   "properties": {
    "name": "84 ALEXANDRA AVENUE SOMERS 3927",
    "locID": "LOC000065657685",
    "tech": "FTTN",
    "upgrade": "NULL_NA",
    "gnaf_pid": "GAVIC419549608"
   }
  },
  {
   "type": "Feature",
   "geometry": {
    "type": "Point",
    "coordinates": [
     145.157762,
     -38.391978
    ]
   },
   "properties": {
    "name": "97 ALEXANDRA AVENUE SOMERS 3927",
    "locID": "LOC000072009527",
    "tech": "FTTN",
    "upgrade": "NULL_NA",
    "gnaf_pid": "GAVIC419549609"
   }
  },
  {
   "type": "Feature",
   "geometry": {
    "type": "Point",
    "coordinates": [
     145.164254,
     -38.391963
    ]
   },
   "properties": {
    "name": "92 CAMP HILL ROAD SOMERS 3927",
    "locID": "LOC000031042294",
    "tech": "FTTN",
    "upgrade": "NULL_NA",
    "gnaf_pid": "GAVIC419550197"
   }
  },
  {
   "type": "Feature",
   "geometry": {
    "type": "Point",
    "coordinates": [
     145.168982,
     -38.391974
    ]
   },
   "properties": {
    "name": "11 GOLDSMITH STREET SOMERS 3927",
    "locID": "LOC000079171881",
    "tech": "FTTN",
    "upgrade": "NULL_NA",
    "gnaf_pid": "GAVIC419550371"
   }
  },
  {
   "type": "Feature",
   "geometry": {
    "type": "Point",
    "coordinates": [
     145.156925,
     -38.391118
    ]
   },
   "properties": {
    "name": "8 BEACH HILL AVENUE SOMERS 3927",
    "locID": "LOC000107798964",
    "tech": "FTTN",
    "upgrade": "NULL_NA",
    "gnaf_pid": "GAVIC419550667"
   }
  },
  {
   "type": "Feature",
   "geometry": {
    "type": "Point",
    "coordinates": [
     145.156024,
     -38.390085
    ]
   },
   "properties": {
    "name": "17 BEACH HILL AVENUE SOMERS 3927",
    "locID": "LOC000108891130",
    "tech": "FTTN",
    "upgrade": "NULL_NA",
    "gnaf_pid": "GAVIC419550668"
   }
  },
  {
   "type": "Feature",
   "geometry": {
    "type": "Point",
    "coordinates": [
     145.156293,
     -38.389855
    ]
   },
   "properties": {
    "name": "20 BEACH HILL AVENUE SOMERS 3927",
    "locID": "LOC000060540412",
    "tech": "FTTN",
    "upgrade": "NULL_NA",
    "gnaf_pid": "GAVIC419550670"
   }
  },
  {
   "type": "Feature",
   "geometry": {
    "type": "Point",
    "coordinates": [
     145.15401565,
     -38.38759145
    ]
   },
   "properties": {
    "name": "56 BEACH HILL AVENUE SOMERS 3927",
    "locID": "LOC000069568751",
    "tech": "FTTN",
    "upgrade": "NULL_NA",
    "gnaf_pid": "GAVIC419550671"
   }
  },
  {
   "type": "Feature",
   "geometry": {
    "type": "Point",
    "coordinates": [
     145.178368,
     -38.39349
    ]
   },
   "properties": {
    "name": "8 BELVEDERE ROAD SOMERS 3927",
    "locID": "LOC000008479808",
    "tech": "FTTN",
    "upgrade": "NULL_NA",
    "gnaf_pid": "GAVIC419550676"
   }
  },
  {
   "type": "Feature",
   "geometry": {
    "type": "Point",
    "coordinates": [
     145.173529,
     -38.387836
    ]
   },
   "properties": {
    "name": "19 KENNEDY ROAD SOMERS 3927",
    "locID": "LOC000081050559",
    "tech": "FTTN",
    "upgrade": "NULL_NA",
    "gnaf_pid": "GAVIC419550686"
   }
  },
  {
   "type": "Feature",
   "geometry": {
    "type": "Point",
    "coordinates": [
     145.173313,
     -38.388248
    ]
   },
   "properties": {
    "name": "23 KENNEDY ROAD SOMERS 3927",
    "locID": "LOC000070607054",
    "tech": "FTTN",
    "upgrade": "NULL_NA",
    "gnaf_pid": "GAVIC419550687"
   }
  },
  {
   "type": "Feature",
   "geometry": {
    "type": "Point",
    "coordinates": [
     145.17225,
     -38.390421
    ]
   },
   "properties": {
    "name": "39 KENNEDY ROAD SOMERS 3927",
    "locID": "LOC000060880495",
    "tech": "FTTN",
    "upgrade": "NULL_NA",
    "gnaf_pid": "GAVIC419550688"
   }
  },
  {
   "type": "Feature",
   "geometry": {
    "type": "Point",
    "coordinates": [
     145.172154,
     -38.390627
    ]
   },
   "properties": {
    "name": "41 KENNEDY ROAD SOMERS 3927",
    "locID": "LOC000034654992",
    "tech": "FTTN",
    "upgrade": "NULL_NA",
    "gnaf_pid": "GAVIC419550689"
   }
  },
  {
   "type": "Feature",
   "geometry": {
    "type": "Point",
    "coordinates": [
     145.172092,
     -38.389905
    ]
   },
   "properties": {
    "name": "42 KENNEDY ROAD SOMERS 3927",
    "locID": "LOC000104465842",
    "tech": "FTTN",
    "upgrade": "NULL_NA",
    "gnaf_pid": "GAVIC419550690"
   }
  },
  {
   "type": "Feature",
   "geometry": {
    "type": "Point",
    "coordinates": [
     145.17185,
     -38.390397
    ]
   },
   "properties": {
    "name": "46 KENNEDY ROAD SOMERS 3927",
    "locID": "LOC000031705113",
    "tech": "FTTN",
    "upgrade": "NULL_NA",
    "gnaf_pid": "GAVIC419550691"
   }
  },
  {
   "type": "Feature",
   "geometry": {
    "type": "Point",
    "coordinates": [
     145.177751,
     -38.396138
    ]
   },
   "properties": {
    "name": "14 WESTERN PARK ROAD SOMERS 3927",
    "locID": "ChIJsxT94Kjp1WoRGGIFuKe3sv0",
    "tech": "FTTN",
    "upgrade": "UNKNOWN",
    "gnaf_pid": "GAVIC419550855"
   }
  },
  {
   "type": "Feature",
   "geometry": {
    "type": "Point",
    "coordinates": [
     145.177559,
     -38.396045
    ]
   },
   "properties": {
    "name": "16 WESTERN PARK ROAD SOMERS 3927",
    "locID": "LOC000012159151",
    "tech": "FTTN",
    "upgrade": "NULL_NA",
    "gnaf_pid": "GAVIC419550856"
   }
  },
  {
   "type": "Feature",
   "geometry": {
    "type": "Point",
    "coordinates": [
     145.176493,
     -38.388784
    ]
   },
   "properties": {
    "name": "14 WILLS ROAD SOMERS 3927",
    "locID": "LOC000062452874",
    "tech": "FTTN",
    "upgrade": "NULL_NA",
    "gnaf_pid": "GAVIC419550867"
   }
  },
  {
   "type": "Feature",
   "geometry": {
    "type": "Point",
    "coordinates": [
     145.171211,
     -38.391684
    ]
   },
   "properties": {
    "name": "56 KENNEDY ROAD SOMERS 3927",
    "locID": "LOC000091073972",
    "tech": "FTTN",
    "upgrade": "NULL_NA",
    "gnaf_pid": "GAVIC419551305"
   }
  },
  {
   "type": "Feature",
   "geometry": {
    "type": "Point",
    "coordinates": [
     145.179076,
     -38.394005
    ]
   },
   "properties": {
    "name": "16 BELVEDERE ROAD SOMERS 3927",
    "locID": "LOC000009390086",
    "tech": "FTTN",
    "upgrade": "NULL_NA",
    "gnaf_pid": "GAVIC419551324"
   }
  },
  {
   "type": "Feature",
   "geometry": {
    "type": "Point",
    "coordinates": [
     145.147752,
     -38.388468
    ]
   },
   "properties": {
    "name": "14 BEVERLEY HILL ROAD SOMERS 3927",
    "locID": "LOC000008453546",
    "tech": "FTTN",
    "upgrade": "NULL_NA",
    "gnaf_pid": "GAVIC419551390"
   }
  },
  {
   "type": "Feature",
   "geometry": {
    "type": "Point",
    "coordinates": [
     145.147583,
     -38.389268
    ]
   },
   "properties": {
    "name": "22 BEVERLEY HILL ROAD SOMERS 3927",
    "locID": "LOC000071432696",
    "tech": "FTTN",
    "upgrade": "NULL_NA",
    "gnaf_pid": "GAVIC419551391"
   }
  },
  {
   "type": "Feature",
   "geometry": {
    "type": "Point",
    "coordinates": [
     145.171093,
     -38.392737
    ]
   },
   "properties": {
    "name": "57 KENNEDY ROAD SOMERS 3927",
    "locID": "LOC000006027642",
    "tech": "FTTN",
    "upgrade": "NULL_NA",
    "gnaf_pid": "GAVIC419551568"
   }
  },
  {
   "type": "Feature",
   "geometry": {
    "type": "Point",
    "coordinates": [
     145.170815,
     -38.393309
    ]
   },
   "properties": {
    "name": "63 KENNEDY ROAD SOMERS 3927",
    "locID": "LOC000097161518",
    "tech": "FTTN",
    "upgrade": "NULL_NA",
    "gnaf_pid": "GAVIC419551569"
   }
  },
  {
   "type": "Feature",
   "geometry": {
    "type": "Point",
    "coordinates": [
     145.170291,
     -38.390931
    ]
   },
   "properties": {
    "name": "4 KENNETH COURT SOMERS 3927",
    "locID": "LOC000100880377",
    "tech": "FTTN",
    "upgrade": "NULL_NA",
    "gnaf_pid": "GAVIC419551570"
   }
  },
  {
   "type": "Feature",
   "geometry": {
    "type": "Point",
    "coordinates": [
     145.165112,
     -38.393364
    ]
   },
   "properties": {
    "name": "2 SANDY COURT SOMERS 3927",
    "locID": "LOC000028840750",
    "tech": "FTTN",
    "upgrade": "NULL_NA",
    "gnaf_pid": "GAVIC419552020"
   }
  },
  {
   "type": "Feature",
   "geometry": {
    "type": "Point",
    "coordinates": [
     145.16524,
     -38.393285
    ]
   },
   "properties": {
    "name": "3 SANDY COURT SOMERS 3927",
    "locID": "LOC000037046896",
    "tech": "FTTN",
    "upgrade": "NULL_NA",
    "gnaf_pid": "GAVIC419552021"
   }
  },
  {
   "type": "Feature",
   "geometry": {
    "type": "Point",
    "coordinates": [
     145.17195704,
     -38.38338339
    ]
   },
   "properties": {
    "name": "42 SANDY POINT ROAD SOMERS 3927",
    "locID": "LOC000060699185",
    "tech": "FTTN",
    "upgrade": "NULL_NA",
    "gnaf_pid": "GAVIC419552022"
   }
  },
  {
   "type": "Feature",
   "geometry": {
    "type": "Point",
    "coordinates": [
     145.16862865,
     -38.38230059
    ]
   },
   "properties": {
    "name": "52 SANDY POINT ROAD SOMERS 3927",
    "locID": "LOC000091566891",
    "tech": "FTTN",
    "upgrade": "NULL_NA",
    "gnaf_pid": "GAVIC419552023"
   }
  },
  {
   "type": "Feature",
   "geometry": {
    "type": "Point",
    "coordinates": [
     145.16749066,
     -38.38194489
    ]
   },
   "properties": {
    "name": "58 SANDY POINT ROAD SOMERS 3927",
    "locID": "LOC000027057380",
    "tech": "FTTN",
    "upgrade": "NULL_NA",
    "gnaf_pid": "GAVIC419552024"
   }
  },
  {
   "type": "Feature",
   "geometry": {
    "type": "Point",
    "coordinates": [
     145.155399,
     -38.39321768
    ]
   },
   "properties": {
    "name": "5 THE PROMENADE SOMERS 3927",
    "locID": "LOC000059958768",
    "tech": "FTTN",
    "upgrade": "NULL_NA",
    "gnaf_pid": "GAVIC419552027"
   }
  },
  {
   "type": "Feature",
   "geometry": {
    "type": "Point",
    "coordinates": [
     145.154915,
     -38.393141
    ]
   },
   "properties": {
    "name": "6 THE PROMENADE SOMERS 3927",
    "locID": "LOC000046804980",
    "tech": "FTTN",
    "upgrade": "NULL_NA",
    "gnaf_pid": "GAVIC419552028"
   }
  },
  {
   "type": "Feature",
   "geometry": {
    "type": "Point",
    "coordinates": [
     145.148149,
     -38.391782
    ]
   },
   "properties": {
    "name": "17 THE PROMENADE SOMERS 3927",
    "locID": "LOC000002710401",
    "tech": "FTTN",
    "upgrade": "NULL_NA",
    "gnaf_pid": "GAVIC419552029"
   }
  },
  {
   "type": "Feature",
   "geometry": {
    "type": "Point",
    "coordinates": [
     145.152319,
     -38.392586
    ]
   },
   "properties": {
    "name": "24 THE PROMENADE SOMERS 3927",
    "locID": "LOC000053929842",
    "tech": "FTTN",
    "upgrade": "NULL_NA",
    "gnaf_pid": "GAVIC419552030"
   }
  },
  {
   "type": "Feature",
   "geometry": {
    "type": "Point",
    "coordinates": [
     145.151163,
     -38.392117
    ]
   },
   "properties": {
    "name": "36 THE PROMENADE SOMERS 3927",
    "locID": "LOC000109714543",
    "tech": "FTTN",
    "upgrade": "NULL_NA",
    "gnaf_pid": "GAVIC419552031"
   }
  },
  {
   "type": "Feature",
   "geometry": {
    "type": "Point",
    "coordinates": [
     145.150978,
     -38.392187
    ]
   },
   "properties": {
    "name": "38 THE PROMENADE SOMERS 3927",
    "locID": "LOC000003711409",
    "tech": "FTTN",
    "upgrade": "NULL_NA",
    "gnaf_pid": "GAVIC419552032"
   }
  },
  {
   "type": "Feature",
   "geometry": {
    "type": "Point",
    "coordinates": [
     145.156833,
     -38.389314
    ]
   },
   "properties": {
    "name": "14 STANMORE AVENUE SOMERS 3927",
    "locID": "LOC000067845294",
    "tech": "FTTN",
    "upgrade": "NULL_NA",
    "gnaf_pid": "GAVIC419552202"
   }
  },
  {
   "type": "Feature",
   "geometry": {
    "type": "Point",
    "coordinates": [
     145.15558,
     -38.39088
    ]
   },
   "properties": {
    "name": "16 HENDON AVENUE SOMERS 3927",
    "locID": "LOC000091484741",
    "tech": "FTTN",
    "upgrade": "NULL_NA",
    "gnaf_pid": "GAVIC419552323"
   }
  },
  {
   "type": "Feature",
   "geometry": {
    "type": "Point",
    "coordinates": [
     145.15591616,
     -38.39099469
    ]
   },
   "properties": {
    "name": "17 HENDON AVENUE SOMERS 3927",
    "locID": "LOC000094213743",
    "tech": "FTTN",
    "upgrade": "NULL_NA",
    "gnaf_pid": "GAVIC419552324"
   }
  },
  {
   "type": "Feature",
   "geometry": {
    "type": "Point",
    "coordinates": [
     145.179841,
     -38.395008
    ]
   },
   "properties": {
    "name": "23 BELVEDERE ROAD SOMERS 3927",
    "locID": "LOC000083595293",
    "tech": "FTTN",
    "upgrade": "NULL_NA",
    "gnaf_pid": "GAVIC419552705"
   }
  },
  {
   "type": "Feature",
   "geometry": {
    "type": "Point",
    "coordinates": [
     145.179967,
     -38.395461
    ]
   },
   "properties": {
    "name": "29 BELVEDERE ROAD SOMERS 3927",
    "locID": "LOC000098627685",
    "tech": "FTTN",
    "upgrade": "NULL_NA",
    "gnaf_pid": "GAVIC419552706"
   }
  },
  {
   "type": "Feature",
   "geometry": {
    "type": "Point",
    "coordinates": [
     145.179574,
     -38.395167
    ]
   },
   "properties": {
    "name": "30 BELVEDERE ROAD SOMERS 3927",
    "locID": "LOC000086863476",
    "tech": "FTTN",
    "upgrade": "NULL_NA",
    "gnaf_pid": "GAVIC419552707"
   }
  },
  {
   "type": "Feature",
   "geometry": {
    "type": "Point",
    "coordinates": [
     145.175682,
     -38.395548
    ]
   },
   "properties": {
    "name": "6 SOUTH SEA ROAD SOMERS 3927",
    "locID": "LOC000011007713",
    "tech": "FTTN",
    "upgrade": "NULL_NA",
    "gnaf_pid": "GAVIC419552799"
   }
  },
  {
   "type": "Feature",
   "geometry": {
    "type": "Point",
    "coordinates": [
     145.175227,
     -38.39545
    ]
   },
   "properties": {
    "name": "10 SOUTH SEA ROAD SOMERS 3927",
    "locID": "LOC000056703606",
    "tech": "FTTN",
    "upgrade": "NULL_NA",
    "gnaf_pid": "GAVIC419552800"
   }
  },
  {
   "type": "Feature",
   "geometry": {
    "type": "Point",
    "coordinates": [
     145.174896,
     -38.395409
    ]
   },
   "properties": {
    "name": "12 SOUTH SEA ROAD SOMERS 3927",
    "locID": "LOC000005200103",
    "tech": "FTTN",
    "upgrade": "NULL_NA",
    "gnaf_pid": "GAVIC419552801"
   }
  },
  {
   "type": "Feature",
   "geometry": {
    "type": "Point",
    "coordinates": [
     145.170948,
     -38.394852
    ]
   },
   "properties": {
    "name": "14 WAYSIDE ROAD SOMERS 3927",
    "locID": "LOC000035387240",
    "tech": "FTTN",
    "upgrade": "NULL_NA",
    "gnaf_pid": "GAVIC419552829"
   }
  },
  {
   "type": "Feature",
   "geometry": {
    "type": "Point",
    "coordinates": [
     145.171668,
     -38.394908
    ]
   },
   "properties": {
    "name": "20 WAYSIDE ROAD SOMERS 3927",
    "locID": "LOC000074213036",
    "tech": "FTTN",
    "upgrade": "NULL_NA",
    "gnaf_pid": "GAVIC419552830"
   }
  },
  {
   "type": "Feature",
   "geometry": {
    "type": "Point",
    "coordinates": [
     145.146673,
     -38.389478
    ]
   },
   "properties": {
    "name": "137 LORD SOMERS ROAD SOMERS 3927",
    "locID": "LOC000061869140",
    "tech": "FTTN",
    "upgrade": "NULL_NA",
    "gnaf_pid": "GAVIC419553068"
   }
  },
  {
   "type": "Feature",
   "geometry": {
    "type": "Point",
    "coordinates": [
     145.146531,
     -38.390134
    ]
   },
   "properties": {
    "name": "141 LORD SOMERS ROAD SOMERS 3927",
    "locID": "Ei4xNDEgTG9yZCBTb21lcnMgUmQsIFNvbWVycyBWSUMgMzkyNywgQXVzdHJhbGlhIjESLwoUChIJ91WXD9vp1WoR4BsY7HRWBBMQjQEqFAoSCXeK9enR6dVqEYJkOcqkSUj5",
    "tech": "FTTN",
    "upgrade": "UNKNOWN",
    "gnaf_pid": "GAVIC419553069"
   }
  },
  {
   "type": "Feature",
   "geometry": {
    "type": "Point",
    "coordinates": [
     145.176768,
     -38.392429
    ]
   },
   "properties": {
    "name": "4 LORNE GROVE EAST SOMERS 3927",
    "locID": "LOC000033815249",
    "tech": "FTTN",
    "upgrade": "NULL_NA",
    "gnaf_pid": "GAVIC419553077"
   }
  },
  {
   "type": "Feature",
   "geometry": {
    "type": "Point",
    "coordinates": [
     145.16584,
     -38.394907
    ]
   },
   "properties": {
    "name": "4 HAVEN STREET SOMERS 3927",
    "locID": "LOC000037740485",
    "tech": "FTTN",
    "upgrade": "NULL_NA",
    "gnaf_pid": "GAVIC419553177"
   }
  },
  {
   "type": "Feature",
   "geometry": {
    "type": "Point",
    "coordinates": [
     145.163717,
     -38.392829
    ]
   },
   "properties": {
    "name": "2 FLORIDA AVENUE SOMERS 3927",
    "locID": "LOC000002085020",
    "tech": "FTTN",
    "upgrade": "NULL_NA",
    "gnaf_pid": "GAVIC419553360"
   }
  },
  {
   "type": "Feature",
   "geometry": {
    "type": "Point",
    "coordinates": [
     145.159824,
     -38.391929
    ]
   },
   "properties": {
    "name": "11 FLORIDA AVENUE SOMERS 3927",
    "locID": "LOC000035842640",
    "tech": "FTTN",
    "upgrade": "NULL_NA",
    "gnaf_pid": "GAVIC419553361"
   }
  },
  {
   "type": "Feature",
   "geometry": {
    "type": "Point",
    "coordinates": [
     145.161649,
     -38.392192
    ]
   },
   "properties": {
    "name": "16 FLORIDA AVENUE SOMERS 3927",
    "locID": "LOC000094852168",
    "tech": "FTTN",
    "upgrade": "NULL_NA",
    "gnaf_pid": "GAVIC419553362"
   }
  },
  {
   "type": "Feature",
   "geometry": {
    "type": "Point",
    "coordinates": [
     145.158251,
     -38.391175
    ]
   },
   "properties": {
    "name": "30 FLORIDA AVENUE SOMERS 3927",
    "locID": "LOC000039033460",
    "tech": "FTTN",
    "upgrade": "NULL_NA",
    "gnaf_pid": "GAVIC419553363"
   }
  },
  {
   "type": "Feature",
   "geometry": {
    "type": "Point",
    "coordinates": [
     145.168951,
     -38.393658
    ]
   },
   "properties": {
    "name": "2 KAY COURT SOMERS 3927",
    "locID": "LOC000035949704",
    "tech": "FTTN",
    "upgrade": "NULL_NA",
    "gnaf_pid": "GAVIC419553373"
   }
  },
  {
   "type": "Feature",
   "geometry": {
    "type": "Point",
    "coordinates": [
     145.169547,
     -38.39365
    ]
   },
   "properties": {
    "name": "14 KAY COURT SOMERS 3927",
    "locID": "LOC000039573092",
    "tech": "FTTN",
    "upgrade": "NULL_NA",
    "gnaf_pid": "GAVIC419553374"
   }
  },
  {
   "type": "Feature",
   "geometry": {
    "type": "Point",
    "coordinates": [
     145.1806997,
     -38.39660134
    ]
   },
   "properties": {
    "name": "13 KELBURN COURT SOMERS 3927",
    "locID": "LOC000083463287",
    "tech": "FTTP",
    "upgrade": "NULL_NA",
    "gnaf_pid": "GAVIC419553375"
   }
  },
  {
   "type": "Feature",
   "geometry": {
    "type": "Point",
    "coordinates": [
     145.175551,
     -38.38849
    ]
   },
   "properties": {
    "name": "20 WILLS ROAD SOMERS 3927",
    "locID": "LOC000097254319",
    "tech": "FTTN",
    "upgrade": "NULL_NA",
    "gnaf_pid": "GAVIC419553766"
   }
  },
  {
   "type": "Feature",
   "geometry": {
    "type": "Point",
    "coordinates": [
     145.175544,
     -38.38876
    ]
   },
   "properties": {
    "name": "29 WILLS ROAD SOMERS 3927",
    "locID": "LOC000071592841",
    "tech": "FTTN",
    "upgrade": "NULL_NA",
    "gnaf_pid": "GAVIC419553767"
   }
  },
  {
   "type": "Feature",
   "geometry": {
    "type": "Point",
    "coordinates": [
     145.174974,
     -38.388661
    ]
   },
   "properties": {
    "name": "33 WILLS ROAD SOMERS 3927",
    "locID": "LOC000097147994",
    "tech": "FTTN",
    "upgrade": "NULL_NA",
    "gnaf_pid": "GAVIC419553768"
   }
  },
  {
   "type": "Feature",
   "geometry": {
    "type": "Point",
    "coordinates": [
     145.17254589,
     -38.38918199
    ]
   },
   "properties": {
    "name": "38 KENNEDY ROAD SOMERS 3927",
    "locID": "ChIJiwknVq3p1WoRmTW5NejNgx4",
    "tech": "FTTN",
    "upgrade": "UNKNOWN",
    "gnaf_pid": "GAVIC419554142"
   }
  },
  {
   "type": "Feature",
   "geometry": {
    "type": "Point",
    "coordinates": [
     145.14696296,
     -38.37653057
    ]
   },
   "properties": {
    "name": "307 SANDY POINT ROAD SOMERS 3927",
    "locID": "ChIJj-XFUS3o1WoRPR26N_C84pc",
    "tech": "SATELLITE",
    "upgrade": "UNKNOWN",
    "gnaf_pid": "GAVIC419554144"
   }
  },
  {
   "type": "Feature",
   "geometry": {
    "type": "Point",
    "coordinates": [
     145.159534,
     -38.392961
    ]
   },
   "properties": {
    "name": "28 OCEAN VIEW CRESCENT SOMERS 3927",
    "locID": "LOC000013013688",
    "tech": "FTTN",
    "upgrade": "NULL_NA",
    "gnaf_pid": "GAVIC419554250"
   }
  },
  {
   "type": "Feature",
   "geometry": {
    "type": "Point",
    "coordinates": [
     145.178239,
     -38.389496
    ]
   },
   "properties": {
    "name": "21 HUME ROAD SOMERS 3927",
    "locID": "LOC000052926373",
    "tech": "FTTN",
    "upgrade": "NULL_NA",
    "gnaf_pid": "GAVIC419554480"
   }
  },
  {
   "type": "Feature",
   "geometry": {
    "type": "Point",
    "coordinates": [
     145.14789137,
     -38.38294781
    ]
   },
   "properties": {
    "name": "35 LORD SOMERS ROAD SOMERS 3927",
    "locID": "LOC000054263550",
    "tech": "WIRELESS",
    "upgrade": "NULL_NA",
    "gnaf_pid": "GAVIC419554866"
   }
  },
  {
   "type": "Feature",
   "geometry": {
    "type": "Point",
    "coordinates": [
     145.147287,
     -38.391453
    ]
   },
   "properties": {
    "name": "55 PARKLANDS AVENUE SOMERS 3927",
    "locID": "LOC000076853735",
    "tech": "FTTN",
    "upgrade": "NULL_NA",
    "gnaf_pid": "GAVIC419554867"
   }
  },
  {
   "type": "Feature",
   "geometry": {
    "type": "Point",
    "coordinates": [
     145.17725,
     -38.391481
    ]
   },
   "properties": {
    "name": "47 EAST CRESCENT SOMERS 3927",
    "locID": "LOC000066166478",
    "tech": "FTTN",
    "upgrade": "NULL_NA",
    "gnaf_pid": "GAVIC419555242"
   }
  },
  {
   "type": "Feature",
   "geometry": {
    "type": "Point",
    "coordinates": [
     145.17713,
     -38.391686
    ]
   },
   "properties": {
    "name": "51 EAST CRESCENT SOMERS 3927",
    "locID": "LOC000042560279",
    "tech": "FTTN",
    "upgrade": "NULL_NA",
    "gnaf_pid": "GAVIC419555243"
   }
  },
  {
   "type": "Feature",
   "geometry": {
    "type": "Point",
    "coordinates": [
     145.162858,
     -38.394194
    ]
   },
   "properties": {
    "name": "2 THE BOULEVARD SOMERS 3927",
    "locID": "LOC000039982934",
    "tech": "FTTN",
    "upgrade": "NULL_NA",
    "gnaf_pid": "GAVIC419555433"
   }
  },
  {
   "type": "Feature",
   "geometry": {
    "type": "Point",
    "coordinates": [
     145.158551,
     -38.39291
    ]
   },
   "properties": {
    "name": "14 THE BOULEVARD SOMERS 3927",
    "locID": "LOC000104447940",
    "tech": "FTTN",
    "upgrade": "NULL_NA",
    "gnaf_pid": "GAVIC419555434"
   }
  },
  {
   "type": "Feature",
   "geometry": {
    "type": "Point",
    "coordinates": [
     145.157551,
     -38.392606
    ]
   },
   "properties": {
    "name": "22 THE BOULEVARD SOMERS 3927",
    "locID": "LOC000019367150",
    "tech": "FTTN",
    "upgrade": "NULL_NA",
    "gnaf_pid": "GAVIC419555435"
   }
  },
  {
   "type": "Feature",
   "geometry": {
    "type": "Point",
    "coordinates": [
     145.163333,
     -38.391246
    ]
   },
   "properties": {
    "name": "1 OCEAN VIEW CRESCENT SOMERS 3927",
    "locID": "LOC000054339101",
    "tech": "FTTN",
    "upgrade": "NULL_NA",
    "gnaf_pid": "GAVIC419555610"
   }
  },
  {
   "type": "Feature",
   "geometry": {
    "type": "Point",
    "coordinates": [
     145.162353,
     -38.39287
    ]
   },
   "properties": {
    "name": "12 OCEAN VIEW CRESCENT SOMERS 3927",
    "locID": "LOC000085618558",
    "tech": "FTTN",
    "upgrade": "NULL_NA",
    "gnaf_pid": "GAVIC419555611"
   }
  },
  {
   "type": "Feature",
   "geometry": {
    "type": "Point",
    "coordinates": [
     145.181192,
     -38.396372
    ]
   },
   "properties": {
    "name": "113 MIRAMAR ROAD SOMERS 3927",
    "locID": "LOC000060174540",
    "tech": "FTTP",
    "upgrade": "FTTN_CT",
    "gnaf_pid": "GAVIC419555780"
   }
  },
  {
   "type": "Feature",
   "geometry": {
    "type": "Point",
    "coordinates": [
     145.179529,
     -38.396031
    ]
   },
   "properties": {
    "name": "125 MIRAMAR ROAD SOMERS 3927",
    "locID": "LOC000052949803",
    "tech": "FTTN",
    "upgrade": "NULL_NA",
    "gnaf_pid": "GAVIC419555781"
   }
  },
  {
   "type": "Feature",
   "geometry": {
    "type": "Point",
    "coordinates": [
     145.178422,
     -38.395419
    ]
   },
   "properties": {
    "name": "137 MIRAMAR ROAD SOMERS 3927",
    "locID": "LOC000025251293",
    "tech": "FTTN",
    "upgrade": "NULL_NA",
    "gnaf_pid": "GAVIC419555782"
   }
  },
  {
   "type": "Feature",
   "geometry": {
    "type": "Point",
    "coordinates": [
     145.177875,
     -38.39441
    ]
   },
   "properties": {
    "name": "149 MIRAMAR ROAD SOMERS 3927",
    "locID": "LOC000021154188",
    "tech": "FTTN",
    "upgrade": "NULL_NA",
    "gnaf_pid": "GAVIC419555783"
   }
  },
  {
   "type": "Feature",
   "geometry": {
    "type": "Point",
    "coordinates": [
     145.166813,
     -38.393985
    ]
   },
   "properties": {
    "name": "1 REID COURT SOMERS 3927",
    "locID": "LOC000004420099",
    "tech": "FTTN",
    "upgrade": "NULL_NA",
    "gnaf_pid": "GAVIC419555797"
   }
  },
  {
   "type": "Feature",
   "geometry": {
    "type": "Point",
    "coordinates": [
     145.166955,
     -38.393825
    ]
   },
   "properties": {
    "name": "2 REID COURT SOMERS 3927",
    "locID": "LOC000001950802",
    "tech": "FTTN",
    "upgrade": "NULL_NA",
    "gnaf_pid": "GAVIC419555798"
   }
  },
  {
   "type": "Feature",
   "geometry": {
    "type": "Point",
    "coordinates": [
     145.175783,
     -38.394738
    ]
   },
   "properties": {
    "name": "3 TASMAN ROAD SOMERS 3927",
    "locID": "LOC000047797377",
    "tech": "SATELLITE",
    "upgrade": "NULL_NA",
    "gnaf_pid": "GAVIC419555811"
   }
  },
  {
   "type": "Feature",
   "geometry": {
    "type": "Point",
    "coordinates": [
     145.17636,
     -38.394531
    ]
   },
   "properties": {
    "name": "4 TASMAN ROAD SOMERS 3927",
    "locID": "LOC000058419109",
    "tech": "FTTN",
    "upgrade": "NULL_NA",
    "gnaf_pid": "GAVIC419555812"
   }
  },
  {
   "type": "Feature",
   "geometry": {
    "type": "Point",
    "coordinates": [
     145.175234,
     -38.394703
    ]
   },
   "properties": {
    "name": "7 TASMAN ROAD SOMERS 3927",
    "locID": "LOC000010208052",
    "tech": "FTTN",
    "upgrade": "NULL_NA",
    "gnaf_pid": "GAVIC419555813"
   }
  },
  {
   "type": "Feature",
   "geometry": {
    "type": "Point",
    "coordinates": [
     145.174458,
     -38.394618
    ]
   },
   "properties": {
    "name": "13 TASMAN ROAD SOMERS 3927",
    "locID": "LOC000035188794",
    "tech": "FTTN",
    "upgrade": "NULL_NA",
    "gnaf_pid": "GAVIC419555814"
   }
  },
  {
   "type": "Feature",
   "geometry": {
    "type": "Point",
    "coordinates": [
     145.172098,
     -38.391923
    ]
   },
   "properties": {
    "name": "1 OXLEY COURT SOMERS 3927",
    "locID": "LOC000048772795",
    "tech": "FTTN",
    "upgrade": "NULL_NA",
    "gnaf_pid": "GAVIC419556014"
   }
  },
  {
   "type": "Feature",
   "geometry": {
    "type": "Point",
    "coordinates": [
     145.173173,
     -38.392877
    ]
   },
   "properties": {
    "name": "8 OXLEY COURT SOMERS 3927",
    "locID": "LOC000005280192",
    "tech": "FTTN",
    "upgrade": "NULL_NA",
    "gnaf_pid": "GAVIC419556015"
   }
  },
  {
   "type": "Feature",
   "geometry": {
    "type": "Point",
    "coordinates": [
     145.161442,
     -38.391529
    ]
   },
   "properties": {
    "name": "77 PALM BEACH GROVE SOMERS 3927",
    "locID": "LOC000077175279",
    "tech": "FTTN",
    "upgrade": "NULL_NA",
    "gnaf_pid": "GAVIC419556021"
   }
  },
  {
   "type": "Feature",
   "geometry": {
    "type": "Point",
    "coordinates": [
     145.161434,
     -38.39072
    ]
   },
   "properties": {
    "name": "78 PALM BEACH GROVE SOMERS 3927",
    "locID": "LOC000066087378",
    "tech": "FTTN",
    "upgrade": "NULL_NA",
    "gnaf_pid": "GAVIC419556022"
   }
  },
  {
   "type": "Feature",
   "geometry": {
    "type": "Point",
    "coordinates": [
     145.153794,
     -38.392195
    ]
   },
   "properties": {
    "name": "11 PARKLANDS AVENUE SOMERS 3927",
    "locID": "LOC000083180269",
    "tech": "FTTN",
    "upgrade": "NULL_NA",
    "gnaf_pid": "GAVIC419556024"
   }
  },
  {
   "type": "Feature",
   "geometry": {
    "type": "Point",
    "coordinates": [
     145.155196,
     -38.392469
    ]
   },
   "properties": {
    "name": "14 PARKLANDS AVENUE SOMERS 3927",
    "locID": "LOC000010226583",
    "tech": "FTTN",
    "upgrade": "NULL_NA",
    "gnaf_pid": "GAVIC419556025"
   }
  },
  {
   "type": "Feature",
   "geometry": {
    "type": "Point",
    "coordinates": [
     145.153211,
     -38.391735
    ]
   },
   "properties": {
    "name": "32 PARKLANDS AVENUE SOMERS 3927",
    "locID": "LOC000063631470",
    "tech": "FTTN",
    "upgrade": "NULL_NA",
    "gnaf_pid": "GAVIC419556026"
   }
  },
  {
   "type": "Feature",
   "geometry": {
    "type": "Point",
    "coordinates": [
     145.14962,
     -38.388435
    ]
   },
   "properties": {
    "name": "4 DOVER COURT SOMERS 3927",
    "locID": "LOC000071029997",
    "tech": "FTTN",
    "upgrade": "NULL_NA",
    "gnaf_pid": "GAVIC419556143"
   }
  },
  {
   "type": "Feature",
   "geometry": {
    "type": "Point",
    "coordinates": [
     145.180302,
     -38.393511
    ]
   },
   "properties": {
    "name": "34 TOWER HILL ROAD SOMERS 3927",
    "locID": "LOC000094772994",
    "tech": "FTTN",
    "upgrade": "NULL_NA",
    "gnaf_pid": "GAVIC419556148"
   }
  },
  {
   "type": "Feature",
   "geometry": {
    "type": "Point",
    "coordinates": [
     145.180727,
     -38.393905
    ]
   },
   "properties": {
    "name": "41 TOWER HILL ROAD SOMERS 3927",
    "locID": "LOC000065756398",
    "tech": "FTTN",
    "upgrade": "NULL_NA",
    "gnaf_pid": "GAVIC419556149"
   }
  },
  {
   "type": "Feature",
   "geometry": {
    "type": "Point",
    "coordinates": [
     145.18042767,
     -38.39402299
    ]
   },
   "properties": {
    "name": "42 TOWER HILL ROAD SOMERS 3927",
    "locID": "ChIJQ2XYjKnp1WoRuvEeF4dhXC4",
    "tech": "FTTN",
    "upgrade": "UNKNOWN",
    "gnaf_pid": "GAVIC419556150"
   }
  },
  {
   "type": "Feature",
   "geometry": {
    "type": "Point",
    "coordinates": [
     145.180575,
     -38.394479
    ]
   },
   "properties": {
    "name": "46 TOWER HILL ROAD SOMERS 3927",
    "locID": "LOC000100232961",
    "tech": "FTTN",
    "upgrade": "NULL_NA",
    "gnaf_pid": "GAVIC419556151"
   }
  },
  {
   "type": "Feature",
   "geometry": {
    "type": "Point",
    "coordinates": [
     145.180693,
     -38.394796
    ]
   },
   "properties": {
    "name": "50 TOWER HILL ROAD SOMERS 3927",
    "locID": "LOC000086693848",
    "tech": "FTTN",
    "upgrade": "NULL_NA",
    "gnaf_pid": "GAVIC419556152"
   }
  },
  {
   "type": "Feature",
   "geometry": {
    "type": "Point",
    "coordinates": [
     145.181064,
     -38.395073
    ]
   },
   "properties": {
    "name": "53 TOWER HILL ROAD SOMERS 3927",
    "locID": "LOC000018589435",
    "tech": "FTTN",
    "upgrade": "NULL_NA",
    "gnaf_pid": "GAVIC419556153"
   }
  },
  {
   "type": "Feature",
   "geometry": {
    "type": "Point",
    "coordinates": [
     145.155375,
     -38.391742
    ]
   },
   "properties": {
    "name": "15 VICTORIA AVENUE SOMERS 3927",
    "locID": "LOC000056792364",
    "tech": "FTTN",
    "upgrade": "NULL_NA",
    "gnaf_pid": "GAVIC419556616"
   }
  },
  {
   "type": "Feature",
   "geometry": {
    "type": "Point",
    "coordinates": [
     145.155216,
     -38.391686
    ]
   },
   "properties": {
    "name": "17 VICTORIA AVENUE SOMERS 3927",
    "locID": "LOC000067632387",
    "tech": "FTTN",
    "upgrade": "NULL_NA",
    "gnaf_pid": "GAVIC419556617"
   }
  },
  {
   "type": "Feature",
   "geometry": {
    "type": "Point",
    "coordinates": [
     145.154701,
     -38.391227
    ]
   },
   "properties": {
    "name": "18 VICTORIA AVENUE SOMERS 3927",
    "locID": "LOC000094309734",
    "tech": "FTTN",
    "upgrade": "NULL_NA",
    "gnaf_pid": "GAVIC419556619"
   }
  },
  {
   "type": "Feature",
   "geometry": {
    "type": "Point",
    "coordinates": [
     145.1568307,
     -38.39258575
    ]
   },
   "properties": {
    "name": "102 ALEXANDRA AVENUE SOMERS 3927",
    "locID": "LOC000011892798",
    "tech": "FTTN",
    "upgrade": "NULL_NA",
    "gnaf_pid": "GAVIC419556862"
   }
  },
  {
   "type": "Feature",
   "geometry": {
    "type": "Point",
    "coordinates": [
     145.174738,
     -38.394388
    ]
   },
   "properties": {
    "name": "16 TASMAN ROAD SOMERS 3927",
    "locID": "LOC000084689964",
    "tech": "FTTN",
    "upgrade": "NULL_NA",
    "gnaf_pid": "GAVIC419556897"
   }
  },
  {
   "type": "Feature",
   "geometry": {
    "type": "Point",
    "coordinates": [
     145.174201,
     -38.394344
    ]
   },
   "properties": {
    "name": "20 TASMAN ROAD SOMERS 3927",
    "locID": "LOC000081455455",
    "tech": "FTTN",
    "upgrade": "NULL_NA",
    "gnaf_pid": "GAVIC419556979"
   }
  },
  {
   "type": "Feature",
   "geometry": {
    "type": "Point",
    "coordinates": [
     145.173961,
     -38.394322
    ]
   },
   "properties": {
    "name": "22 TASMAN ROAD SOMERS 3927",
    "locID": "LOC000105890423",
    "tech": "FTTN",
    "upgrade": "NULL_NA",
    "gnaf_pid": "GAVIC419556980"
   }
  },
  {
   "type": "Feature",
   "geometry": {
    "type": "Point",
    "coordinates": [
     145.173413,
     -38.394278
    ]
   },
   "properties": {
    "name": "26 TASMAN ROAD SOMERS 3927",
    "locID": "LOC000009440587",
    "tech": "FTTN",
    "upgrade": "NULL_NA",
    "gnaf_pid": "GAVIC419556981"
   }
  },
  {
   "type": "Feature",
   "geometry": {
    "type": "Point",
    "coordinates": [
     145.17151,
     -38.394365
    ]
   },
   "properties": {
    "name": "37 TASMAN ROAD SOMERS 3927",
    "locID": "LOC000006043630",
    "tech": "FTTN",
    "upgrade": "NULL_NA",
    "gnaf_pid": "GAVIC419556982"
   }
  },
  {
   "type": "Feature",
   "geometry": {
    "type": "Point",
    "coordinates": [
     145.168647,
     -38.395276
    ]
   },
   "properties": {
    "name": "57 TASMAN ROAD SOMERS 3927",
    "locID": "LOC000033856953",
    "tech": "FTTN",
    "upgrade": "NULL_NA",
    "gnaf_pid": "GAVIC419556983"
   }
  },
  {
   "type": "Feature",
   "geometry": {
    "type": "Point",
    "coordinates": [
     145.16862,
     -38.394978
    ]
   },
   "properties": {
    "name": "62 TASMAN ROAD SOMERS 3927",
    "locID": "LOC000036084158",
    "tech": "FTTN",
    "upgrade": "NULL_NA",
    "gnaf_pid": "GAVIC419556984"
   }
  },
  {
   "type": "Feature",
   "geometry": {
    "type": "Point",
    "coordinates": [
     145.166484,
     -38.394323
    ]
   },
   "properties": {
    "name": "80 TASMAN ROAD SOMERS 3927",
    "locID": "LOC000025114329",
    "tech": "FTTN",
    "upgrade": "NULL_NA",
    "gnaf_pid": "GAVIC419556985"
   }
  },
  {
   "type": "Feature",
   "geometry": {
    "type": "Point",
    "coordinates": [
     145.165772,
     -38.394402
    ]
   },
   "properties": {
    "name": "81 TASMAN ROAD SOMERS 3927",
    "locID": "LOC000073581924",
    "tech": "FTTN",
    "upgrade": "NULL_NA",
    "gnaf_pid": "GAVIC419556986"
   }
  },
  {
   "type": "Feature",
   "geometry": {
    "type": "Point",
    "coordinates": [
     145.164159,
     -38.393899
    ]
   },
   "properties": {
    "name": "99 TASMAN ROAD SOMERS 3927",
    "locID": "LOC000080781478",
    "tech": "FTTN",
    "upgrade": "NULL_NA",
    "gnaf_pid": "GAVIC419556987"
   }
  },
  {
   "type": "Feature",
   "geometry": {
    "type": "Point",
    "coordinates": [
     145.169275,
     -38.392177
    ]
   },
   "properties": {
    "name": "1 NISSON COURT SOMERS 3927",
    "locID": "LOC000021972837",
    "tech": "FTTN",
    "upgrade": "NULL_NA",
    "gnaf_pid": "GAVIC419557157"
   }
  },
  {
   "type": "Feature",
   "geometry": {
    "type": "Point",
    "coordinates": [
     145.168954,
     -38.391297
    ]
   },
   "properties": {
    "name": "6 NORMAN STREET SOMERS 3927",
    "locID": "LOC000041437145",
    "tech": "FTTN",
    "upgrade": "NULL_NA",
    "gnaf_pid": "GAVIC419557162"
   }
  },
  {
   "type": "Feature",
   "geometry": {
    "type": "Point",
    "coordinates": [
     145.168973,
     -38.389631
    ]
   },
   "properties": {
    "name": "15 NORMAN STREET SOMERS 3927",
    "locID": "LOC000080185406",
    "tech": "FTTN",
    "upgrade": "NULL_NA",
    "gnaf_pid": "GAVIC419557163"
   }
  },
  {
   "type": "Feature",
   "geometry": {
    "type": "Point",
    "coordinates": [
     145.174297,
     -38.392372
    ]
   },
   "properties": {
    "name": "1 SOUTH CRESCENT SOMERS 3927",
    "locID": "LOC000022936628",
    "tech": "FTTN",
    "upgrade": "NULL_NA",
    "gnaf_pid": "GAVIC419557170"
   }
  },
  {
   "type": "Feature",
   "geometry": {
    "type": "Point",
    "coordinates": [
     145.17386,
     -38.391987
    ]
   },
   "properties": {
    "name": "6 SOUTH CRESCENT SOMERS 3927",
    "locID": "LOC000075788701",
    "tech": "FTTN",
    "upgrade": "NULL_NA",
    "gnaf_pid": "GAVIC419557171"
   }
  },
  {
   "type": "Feature",
   "geometry": {
    "type": "Point",
    "coordinates": [
     145.176715,
     -38.395465
    ]
   },
   "properties": {
    "name": "1 SOUTH BEACH ROAD SOMERS 3927",
    "locID": "LOC000002830183",
    "tech": "FTTN",
    "upgrade": "NULL_NA",
    "gnaf_pid": "GAVIC419557172"
   }
  },
  {
   "type": "Feature",
   "geometry": {
    "type": "Point",
    "coordinates": [
     145.17888,
     -38.396778
    ]
   },
   "properties": {
    "name": "3 WESTERN PARK ROAD SOMERS 3927",
    "locID": "LOC000090913033",
    "tech": "FTTN",
    "upgrade": "NULL_NA",
    "gnaf_pid": "GAVIC419557174"
   }
  },
  {
   "type": "Feature",
   "geometry": {
    "type": "Point",
    "coordinates": [
     145.178891,
     -38.396372
    ]
   },
   "properties": {
    "name": "4 WESTERN PARK ROAD SOMERS 3927",
    "locID": "LOC000083459416",
    "tech": "FTTN",
    "upgrade": "NULL_NA",
    "gnaf_pid": "GAVIC419557175"
   }
  },
  {
   "type": "Feature",
   "geometry": {
    "type": "Point",
    "coordinates": [
     145.17831,
     -38.396697
    ]
   },
   "properties": {
    "name": "7 WESTERN PARK ROAD SOMERS 3927",
    "locID": "LOC000045767872",
    "tech": "FTTN",
    "upgrade": "NULL_NA",
    "gnaf_pid": "GAVIC419557176"
   }
  },
  {
   "type": "Feature",
   "geometry": {
    "type": "Point",
    "coordinates": [
     145.177642,
     -38.396407
    ]
   },
   "properties": {
    "name": "11 WESTERN PARK ROAD SOMERS 3927",
    "locID": "LOC000094275620",
    "tech": "FTTN",
    "upgrade": "NULL_NA",
    "gnaf_pid": "GAVIC419557177"
   }
  },
  {
   "type": "Feature",
   "geometry": {
    "type": "Point",
    "coordinates": [
     145.17751,
     -38.392972
    ]
   },
   "properties": {
    "name": "16 SOUTH BEACH ROAD SOMERS 3927",
    "locID": "LOC000125671903",
    "tech": "FTTN",
    "upgrade": "NULL_NA",
    "gnaf_pid": "GAVIC419557333"
   }
  },
  {
   "type": "Feature",
   "geometry": {
    "type": "Point",
    "coordinates": [
     145.177909,
     -38.392158
    ]
   },
   "properties": {
    "name": "24 SOUTH BEACH ROAD SOMERS 3927",
    "locID": "LOC000022750853",
    "tech": "FTTN",
    "upgrade": "NULL_NA",
    "gnaf_pid": "GAVIC419557334"
   }
  },
  {
   "type": "Feature",
   "geometry": {
    "type": "Point",
    "coordinates": [
     145.17809,
     -38.391755
    ]
   },
   "properties": {
    "name": "28 SOUTH BEACH ROAD SOMERS 3927",
    "locID": "LOC000092251006",
    "tech": "FTTN",
    "upgrade": "NULL_NA",
    "gnaf_pid": "GAVIC419557335"
   }
  },
  {
   "type": "Feature",
   "geometry": {
    "type": "Point",
    "coordinates": [
     145.178272,
     -38.39138
    ]
   },
   "properties": {
    "name": "32 SOUTH BEACH ROAD SOMERS 3927",
    "locID": "LOC000097363547",
    "tech": "FTTN",
    "upgrade": "NULL_NA",
    "gnaf_pid": "GAVIC419557336"
   }
  },
  {
   "type": "Feature",
   "geometry": {
    "type": "Point",
    "coordinates": [
     145.179857,
     -38.388431
    ]
   },
   "properties": {
    "name": "56 SOUTH BEACH ROAD SOMERS 3927",
    "locID": "LOC000094924558",
    "tech": "FTTN",
    "upgrade": "NULL_NA",
    "gnaf_pid": "GAVIC419557337"
   }
  },
  {
   "type": "Feature",
   "geometry": {
    "type": "Point",
    "coordinates": [
     145.180728,
     -38.386588
    ]
   },
   "properties": {
    "name": "74 SOUTH BEACH ROAD SOMERS 3927",
    "locID": "LOC000028858829",
    "tech": "FTTN",
    "upgrade": "NULL_NA",
    "gnaf_pid": "GAVIC419557338"
   }
  },
  {
   "type": "Feature",
   "geometry": {
    "type": "Point",
    "coordinates": [
     145.17576609,
     -38.3755116
    ]
   },
   "properties": {
    "name": "100 SOUTH BEACH ROAD SOMERS 3927",
    "locID": "ChIJH3Pr0Fvo1WoRbaBGQOa6KMM",
    "tech": "SATELLITE",
    "upgrade": "UNKNOWN",
    "gnaf_pid": "GAVIC419557339"
   }
  },
  {
   "type": "Feature",
   "geometry": {
    "type": "Point",
    "coordinates": [
     145.17975,
     -38.38814
    ]
   },
   "properties": {
    "name": "1 BURKE ROAD SOMERS 3927",
    "locID": "LOC000044428955",
    "tech": "FTTN",
    "upgrade": "NULL_NA",
    "gnaf_pid": "GAVIC419582889"
   }
  },
  {
   "type": "Feature",
   "geometry": {
    "type": "Point",
    "coordinates": [
     145.168603,
     -38.395671
    ]
   },
   "properties": {
    "name": "2 COORA CLOSE SOMERS 3927",
    "locID": "LOC000106273160",
    "tech": "FTTN",
    "upgrade": "NULL_NA",
    "gnaf_pid": "GAVIC419583035"
   }
  },
  {
   "type": "Feature",
   "geometry": {
    "type": "Point",
    "coordinates": [
     145.165691,
     -38.389021
    ]
   },
   "properties": {
    "name": "54 CAMP HILL ROAD SOMERS 3927",
    "locID": "LOC000038941291",
    "tech": "FTTN",
    "upgrade": "NULL_NA",
    "gnaf_pid": "GAVIC419584842"
   }
  },
  {
   "type": "Feature",
   "geometry": {
    "type": "Point",
    "coordinates": [
     145.178772,
     -38.393334
    ]
   },
   "properties": {
    "name": "2 CLIFTON COURT SOMERS 3927",
    "locID": "LOC000086814121",
    "tech": "FTTN",
    "upgrade": "NULL_NA",
    "gnaf_pid": "GAVIC419586703"
   }
  },
  {
   "type": "Feature",
   "geometry": {
    "type": "Point",
    "coordinates": [
     145.179103,
     -38.393366
    ]
   },
   "properties": {
    "name": "3 CLIFTON COURT SOMERS 3927",
    "locID": "LOC000023353514",
    "tech": "FTTN",
    "upgrade": "NULL_NA",
    "gnaf_pid": "GAVIC419586704"
   }
  },
  {
   "type": "Feature",
   "geometry": {
    "type": "Point",
    "coordinates": [
     145.178934,
     -38.392805
    ]
   },
   "properties": {
    "name": "8 CLIFTON COURT SOMERS 3927",
    "locID": "LOC000094221876",
    "tech": "FTTN",
    "upgrade": "NULL_NA",
    "gnaf_pid": "GAVIC419586705"
   }
  },
  {
   "type": "Feature",
   "geometry": {
    "type": "Point",
    "coordinates": [
     145.164558,
     -38.392175
    ]
   },