{
 "type": "FeatureCollection",
 "generated": "2023-10-25T08:26:56.464967",
 "suburb": "TABOR",
 "features": [
  {
   "type": "Feature",
   "geometry": {
    "type": "Point",
    "coordinates": [
     142.16349706,
     -37.80688151
    ]
   },
   "properties": {
    "name": "500 GELLERTS ROAD TABOR 3289",
    "locID": "ChIJzySoJccFzWoR5CzqKxF72Uk",
    "tech": "WIRELESS",
    "upgrade": "UNKNOWN",
    "gnaf_pid": "GAVIC420978609"
   }
  },
  {
   "type": "Feature",
   "geometry": {
    "type": "Point",
    "coordinates": [
     142.18876836,
     -37.87305013
    ]
   },
   "properties": {
    "name": "34 BURGERS ROAD TABOR 3289",
    "locID": "LOC000102876733",
    "tech": "WIRELESS",
    "upgrade": "NULL_NA",
    "gnaf_pid": "GAVIC422280536"
   }
  },
  {
   "type": "Feature",
   "geometry": {
    "type": "Point",
    "coordinates": [
     142.19926679,
     -37.80538715
    ]
   },
   "properties": {
    "name": "306 BUROWS LANE TABOR 3289",
    "locID": "LOC000026049828",
    "tech": "WIRELESS",
    "upgrade": "NULL_NA",
    "gnaf_pid": "GAVIC422280720"
   }
  },
  {
   "type": "Feature",
   "geometry": {
    "type": "Point",
    "coordinates": [
     142.21580358,
     -37.81756265
    ]
   },
   "properties": {
    "name": "6658 HAMILTON HIGHWAY TABOR 3289",
    "locID": "LOC000020328304",
    "tech": "SATELLITE",
    "upgrade": "NULL_NA",
    "gnaf_pid": "GAVIC422296079"
   }
  },
  {
   "type": "Feature",
   "geometry": {
    "type": "Point",
    "coordinates": [
     142.21285533,
     -37.81721455
    ]
   },
   "properties": {
    "name": "6683 HAMILTON HIGHWAY TABOR 3289",
    "locID": "LOC000087704171",
    "tech": "SATELLITE",
    "upgrade": "NULL_NA",
    "gnaf_pid": "GAVIC422296080"
   }
  },
  {
   "type": "Feature",
   "geometry": {
    "type": "Point",
    "coordinates": [
     142.19337955,
     -37.80801557
    ]
   },
   "properties": {
    "name": "6883 HAMILTON HIGHWAY TABOR 3289",
    "locID": "LOC000081458017",
    "tech": "WIRELESS",
    "upgrade": "NULL_NA",
    "gnaf_pid": "GAVIC422296081"
   }
  },
  {
   "type": "Feature",
   "geometry": {
    "type": "Point",
    "coordinates": [
     142.17782969,
     -37.80509852
    ]
   },
   "properties": {
    "name": "51 HARNATHS ROAD TABOR 3289",
    "locID": "LOC000057906783",
    "tech": "WIRELESS",
    "upgrade": "NULL_NA",
    "gnaf_pid": "GAVIC422296456"
   }
  },
  {
   "type": "Feature",
   "geometry": {
    "type": "Point",
    "coordinates": [
     142.1862337,
     -37.8228866
    ]
   },
   "properties": {
    "name": "207 TABOR SIDING ROAD TABOR 3289",
    "locID": "LOC000015549791",
    "tech": "WIRELESS",
    "upgrade": "NULL_NA",
    "gnaf_pid": "GAVIC422327281"
   }
  },
  {
   "type": "Feature",
   "geometry": {
    "type": "Point",
    "coordinates": [
     142.18233768,
     -37.81925531
    ]
   },
   "properties": {
    "name": "257 TABOR SIDING ROAD TABOR 3289",
    "locID": "LOC000030142375",
    "tech": "WIRELESS",
    "upgrade": "NULL_NA",
    "gnaf_pid": "GAVIC422327282"
   }
  },
  {
   "type": "Feature",
   "geometry": {
    "type": "Point",
    "coordinates": [
     142.19686915,
     -37.83262755
    ]
   },
   "properties": {
    "name": "61 TABOR SIDING ROAD TABOR 3289",
    "locID": "LOC000047984507",
    "tech": "SATELLITE",
    "upgrade": "NULL_NA",
    "gnaf_pid": "GAVIC422327283"
   }
  },
  {
   "type": "Feature",
   "geometry": {
    "type": "Point",
    "coordinates": [
     142.19572676,
     -37.83084565
    ]
   },
   "properties": {
    "name": "84 TABOR SIDING ROAD TABOR 3289",
    "locID": "LOC000050837438",
    "tech": "WIRELESS",
    "upgrade": "NULL_NA",
    "gnaf_pid": "GAVIC422327284"
   }
  },
  {
   "type": "Feature",
   "geometry": {
    "type": "Point",
    "coordinates": [
     142.20708887,
     -37.83231825
    ]
   },
   "properties": {
    "name": "204 TABOR ROAD TABOR 3289",
    "locID": "LOC000044847931",
    "tech": "SATELLITE",
    "upgrade": "NULL_NA",
    "gnaf_pid": "GAVIC422327285"
   }
  },
  {
   "type": "Feature",
   "geometry": {
    "type": "Point",
    "coordinates": [
     142.20613723,
     -37.83319321
    ]
   },
   "properties": {
    "name": "219 TABOR ROAD TABOR 3289",
    "locID": "LOC000047417641",
    "tech": "WIRELESS",
    "upgrade": "NULL_NA",
    "gnaf_pid": "GAVIC422327286"
   }
  },
  {
   "type": "Feature",
   "geometry": {
    "type": "Point",
    "coordinates": [
     142.20559613,
     -37.83485707
    ]
   },
   "properties": {
    "name": "253 TABOR ROAD TABOR 3289",
    "locID": "LOC000088412122",
    "tech": "WIRELESS",
    "upgrade": "NULL_NA",
    "gnaf_pid": "GAVIC422327288"
   }
  },
  {
   "type": "Feature",
   "geometry": {
    "type": "Point",
    "coordinates": [
     142.20751861,
     -37.83622298
    ]
   },
   "properties": {
    "name": "273 TABOR ROAD TABOR 3289",
    "locID": "LOC000091426971",
    "tech": "SATELLITE",
    "upgrade": "NULL_NA",
    "gnaf_pid": "GAVIC422327289"
   }
  },
  {
   "type": "Feature",
   "geometry": {
    "type": "Point",
    "coordinates": [
     142.21539353,
     -37.85073339
    ]
   },
   "properties": {
    "name": "460 TABOR ROAD TABOR 3289",
    "locID": "LOC000093286056",
    "tech": "WIRELESS",
    "upgrade": "NULL_NA",
    "gnaf_pid": "GAVIC422327290"
   }
  },
  {
   "type": "Feature",
   "geometry": {
    "type": "Point",
    "coordinates": [
     142.18191947,
     -37.84303726
    ]
   },
   "properties": {
    "name": "260 LANGES LANE TABOR 3289",
    "locID": "LOC000069740711",
    "tech": "WIRELESS",
    "upgrade": "NULL_NA",
    "gnaf_pid": "GAVIC423146281"
   }
  },
  {
   "type": "Feature",
   "geometry": {
    "type": "Point",
    "coordinates": [
     142.16808373,
     -37.80594906
    ]
   },
   "properties": {
    "name": "140 HARNATHS ROAD TABOR 3289",
    "locID": "LOC000037780393",
    "tech": "WIRELESS",
    "upgrade": "NULL_NA",
    "gnaf_pid": "GAVIC423544266"
   }
  },
  {
   "type": "Feature",
   "geometry": {
    "type": "Point",
    "coordinates": [
     142.16417251,
     -37.80613186
    ]
   },
   "properties": {
    "name": "136 WEST BOUNDARY ROAD TABOR 3289",
    "locID": "LOC000061703985",
    "tech": "WIRELESS",
    "upgrade": "NULL_NA",
    "gnaf_pid": "GAVIC423587785"
   }
  },
  {
   "type": "Feature",
   "geometry": {
    "type": "Point",
    "coordinates": [
     142.19616027,
     -37.85079755
    ]
   },
   "properties": {
    "name": "191 BANEMORE LANE TABOR 3289",
    "locID": "ChIJU3EQ1ogPzWoRM6dj7-r_Dq4",
    "tech": "SATELLITE",
    "upgrade": "UNKNOWN",
    "gnaf_pid": "GAVIC425155001"
   }
  },
  {
   "type": "Feature",
   "geometry": {
    "type": "Point",
    "coordinates": [
     142.19309372,
     -37.80703542
    ]
   },
   "properties": {
    "name": "1 R HUFS LANE TABOR 3289",
    "locID": "ChIJb2oCb1YPzWoRJONnO-BZ4Rk",
    "tech": "WIRELESS",
    "upgrade": "UNKNOWN",
    "gnaf_pid": "GAVIC719016847"
   }
  }
 ]
}