{
 "type": "FeatureCollection",
 "generated": "2024-07-07T01:33:54.891251",
 "suburb": "TAHARA BRIDGE",
 "features": [
  {
   "type": "Feature",
   "geometry": {
    "type": "Point",
    "coordinates": [
     141.62679144,
     -37.70716995
    ]
   },
   "properties": {
    "name": "139 TIEMANS ROAD TAHARA BRIDGE 3315",
    "locID": "LOC000095509959",
    "tech": "SATELLITE",
    "upgrade": "NULL_NA",
    "gnaf_pid": "GAVIC422036870",
    "tech_change_status": "Not Planned"
   }
  },
  {
   "type": "Feature",
   "geometry": {
    "type": "Point",
    "coordinates": [
     141.64861225,
     -37.6876197
    ]
   },
   "properties": {
    "name": "1192 COLERAINE-MERINO ROAD TAHARA BRIDGE 3315",
    "locID": "LOC000086171727",
    "tech": "SATELLITE",
    "upgrade": "NULL_NA",
    "gnaf_pid": "GAVIC422137786",
    "tech_change_status": "Not Planned"
   }
  },
  {
   "type": "Feature",
   "geometry": {
    "type": "Point",
    "coordinates": [
     141.62230655,
     -37.69315101
    ]
   },
   "properties": {
    "name": "1442 COLERAINE-MERINO ROAD TAHARA BRIDGE 3315",
    "locID": "LOC000025251856",
    "tech": "SATELLITE",
    "upgrade": "NULL_NA",
    "gnaf_pid": "GAVIC422137789",
    "tech_change_status": "Not Planned"
   }
  },
  {
   "type": "Feature",
   "geometry": {
    "type": "Point",
    "coordinates": [
     141.66832236,
     -37.70351015
    ]
   },
   "properties": {
    "name": "3011 CONDAH-COLERAINE ROAD TAHARA BRIDGE 3315",
    "locID": "LOC000073971944",
    "tech": "SATELLITE",
    "upgrade": "NULL_NA",
    "gnaf_pid": "GAVIC422138387",
    "tech_change_status": "Not Planned"
   }
  },
  {
   "type": "Feature",
   "geometry": {
    "type": "Point",
    "coordinates": [
     141.66454625,
     -37.69438976
    ]
   },
   "properties": {
    "name": "3120 CONDAH-COLERAINE ROAD TAHARA BRIDGE 3315",
    "locID": "LOC000044665087",
    "tech": "SATELLITE",
    "upgrade": "NULL_NA",
    "gnaf_pid": "GAVIC422138388",
    "tech_change_status": "Not Planned"
   }
  },
  {
   "type": "Feature",
   "geometry": {
    "type": "Point",
    "coordinates": [
     141.66219205,
     -37.6770975
    ]
   },
   "properties": {
    "name": "3320 CONDAH-COLERAINE ROAD TAHARA BRIDGE 3315",
    "locID": "LOC000096991711",
    "tech": "SATELLITE",
    "upgrade": "NULL_NA",
    "gnaf_pid": "GAVIC422138390",
    "tech_change_status": "Not Planned"
   }
  },
  {
   "type": "Feature",
   "geometry": {
    "type": "Point",
    "coordinates": [
     141.64111368,
     -37.67877325
    ]
   },
   "properties": {
    "name": "540 PASCHENDALE-TAHARA ROAD TAHARA BRIDGE 3315",
    "locID": "LOC000081313123",
    "tech": "SATELLITE",
    "upgrade": "NULL_NA",
    "gnaf_pid": "GAVIC422180812",
    "tech_change_status": "Not Planned"
   }
  },
  {
   "type": "Feature",
   "geometry": {
    "type": "Point",
    "coordinates": [
     141.65039616,
     -37.68205735
    ]
   },
   "properties": {
    "name": "52 TEMPLETON ROAD TAHARA BRIDGE 3315",
    "locID": "LOC000018541729",
    "tech": "SATELLITE",
    "upgrade": "NULL_NA",
    "gnaf_pid": "GAVIC423095062",
    "tech_change_status": "Not Planned"
   }
  },
  {
   "type": "Feature",
   "geometry": {
    "type": "Point",
    "coordinates": [
     141.64685253,
     -37.68016104
    ]
   },
   "properties": {
    "name": "95 TEMPLETON ROAD TAHARA BRIDGE 3315",
    "locID": "LOC000038793845",
    "tech": "SATELLITE",
    "upgrade": "NULL_NA",
    "gnaf_pid": "GAVIC423095063",
    "tech_change_status": "Not Planned"
   }
  }
 ]
}