{
 "type": "FeatureCollection",
 "generated": "2023-10-25T08:42:53.349768",
 "suburb": "TANWOOD",
 "features": [
  {
   "type": "Feature",
   "geometry": {
    "type": "Point",
    "coordinates": [
     143.385657,
     -36.997573
    ]
   },
   "properties": {
    "name": "1346 SUNRAYSIA HIGHWAY TANWOOD 3478",
    "locID": "ChIJR6HpAaSq0WoRsQAKHJvybK0",
    "tech": "SATELLITE",
    "upgrade": "UNKNOWN",
    "gnaf_pid": "GAVIC419973089"
   }
  },
  {
   "type": "Feature",
   "geometry": {
    "type": "Point",
    "coordinates": [
     143.358941,
     -37.030065
    ]
   },
   "properties": {
    "name": "21 BUCKNALL ROAD TANWOOD 3478",
    "locID": "ChIJjyyYdUeq0WoR_1PVzBHEefA",
    "tech": "SATELLITE",
    "upgrade": "UNKNOWN",
    "gnaf_pid": "GAVIC420567635"
   }
  },
  {
   "type": "Feature",
   "geometry": {
    "type": "Point",
    "coordinates": [
     143.36680791,
     -37.03000893
    ]
   },
   "properties": {
    "name": "93 BUCKNALL ROAD TANWOOD 3478",
    "locID": "ChIJfZ7HoEGq0WoRiKfYibJvLPM",
    "tech": "SATELLITE",
    "upgrade": "UNKNOWN",
    "gnaf_pid": "GAVIC421167106"
   }
  },
  {
   "type": "Feature",
   "geometry": {
    "type": "Point",
    "coordinates": [
     143.40318076,
     -37.00397644
    ]
   },
   "properties": {
    "name": "145 WILLIAMS ROAD TANWOOD 3478",
    "locID": "LOC000011134967",
    "tech": "SATELLITE",
    "upgrade": "NULL_NA",
    "gnaf_pid": "GAVIC421270914"
   }
  },
  {
   "type": "Feature",
   "geometry": {
    "type": "Point",
    "coordinates": [
     143.38638125,
     -37.00036341
    ]
   },
   "properties": {
    "name": "1312 SUNRAYSIA HIGHWAY TANWOOD 3478",
    "locID": "LOC000092816785",
    "tech": "SATELLITE",
    "upgrade": "NULL_NA",
    "gnaf_pid": "GAVIC421459220"
   }
  },
  {
   "type": "Feature",
   "geometry": {
    "type": "Point",
    "coordinates": [
     143.39407469,
     -37.00957893
    ]
   },
   "properties": {
    "name": "1182 SUNRAYSIA HIGHWAY TANWOOD 3478",
    "locID": "LOC000007743579",
    "tech": "SATELLITE",
    "upgrade": "NULL_NA",
    "gnaf_pid": "GAVIC421574707"
   }
  },
  {
   "type": "Feature",
   "geometry": {
    "type": "Point",
    "coordinates": [
     143.40111194,
     -37.00372722
    ]
   },
   "properties": {
    "name": "125 WILLIAMS ROAD TANWOOD 3478",
    "locID": "LOC000124784572",
    "tech": "SATELLITE",
    "upgrade": "NULL_NA",
    "gnaf_pid": "GAVIC421857241"
   }
  },
  {
   "type": "Feature",
   "geometry": {
    "type": "Point",
    "coordinates": [
     143.35697639,
     -37.02743516
    ]
   },
   "properties": {
    "name": "69 SARDINE ROAD TANWOOD 3478",
    "locID": "ChIJf6wiCUiq0WoRjsc80jTK9g4",
    "tech": "SATELLITE",
    "upgrade": "UNKNOWN",
    "gnaf_pid": "GAVIC423155654"
   }
  },
  {
   "type": "Feature",
   "geometry": {
    "type": "Point",
    "coordinates": [
     143.38084929,
     -37.00243854
    ]
   },
   "properties": {
    "name": "6609 STAWELL-AVOCA ROAD TANWOOD 3478",
    "locID": "LOC000094760754",
    "tech": "SATELLITE",
    "upgrade": "NULL_NA",
    "gnaf_pid": "GAVIC423164670"
   }
  },
  {
   "type": "Feature",
   "geometry": {
    "type": "Point",
    "coordinates": [
     143.37558755,
     -37.00732208
    ]
   },
   "properties": {
    "name": "128 TANWOOD ROAD TANWOOD 3478",
    "locID": "LOC000021006483",
    "tech": "SATELLITE",
    "upgrade": "NULL_NA",
    "gnaf_pid": "GAVIC423164698"
   }
  },
  {
   "type": "Feature",
   "geometry": {
    "type": "Point",
    "coordinates": [
     143.3743793,
     -37.0110356
    ]
   },
   "properties": {
    "name": "170 TANWOOD ROAD TANWOOD 3478",
    "locID": "LOC000104852006",
    "tech": "SATELLITE",
    "upgrade": "NULL_NA",
    "gnaf_pid": "GAVIC423164699"
   }
  },
  {
   "type": "Feature",
   "geometry": {
    "type": "Point",
    "coordinates": [
     143.36548363,
     -37.02172373
    ]
   },
   "properties": {
    "name": "93 CASTLEMANS ROAD TANWOOD 3478",
    "locID": "LOC000066052193",
    "tech": "SATELLITE",
    "upgrade": "NULL_NA",
    "gnaf_pid": "GAVIC423846862"
   }
  },
  {
   "type": "Feature",
   "geometry": {
    "type": "Point",
    "coordinates": [
     143.37390291,
     -37.01504557
    ]
   },
   "properties": {
    "name": "323 PUNTON ROAD TANWOOD 3478",
    "locID": "LOC000002006893",
    "tech": "SATELLITE",
    "upgrade": "NULL_NA",
    "gnaf_pid": "GAVIC424244937"
   }
  },
  {
   "type": "Feature",
   "geometry": {
    "type": "Point",
    "coordinates": [
     143.37019091,
     -37.01461041
    ]
   },
   "properties": {
    "name": "357 PUNTON ROAD TANWOOD 3478",
    "locID": "LOC000056256422",
    "tech": "SATELLITE",
    "upgrade": "NULL_NA",
    "gnaf_pid": "GAVIC424244938"
   }
  },
  {
   "type": "Feature",
   "geometry": {
    "type": "Point",
    "coordinates": [
     143.36093581,
     -37.0135537
    ]
   },
   "properties": {
    "name": "441 PUNTON ROAD TANWOOD 3478",
    "locID": "LOC000104570487",
    "tech": "SATELLITE",
    "upgrade": "NULL_NA",
    "gnaf_pid": "GAVIC424244939"
   }
  },
  {
   "type": "Feature",
   "geometry": {
    "type": "Point",
    "coordinates": [
     143.36009439,
     -37.01341963
    ]
   },
   "properties": {
    "name": "457 PUNTON ROAD TANWOOD 3478",
    "locID": "LOC000081117644",
    "tech": "SATELLITE",
    "upgrade": "NULL_NA",
    "gnaf_pid": "GAVIC424244940"
   }
  },
  {
   "type": "Feature",
   "geometry": {
    "type": "Point",
    "coordinates": [
     143.37824804,
     -37.00527855
    ]
   },
   "properties": {
    "name": "93 TANWOOD ROAD TANWOOD 3478",
    "locID": "LOC000066052193",
    "tech": "SATELLITE",
    "upgrade": "NULL_NA",
    "gnaf_pid": "GAVIC424284617"
   }
  },
  {
   "type": "Feature",
   "geometry": {
    "type": "Point",
    "coordinates": [
     143.37768758,
     -37.01845521
    ]
   },
   "properties": {
    "name": "32 ANDERSONS LANE TANWOOD 3478",
    "locID": "ChIJ52yYkGOq0WoRpHg6KHuQDOw",
    "tech": "SATELLITE",
    "upgrade": "UNKNOWN",
    "gnaf_pid": "GAVIC721026319"
   }
  }
 ]
}