{
 "type": "FeatureCollection",
 "generated": "2023-09-26T21:47:30.679381",
 "suburb": "TAYLORS HILL",
 "features": [
  {
   "type": "Feature",
   "geometry": {
    "type": "Point",
    "coordinates": [
     144.76343306,
     -37.71272543
    ]
   },
   "properties": {
    "name": "47 GLENELG BOULEVARD TAYLORS HILL 3037",
    "locID": "LOC000011086654",
    "tech": "FTTN",
    "upgrade": "FTTP_SA",
    "gnaf_pid": "GAVIC412456534"
   }
  },
  {
   "type": "Feature",
   "geometry": {
    "type": "Point",
    "coordinates": [
     144.75434346,
     -37.70733576
    ]
   },
   "properties": {
    "name": "2 EXHIBITION PARADE TAYLORS HILL 3037",
    "locID": "ChIJw_Vmo7n11moR1NNgSP7VuC0",
    "tech": "FTTN",
    "upgrade": "UNKNOWN",
    "gnaf_pid": "GAVIC412913870"
   }
  },
  {
   "type": "Feature",
   "geometry": {
    "type": "Point",
    "coordinates": [
     144.75368973,
     -37.70748872
    ]
   },
   "properties": {
    "name": "9 EXHIBITION PARADE TAYLORS HILL 3037",
    "locID": "ChIJ4YwPlbn11moRQrP5ObPhaTU",
    "tech": "FTTN",
    "upgrade": "UNKNOWN",
    "gnaf_pid": "GAVIC412913876"
   }
  },
  {
   "type": "Feature",
   "geometry": {
    "type": "Point",
    "coordinates": [
     144.75460998,
     -37.70637251
    ]
   },
   "properties": {
    "name": "26 SOUTHBANK WALK TAYLORS HILL 3037",
    "locID": "ChIJpdx9VLj11moR7Zu3Ck7fU6E",
    "tech": "FTTN",
    "upgrade": "UNKNOWN",
    "gnaf_pid": "GAVIC412914814"
   }
  },
  {
   "type": "Feature",
   "geometry": {
    "type": "Point",
    "coordinates": [
     144.75844886,
     -37.72312289
    ]
   },
   "properties": {
    "name": "13 BARWON STREET TAYLORS HILL 3037",
    "locID": "ChIJ22o2uKD11moRVsJK0oHZkwg",
    "tech": "FTTN",
    "upgrade": "UNKNOWN",
    "gnaf_pid": "GAVIC412914821"
   }
  },
  {
   "type": "Feature",
   "geometry": {
    "type": "Point",
    "coordinates": [
     144.7571297,
     -37.72283822
    ]
   },
   "properties": {
    "name": "2 BARWON STREET TAYLORS HILL 3037",
    "locID": "LOC000106608104",
    "tech": "FTTN",
    "upgrade": "FTTP_SA",
    "gnaf_pid": "GAVIC412914823"
   }
  },
  {
   "type": "Feature",
   "geometry": {
    "type": "Point",
    "coordinates": [
     144.75008824,
     -37.71012045
    ]
   },
   "properties": {
    "name": "1 CHURCH AVENUE TAYLORS HILL 3037",
    "locID": "LOC000032115168",
    "tech": "FTTN",
    "upgrade": "FTTP_SA",
    "gnaf_pid": "GAVIC412924489"
   }
  },
  {
   "type": "Feature",
   "geometry": {
    "type": "Point",
    "coordinates": [
     144.75008824,
     -37.71012045
    ]
   },
   "properties": {
    "name": "2 CHURCH AVENUE TAYLORS HILL 3037",
    "locID": "LOC000063725098",
    "tech": "FTTN",
    "upgrade": "FTTP_SA",
    "gnaf_pid": "GAVIC412924490"
   }
  },
  {
   "type": "Feature",
   "geometry": {
    "type": "Point",
    "coordinates": [
     144.75041554,
     -37.71020747
    ]
   },
   "properties": {
    "name": "7 CHURCH AVENUE TAYLORS HILL 3037",
    "locID": "ChIJQRBxW7D11moRy97VAJOP5FE",
    "tech": "FTTN",
    "upgrade": "UNKNOWN",
    "gnaf_pid": "GAVIC412924495"
   }
  },
  {
   "type": "Feature",
   "geometry": {
    "type": "Point",
    "coordinates": [
     144.76108692,
     -37.7203622
    ]
   },
   "properties": {
    "name": "16 NICHOLSON TERRACE TAYLORS HILL 3037",
    "locID": "ChIJSbIOKKL11moRoWblMnnY3c0",
    "tech": "FTTN",
    "upgrade": "UNKNOWN",
    "gnaf_pid": "GAVIC412925494"
   }
  },
  {
   "type": "Feature",
   "geometry": {
    "type": "Point",
    "coordinates": [
     144.76087208,
     -37.72018581
    ]
   },
   "properties": {
    "name": "17 NICHOLSON TERRACE TAYLORS HILL 3037",
    "locID": "ChIJ4-6gKaL11moRKlBSVVYOFR4",
    "tech": "FTTN",
    "upgrade": "UNKNOWN",
    "gnaf_pid": "GAVIC412925495"
   }
  },
  {
   "type": "Feature",
   "geometry": {
    "type": "Point",
    "coordinates": [
     144.76274833,
     -37.71966691
    ]
   },
   "properties": {
    "name": "33 NICHOLSON TERRACE TAYLORS HILL 3037",
    "locID": "ChIJNch0c6L11moRo_EzKwJFnqE",
    "tech": "FTTN",
    "upgrade": "UNKNOWN",
    "gnaf_pid": "GAVIC412925496"
   }
  },
  {
   "type": "Feature",
   "geometry": {
    "type": "Point",
    "coordinates": [
     144.75837128,
     -37.71767381
    ]
   },
   "properties": {
    "name": "1 AVOCA PLACE TAYLORS HILL 3037",
    "locID": "ChIJmfG0mqP11moRi4sHeYNC6hs",
    "tech": "FTTN",
    "upgrade": "UNKNOWN",
    "gnaf_pid": "GAVIC412928703"
   }
  },
  {
   "type": "Feature",
   "geometry": {
    "type": "Point",
    "coordinates": [
     144.75008824,
     -37.71012045
    ]
   },
   "properties": {
    "name": "17 CHURCH AVENUE TAYLORS HILL 3037",
    "locID": "ChIJUYV6ULD11moRrLS1qfY5MDg",
    "tech": "FTTN",
    "upgrade": "UNKNOWN",
    "gnaf_pid": "GAVIC412929622"
   }
  },
  {
   "type": "Feature",
   "geometry": {
    "type": "Point",
    "coordinates": [
     144.75008824,
     -37.71012045
    ]
   },
   "properties": {
    "name": "19 CHURCH AVENUE TAYLORS HILL 3037",
    "locID": "ChIJUYV6ULD11moRVSQv0q1Egr4",
    "tech": "FTTN",
    "upgrade": "UNKNOWN",
    "gnaf_pid": "GAVIC412929623"
   }
  },
  {
   "type": "Feature",
   "geometry": {
    "type": "Point",
    "coordinates": [
     144.7647177,
     -37.71692932
    ]
   },
   "properties": {
    "name": "15 COORONG COURT TAYLORS HILL 3037",
    "locID": "ChIJy_Bhipf11moRfSHDO8zOzdU",
    "tech": "FTTN",
    "upgrade": "UNKNOWN",
    "gnaf_pid": "GAVIC412930423"
   }
  },
  {
   "type": "Feature",
   "geometry": {
    "type": "Point",
    "coordinates": [
     144.7618355,
     -37.7186375
    ]
   },
   "properties": {
    "name": "31 CARDINIA CRESCENT TAYLORS HILL 3037",
    "locID": "ChIJLalRZ6L11moRapjEVBkbB9w",
    "tech": "FTTN",
    "upgrade": "UNKNOWN",
    "gnaf_pid": "GAVIC412930978"
   }
  },
  {
   "type": "Feature",
   "geometry": {
    "type": "Point",
    "coordinates": [
     144.76035428,
     -37.72311893
    ]
   },
   "properties": {
    "name": "2 SILVAN WALK TAYLORS HILL 3037",
    "locID": "ChIJ_fXt96D11moRDWYvWLCLQSY",
    "tech": "FTTN",
    "upgrade": "UNKNOWN",
    "gnaf_pid": "GAVIC412930991"
   }
  },
  {
   "type": "Feature",
   "geometry": {
    "type": "Point",
    "coordinates": [
     144.76340982,
     -37.71397145
    ]
   },
   "properties": {
    "name": "1 GLENELG BOULEVARD TAYLORS HILL 3037",
    "locID": "LOC000009363108",
    "tech": "FTTN",
    "upgrade": "FTTP_SA",
    "gnaf_pid": "GAVIC412931331"
   }
  },
  {
   "type": "Feature",
   "geometry": {
    "type": "Point",
    "coordinates": [
     144.75116371,
     -37.70858855
    ]
   },
   "properties": {
    "name": "6 THE WALK TAYLORS HILL 3037",
    "locID": "ChIJASADvLD11moRhEhrjEHi210",
    "tech": "FTTN",
    "upgrade": "UNKNOWN",
    "gnaf_pid": "GAVIC412931536"
   }
  },
  {
   "type": "Feature",
   "geometry": {
    "type": "Point",
    "coordinates": [
     144.7483985,
     -37.709389
    ]
   },
   "properties": {
    "name": "11 COLLINS STREET TAYLORS HILL 3037",
    "locID": "ChIJMRL3o7H11moRkHBeol-Pv1g",
    "tech": "FTTN",
    "upgrade": "UNKNOWN",
    "gnaf_pid": "GAVIC412931549"
   }
  },
  {
   "type": "Feature",
   "geometry": {
    "type": "Point",
    "coordinates": [
     144.76276831,
     -37.71717703
    ]
   },
   "properties": {
    "name": "20 LODDON DRIVE TAYLORS HILL 3037",
    "locID": "ChIJgfcJpKL11moRvHBAFxh2oFM",
    "tech": "FTTN",
    "upgrade": "UNKNOWN",
    "gnaf_pid": "GAVIC412931988"
   }
  },
  {
   "type": "Feature",
   "geometry": {
    "type": "Point",
    "coordinates": [
     144.75472154,
     -37.70969656
    ]
   },
   "properties": {
    "name": "1 BANK PLACE TAYLORS HILL 3037",
    "locID": "LOC000030959681",
    "tech": "FTTN",
    "upgrade": "FTTP_SA",
    "gnaf_pid": "GAVIC412932076"
   }
  },
  {
   "type": "Feature",
   "geometry": {
    "type": "Point",
    "coordinates": [
     144.75059243,
     -37.71037845
    ]
   },
   "properties": {
    "name": "1 GURNERS LANE TAYLORS HILL 3037",
    "locID": "ChIJGy7OXLD11moRA5KC3sqRfak",
    "tech": "FTTN",
    "upgrade": "UNKNOWN",
    "gnaf_pid": "GAVIC412932243"
   }
  },
  {
   "type": "Feature",
   "geometry": {
    "type": "Point",
    "coordinates": [
     144.74951813,
     -37.7103543
    ]
   },
   "properties": {
    "name": "1 HIGHLANDER COURT TAYLORS HILL 3037",
    "locID": "ChIJ9ZldS7D11moRZjyi31QtqRw",
    "tech": "FTTN",
    "upgrade": "UNKNOWN",
    "gnaf_pid": "GAVIC412932358"
   }
  },
  {
   "type": "Feature",
   "geometry": {
    "type": "Point",
    "coordinates": [
     144.75472154,
     -37.70969656
    ]
   },
   "properties": {
    "name": "13 BANK PLACE TAYLORS HILL 3037",
    "locID": "ChIJ9ZOiM7r11moRhglB0Sp3ZRI",
    "tech": "FTTN",
    "upgrade": "UNKNOWN",
    "gnaf_pid": "GAVIC412932767"
   }
  },
  {
   "type": "Feature",
   "geometry": {
    "type": "Point",
    "coordinates": [
     144.76386252,
     -37.72019799
    ]
   },
   "properties": {
    "name": "1 MITTA PLACE TAYLORS HILL 3037",
    "locID": "LOC000031029549",
    "tech": "FTTN",
    "upgrade": "FTTP_SA",
    "gnaf_pid": "GAVIC412932988"
   }
  },
  {
   "type": "Feature",
   "geometry": {
    "type": "Point",
    "coordinates": [
     144.76367763,
     -37.71695147
    ]
   },
   "properties": {
    "name": "1 BOLAC PLACE TAYLORS HILL 3037",
    "locID": "ChIJ8RF9BJj11moR90cO3bR6qOk",
    "tech": "FTTN",
    "upgrade": "UNKNOWN",
    "gnaf_pid": "GAVIC412933432"
   }
  },
  {
   "type": "Feature",
   "geometry": {
    "type": "Point",
    "coordinates": [
     144.75263946,
     -37.70976822
    ]
   },
   "properties": {
    "name": "1 TREASURY PLACE TAYLORS HILL 3037",
    "locID": "LOC000091413033",
    "tech": "FTTN",
    "upgrade": "FTTP_SA",
    "gnaf_pid": "GAVIC412936799"
   }
  },
  {
   "type": "Feature",
   "geometry": {
    "type": "Point",
    "coordinates": [
     144.75976214,
     -37.71698517
    ]
   },
   "properties": {
    "name": "1 LODDON DRIVE TAYLORS HILL 3037",
    "locID": "LOC000059303926",
    "tech": "FTTN",
    "upgrade": "FTTP_SA",
    "gnaf_pid": "GAVIC412937344"
   }
  },
  {
   "type": "Feature",
   "geometry": {
    "type": "Point",
    "coordinates": [
     144.75976214,
     -37.71698517
    ]
   },
   "properties": {
    "name": "2 LODDON DRIVE TAYLORS HILL 3037",
    "locID": "LOC000020268725",
    "tech": "FTTN",
    "upgrade": "FTTP_SA",
    "gnaf_pid": "GAVIC412937345"
   }
  },
  {
   "type": "Feature",
   "geometry": {
    "type": "Point",
    "coordinates": [
     144.76258285,
     -37.72146448
    ]
   },
   "properties": {
    "name": "450 TAYLORS ROAD TAYLORS HILL 3037",
    "locID": "LOC000182159395",
    "tech": "FTTP",
    "upgrade": "NULL_NA",
    "gnaf_pid": "GAVIC412939210"
   }
  },
  {
   "type": "Feature",
   "geometry": {
    "type": "Point",
    "coordinates": [
     144.76490451,
     -37.72035637
    ]
   },
   "properties": {
    "name": "1 DARGO PLACE TAYLORS HILL 3037",
    "locID": "LOC000018658839",
    "tech": "FTTN",
    "upgrade": "FTTP_SA",
    "gnaf_pid": "GAVIC412941014"
   }
  },
  {
   "type": "Feature",
   "geometry": {
    "type": "Point",
    "coordinates": [
     144.744341,
     -37.713299
    ]
   },
   "properties": {
    "name": "29 PYRMONT TERRACE TAYLORS HILL 3037",
    "locID": "LOC000058078673",
    "tech": "FTTN",
    "upgrade": "FTTP_SA",
    "gnaf_pid": "GAVIC419578586"
   }
  },
  {
   "type": "Feature",
   "geometry": {
    "type": "Point",
    "coordinates": [
     144.745009,
     -37.711049
    ]
   },
   "properties": {
    "name": "2 MANLY COURT TAYLORS HILL 3037",
    "locID": "LOC000016892001",
    "tech": "FTTP",
    "upgrade": "NULL_NA",
    "gnaf_pid": "GAVIC419581268"
   }
  },
  {
   "type": "Feature",
   "geometry": {
    "type": "Point",
    "coordinates": [
     144.744974,
     -37.711197
    ]
   },
   "properties": {
    "name": "1 MANLY COURT TAYLORS HILL 3037",
    "locID": "LOC000074597377",
    "tech": "FTTN",
    "upgrade": "FTTP_SA",
    "gnaf_pid": "GAVIC419581269"
   }
  },
  {
   "type": "Feature",
   "geometry": {
    "type": "Point",
    "coordinates": [
     144.74492,
     -37.711364
    ]
   },
   "properties": {
    "name": "11 PITT STREET TAYLORS HILL 3037",
    "locID": "LOC000040097477",
    "tech": "FTTN",
    "upgrade": "FTTP_SA",
    "gnaf_pid": "GAVIC419581270"
   }
  },
  {
   "type": "Feature",
   "geometry": {
    "type": "Point",
    "coordinates": [
     144.745867,
     -37.712122
    ]
   },
   "properties": {
    "name": "4 SUSSEX GROVE TAYLORS HILL 3037",
    "locID": "LOC000035519637",
    "tech": "FTTN",
    "upgrade": "FTTP_SA",
    "gnaf_pid": "GAVIC419581425"
   }
  },
  {
   "type": "Feature",
   "geometry": {
    "type": "Point",
    "coordinates": [
     144.756434,
     -37.719397
    ]
   },
   "properties": {
    "name": "10 WEBBS AVENUE TAYLORS HILL 3037",
    "locID": "LOC000030031547",
    "tech": "FTTN",
    "upgrade": "FTTP_SA",
    "gnaf_pid": "GAVIC419586466"
   }
  },
  {
   "type": "Feature",
   "geometry": {
    "type": "Point",
    "coordinates": [
     144.75757125,
     -37.72001191
    ]
   },
   "properties": {
    "name": "7 YARRA WAY TAYLORS HILL 3037",
    "locID": "ChIJo9GQtKb11moRHh-qZLGZ-C8",
    "tech": "FTTN",
    "upgrade": "UNKNOWN",
    "gnaf_pid": "GAVIC419586467"
   }
  },
  {
   "type": "Feature",
   "geometry": {
    "type": "Point",
    "coordinates": [
     144.75682944,
     -37.71951745
    ]
   },
   "properties": {
    "name": "12 YARRA WAY TAYLORS HILL 3037",
    "locID": "LOC000074799185",
    "tech": "FTTN",
    "upgrade": "FTTP_SA",
    "gnaf_pid": "GAVIC419586469"
   }
  },
  {
   "type": "Feature",
   "geometry": {
    "type": "Point",
    "coordinates": [
     144.75716963,
     -37.71828676
    ]
   },
   "properties": {
    "name": "13 MITCHELL GROVE TAYLORS HILL 3037",
    "locID": "LOC000002103471",
    "tech": "FTTN",
    "upgrade": "FTTP_SA",
    "gnaf_pid": "GAVIC419586470"
   }
  },
  {
   "type": "Feature",
   "geometry": {
    "type": "Point",
    "coordinates": [
     144.75674705,
     -37.71819738
    ]
   },
   "properties": {
    "name": "17 MITCHELL GROVE TAYLORS HILL 3037",
    "locID": "LOC000006937987",
    "tech": "FTTN",
    "upgrade": "FTTP_SA",
    "gnaf_pid": "GAVIC419586471"
   }
  },
  {
   "type": "Feature",
   "geometry": {
    "type": "Point",
    "coordinates": [
     144.745809,
     -37.712403
    ]
   },
   "properties": {
    "name": "5 SUSSEX GROVE TAYLORS HILL 3037",
    "locID": "LOC000029239914",
    "tech": "FTTP",
    "upgrade": "NULL_NA",
    "gnaf_pid": "GAVIC419590215"
   }
  },
  {
   "type": "Feature",
   "geometry": {
    "type": "Point",
    "coordinates": [
     144.74437,
     -37.710961
    ]
   },
   "properties": {
    "name": "3 VAUCLUSE BOULEVARD TAYLORS HILL 3037",
    "locID": "LOC000079494729",
    "tech": "FTTN",
    "upgrade": "FTTP_SA",
    "gnaf_pid": "GAVIC419590217"
   }
  },
  {
   "type": "Feature",
   "geometry": {
    "type": "Point",
    "coordinates": [
     144.744526,
     -37.712372
    ]
   },
   "properties": {
    "name": "38 PYRMONT TERRACE TAYLORS HILL 3037",
    "locID": "LOC000075738807",
    "tech": "FTTN",
    "upgrade": "FTTP_SA",
    "gnaf_pid": "GAVIC419590218"
   }
  },
  {
   "type": "Feature",
   "geometry": {
    "type": "Point",
    "coordinates": [
     144.761241,
     -37.71926
    ]
   },
   "properties": {
    "name": "17 THOMSON WAY TAYLORS HILL 3037",
    "locID": "LOC000002918978",
    "tech": "FTTN",
    "upgrade": "FTTP_SA",
    "gnaf_pid": "GAVIC419709631"
   }
  },
  {
   "type": "Feature",
   "geometry": {
    "type": "Point",
    "coordinates": [
     144.761653,
     -37.71894
    ]
   },
   "properties": {
    "name": "21 THOMSON WAY TAYLORS HILL 3037",
    "locID": "LOC000026201827",
    "tech": "FTTN",
    "upgrade": "FTTP_SA",
    "gnaf_pid": "GAVIC419709633"
   }
  },
  {
   "type": "Feature",
   "geometry": {
    "type": "Point",
    "coordinates": [
     144.763029,
     -37.71878
    ]
   },
   "properties": {
    "name": "32 CARDINIA CRESCENT TAYLORS HILL 3037",
    "locID": "LOC000015183131",
    "tech": "FTTN",
    "upgrade": "FTTP_SA",
    "gnaf_pid": "GAVIC419709634"
   }
  },
  {
   "type": "Feature",
   "geometry": {
    "type": "Point",
    "coordinates": [
     144.76262,
     -37.718931
    ]
   },
   "properties": {
    "name": "28 CARDINIA CRESCENT TAYLORS HILL 3037",
    "locID": "LOC000037014923",
    "tech": "FTTN",
    "upgrade": "FTTP_SA",
    "gnaf_pid": "GAVIC419709635"
   }
  },
  {
   "type": "Feature",
   "geometry": {
    "type": "Point",
    "coordinates": [
     144.762463,
     -37.718668
    ]
   },
   "properties": {
    "name": "37 CARDINIA CRESCENT TAYLORS HILL 3037",
    "locID": "LOC000058029524",
    "tech": "FTTN",
    "upgrade": "FTTP_SA",
    "gnaf_pid": "GAVIC419709636"
   }
  },
  {
   "type": "Feature",
   "geometry": {
    "type": "Point",
    "coordinates": [
     144.759979,
     -37.719077
    ]
   },
   "properties": {
    "name": "8 WANNON PLACE TAYLORS HILL 3037",
    "locID": "LOC000075518248",
    "tech": "FTTN",
    "upgrade": "FTTP_SA",
    "gnaf_pid": "GAVIC419709637"
   }
  },
  {
   "type": "Feature",
   "geometry": {
    "type": "Point",
    "coordinates": [
     144.760577,
     -37.721239
    ]
   },
   "properties": {
    "name": "2 TAMBO CRESCENT TAYLORS HILL 3037",
    "locID": "LOC000009711627",
    "tech": "FTTN",
    "upgrade": "FTTP_SA",
    "gnaf_pid": "GAVIC419709663"
   }
  },
  {
   "type": "Feature",
   "geometry": {
    "type": "Point",
    "coordinates": [
     144.7619,
     -37.721391
    ]
   },
   "properties": {
    "name": "1 WARANGA WAY TAYLORS HILL 3037",
    "locID": "LOC000019384806",
    "tech": "FTTN",
    "upgrade": "FTTP_SA",
    "gnaf_pid": "GAVIC419709664"
   }
  },
  {
   "type": "Feature",
   "geometry": {
    "type": "Point",
    "coordinates": [
     144.761551,
     -37.721351
    ]
   },
   "properties": {
    "name": "2 WARANGA WAY TAYLORS HILL 3037",
    "locID": "LOC000066946877",
    "tech": "FTTN",
    "upgrade": "FTTP_SA",
    "gnaf_pid": "GAVIC419709665"
   }
  },
  {
   "type": "Feature",
   "geometry": {
    "type": "Point",
    "coordinates": [
     144.748574,
     -37.708422
    ]
   },
   "properties": {
    "name": "15 FLAGSTAFF LANE TAYLORS HILL 3037",
    "locID": "LOC000063372620",
    "tech": "FTTN",
    "upgrade": "FTTP_SA",
    "gnaf_pid": "GAVIC419723754"
   }
  },
  {
   "type": "Feature",
   "geometry": {
    "type": "Point",
    "coordinates": [
     144.747349,
     -37.708273
    ]
   },
   "properties": {
    "name": "7 FLAGSTAFF LANE TAYLORS HILL 3037",
    "locID": "LOC000019594992",
    "tech": "FTTN",
    "upgrade": "FTTP_SA",
    "gnaf_pid": "GAVIC419723755"
   }
  },
  {
   "type": "Feature",
   "geometry": {
    "type": "Point",
    "coordinates": [
     144.747487,
     -37.708791
    ]
   },
   "properties": {
    "name": "4 FLAGSTAFF LANE TAYLORS HILL 3037",
    "locID": "LOC000044548627",
    "tech": "FTTN",
    "upgrade": "FTTP_SA",
    "gnaf_pid": "GAVIC419723756"
   }
  },
  {
   "type": "Feature",
   "geometry": {
    "type": "Point",
    "coordinates": [
     144.765417,
     -37.719437
    ]
   },
   "properties": {
    "name": "6 SILVERTREE AVENUE TAYLORS HILL 3037",
    "locID": "LOC000013060285",
    "tech": "FTTN",
    "upgrade": "FTTP_SA",
    "gnaf_pid": "GAVIC419724167"
   }
  },
  {
   "type": "Feature",
   "geometry": {
    "type": "Point",
    "coordinates": [
     144.7656,
     -37.718278
    ]
   },
   "properties": {
    "name": "20 JAMIESON TERRACE TAYLORS HILL 3037",
    "locID": "LOC000072266714",
    "tech": "FTTN",
    "upgrade": "FTTP_SA",
    "gnaf_pid": "GAVIC419724169"
   }
  },
  {
   "type": "Feature",
   "geometry": {
    "type": "Point",
    "coordinates": [
     144.764515,
     -37.718835
    ]
   },
   "properties": {
    "name": "1 JAMIESON TERRACE TAYLORS HILL 3037",
    "locID": "LOC000071591190",
    "tech": "FTTN",
    "upgrade": "FTTP_SA",
    "gnaf_pid": "GAVIC419724170"
   }
  },
  {
   "type": "Feature",
   "geometry": {
    "type": "Point",
    "coordinates": [
     144.762291,
     -37.718229
    ]
   },
   "properties": {
    "name": "4 DARLING COURT TAYLORS HILL 3037",
    "locID": "LOC000010159921",
    "tech": "FTTP",
    "upgrade": "UNKNOWN",
    "gnaf_pid": "GAVIC419724171"
   }
  },
  {
   "type": "Feature",
   "geometry": {
    "type": "Point",
    "coordinates": [
     144.761838,
     -37.717859
    ]
   },
   "properties": {
    "name": "9 DARLING COURT TAYLORS HILL 3037",
    "locID": "LOC000036154030",
    "tech": "FTTN",
    "upgrade": "FTTP_SA",
    "gnaf_pid": "GAVIC419724172"
   }
  },
  {
   "type": "Feature",
   "geometry": {
    "type": "Point",
    "coordinates": [
     144.7517,
     -37.708973
    ]
   },
   "properties": {
    "name": "22 FLINDERS STREET TAYLORS HILL 3037",
    "locID": "LOC000026169487",
    "tech": "FTTN",
    "upgrade": "FTTP_SA",
    "gnaf_pid": "GAVIC419724349"
   }
  },
  {
   "type": "Feature",
   "geometry": {
    "type": "Point",
    "coordinates": [
     144.755291,
     -37.707308
    ]
   },
   "properties": {
    "name": "2 CITYVIEW CLOSE TAYLORS HILL 3037",
    "locID": "LOC000013775584",
    "tech": "FTTN",
    "upgrade": "FTTP_SA",
    "gnaf_pid": "GAVIC419725872"
   }
  },
  {
   "type": "Feature",
   "geometry": {
    "type": "Point",
    "coordinates": [
     144.75294495,
     -37.70700839
    ]
   },
   "properties": {
    "name": "10 HARDWARE LANE TAYLORS HILL 3037",
    "locID": "LOC000049191435",
    "tech": "FTTN",
    "upgrade": "FTTP_SA",
    "gnaf_pid": "GAVIC419725873"
   }
  },
  {
   "type": "Feature",
   "geometry": {
    "type": "Point",
    "coordinates": [
     144.75338425,
     -37.70707788
    ]
   },
   "properties": {
    "name": "6 HARDWARE LANE TAYLORS HILL 3037",
    "locID": "LOC000006201499",
    "tech": "FTTP",
    "upgrade": "NULL_NA",
    "gnaf_pid": "GAVIC419725874"
   }
  },
  {
   "type": "Feature",
   "geometry": {
    "type": "Point",
    "coordinates": [
     144.754219,
     -37.708872
    ]
   },
   "properties": {
    "name": "3 TAYLORS HILL BOULEVARD TAYLORS HILL 3037",
    "locID": "LOC000025903890",
    "tech": "FTTN",
    "upgrade": "FTTP_SA",
    "gnaf_pid": "GAVIC419725879"
   }
  },
  {
   "type": "Feature",
   "geometry": {
    "type": "Point",
    "coordinates": [
     144.753178,
     -37.708746
    ]
   },
   "properties": {
    "name": "11 TAYLORS HILL BOULEVARD TAYLORS HILL 3037",
    "locID": "LOC000046667696",
    "tech": "FTTN",
    "upgrade": "FTTP_SA",
    "gnaf_pid": "GAVIC419725881"
   }
  },
  {
   "type": "Feature",
   "geometry": {
    "type": "Point",
    "coordinates": [
     144.753481,
     -37.7084
    ]
   },
   "properties": {
    "name": "10 TAYLORS HILL BOULEVARD TAYLORS HILL 3037",
    "locID": "LOC000028512157",
    "tech": "FTTN",
    "upgrade": "FTTP_SA",
    "gnaf_pid": "GAVIC419725883"
   }
  },
  {
   "type": "Feature",
   "geometry": {
    "type": "Point",
    "coordinates": [
     144.754301,
     -37.708499
    ]
   },
   "properties": {
    "name": "4 TAYLORS HILL BOULEVARD TAYLORS HILL 3037",
    "locID": "LOC000092633057",
    "tech": "FTTN",
    "upgrade": "FTTP_SA",
    "gnaf_pid": "GAVIC419725884"
   }
  },
  {
   "type": "Feature",
   "geometry": {
    "type": "Point",
    "coordinates": [
     144.752881,
     -37.707996
    ]
   },
   "properties": {
    "name": "18 TAYLORS HILL BOULEVARD TAYLORS HILL 3037",
    "locID": "LOC000107885513",
    "tech": "FTTN",
    "upgrade": "FTTP_SA",
    "gnaf_pid": "GAVIC419725885"
   }
  },
  {
   "type": "Feature",
   "geometry": {
    "type": "Point",
    "coordinates": [
     144.751094,
     -37.708722
    ]
   },
   "properties": {
    "name": "3 THE WALK TAYLORS HILL 3037",
    "locID": "LOC000030190744",
    "tech": "FTTN",
    "upgrade": "FTTP_SA",
    "gnaf_pid": "GAVIC419725887"
   }
  },
  {
   "type": "Feature",
   "geometry": {
    "type": "Point",
    "coordinates": [
     144.759557,
     -37.724764
    ]
   },
   "properties": {
    "name": "1 WATERVALE BOULEVARD TAYLORS HILL 3037",
    "locID": "LOC000005996704",
    "tech": "FTTN",
    "upgrade": "FTTP_SA",
    "gnaf_pid": "GAVIC419726360"
   }
  },
  {
   "type": "Feature",
   "geometry": {
    "type": "Point",
    "coordinates": [
     144.7595,
     -37.72351
    ]
   },
   "properties": {
    "name": "15 WATERVALE BOULEVARD TAYLORS HILL 3037",
    "locID": "LOC000015297107",
    "tech": "FTTN",
    "upgrade": "FTTP_SA",
    "gnaf_pid": "GAVIC419726361"
   }
  },
  {
   "type": "Feature",
   "geometry": {
    "type": "Point",
    "coordinates": [
     144.761217,
     -37.722661
    ]
   },
   "properties": {
    "name": "16 WARANGA WAY TAYLORS HILL 3037",
    "locID": "LOC000048381286",
    "tech": "FTTN",
    "upgrade": "FTTP_SA",
    "gnaf_pid": "GAVIC419726362"
   }
  },
  {
   "type": "Feature",
   "geometry": {
    "type": "Point",
    "coordinates": [
     144.760468,
     -37.722939
    ]
   },
   "properties": {
    "name": "1 SILVAN WALK TAYLORS HILL 3037",
    "locID": "LOC000031008636",
    "tech": "FTTP",
    "upgrade": "FTTN_CT",
    "gnaf_pid": "GAVIC419726364"
   }
  },
  {
   "type": "Feature",
   "geometry": {
    "type": "Point",
    "coordinates": [
     144.7649,
     -37.720954
    ]
   },
   "properties": {
    "name": "28 HOWQUA WAY TAYLORS HILL 3037",
    "locID": "LOC000104549219",
    "tech": "FTTN",
    "upgrade": "FTTP_SA",
    "gnaf_pid": "GAVIC419726917"
   }
  },
  {
   "type": "Feature",
   "geometry": {
    "type": "Point",
    "coordinates": [
     144.763976,
     -37.720854
    ]
   },
   "properties": {
    "name": "18 HOWQUA WAY TAYLORS HILL 3037",
    "locID": "LOC000101409663",
    "tech": "FTTN",
    "upgrade": "FTTP_SA",
    "gnaf_pid": "GAVIC419726918"
   }
  },
  {
   "type": "Feature",
   "geometry": {
    "type": "Point",
    "coordinates": [
     144.764779,
     -37.720096
    ]
   },
   "properties": {
    "name": "3 DARGO PLACE TAYLORS HILL 3037",
    "locID": "LOC000074608148",
    "tech": "FTTN",
    "upgrade": "FTTP_SA",
    "gnaf_pid": "GAVIC419726919"
   }
  },
  {
   "type": "Feature",
   "geometry": {
    "type": "Point",
    "coordinates": [
     144.765187,
     -37.71985
    ]
   },
   "properties": {
    "name": "7 DARGO PLACE TAYLORS HILL 3037",
    "locID": "LOC000085057715",
    "tech": "FTTN",
    "upgrade": "FTTP_SA",
    "gnaf_pid": "GAVIC419726920"
   }
  },
  {
   "type": "Feature",
   "geometry": {
    "type": "Point",
    "coordinates": [
     144.76505,
     -37.720507
    ]
   },
   "properties": {
    "name": "11 DARGO PLACE TAYLORS HILL 3037",
    "locID": "LOC000015179760",
    "tech": "FTTN",
    "upgrade": "FTTP_SA",
    "gnaf_pid": "GAVIC419726921"
   }
  },
  {
   "type": "Feature",
   "geometry": {
    "type": "Point",
    "coordinates": [
     144.752777,
     -37.709561
    ]
   },
   "properties": {
    "name": "5 TREASURY PLACE TAYLORS HILL 3037",
    "locID": "LOC000014798970",
    "tech": "FTTN",
    "upgrade": "FTTP_SA",
    "gnaf_pid": "GAVIC419728045"
   }
  },
  {
   "type": "Feature",
   "geometry": {
    "type": "Point",
    "coordinates": [
     144.753039,
     -37.71073
    ]
   },
   "properties": {
    "name": "12 TREASURY PLACE TAYLORS HILL 3037",
    "locID": "LOC000083511028",
    "tech": "FTTN",
    "upgrade": "FTTP_SA",
    "gnaf_pid": "GAVIC419728047"
   }
  },
  {
   "type": "Feature",
   "geometry": {
    "type": "Point",
    "coordinates": [
     144.752681,
     -37.710776
    ]
   },
   "properties": {
    "name": "13 TREASURY PLACE TAYLORS HILL 3037",
    "locID": "LOC000109133663",
    "tech": "FTTN",
    "upgrade": "FTTP_SA",
    "gnaf_pid": "GAVIC419728048"
   }
  },
  {
   "type": "Feature",
   "geometry": {
    "type": "Point",
    "coordinates": [
     144.752494,
     -37.709944
    ]
   },
   "properties": {
    "name": "18 TREASURY PLACE TAYLORS HILL 3037",
    "locID": "LOC000028441894",
    "tech": "FTTN",
    "upgrade": "FTTP_SA",
    "gnaf_pid": "GAVIC419728049"
   }
  },
  {
   "type": "Feature",
   "geometry": {
    "type": "Point",
    "coordinates": [
     144.75133,
     -37.709576
    ]
   },
   "properties": {
    "name": "15 FLINDERS STREET TAYLORS HILL 3037",
    "locID": "LOC000047402041",
    "tech": "FTTP",
    "upgrade": "NULL_NA",
    "gnaf_pid": "GAVIC419728050"
   }
  },
  {
   "type": "Feature",
   "geometry": {
    "type": "Point",
    "coordinates": [
     144.760193,
     -37.706912
    ]
   },
   "properties": {
    "name": "10 GRAMAN WAY TAYLORS HILL 3037",
    "locID": "LOC000051251996",
    "tech": "FTTN",
    "upgrade": "FTTP_SA",
    "gnaf_pid": "GAVIC419728443"
   }
  },
  {
   "type": "Feature",
   "geometry": {
    "type": "Point",
    "coordinates": [
     144.759055,
     -37.706785
    ]
   },
   "properties": {
    "name": "22 GRAMAN WAY TAYLORS HILL 3037",
    "locID": "LOC000083557035",
    "tech": "FTTN",
    "upgrade": "FTTP_SA",
    "gnaf_pid": "GAVIC419728444"
   }
  },
  {
   "type": "Feature",
   "geometry": {
    "type": "Point",
    "coordinates": [
     144.758483,
     -37.706716
    ]
   },
   "properties": {
    "name": "19 CARLTON COURT TAYLORS HILL 3037",
    "locID": "LOC000080817599",
    "tech": "FTTP",
    "upgrade": "UNKNOWN",
    "gnaf_pid": "GAVIC419728445"
   }
  },
  {
   "type": "Feature",
   "geometry": {
    "type": "Point",
    "coordinates": [
     144.75753,
     -37.706601
    ]
   },
   "properties": {
    "name": "14 CARLTON COURT TAYLORS HILL 3037",
    "locID": "LOC000079051145",
    "tech": "FTTN",
    "upgrade": "FTTP_SA",
    "gnaf_pid": "GAVIC419728446"
   }
  },
  {
   "type": "Feature",
   "geometry": {
    "type": "Point",
    "coordinates": [
     144.756755,
     -37.706502
    ]
   },
   "properties": {
    "name": "10 CARLTON COURT TAYLORS HILL 3037",
    "locID": "LOC000025159558",
    "tech": "FTTP",
    "upgrade": "UNKNOWN",
    "gnaf_pid": "GAVIC419728447"
   }
  },
  {
   "type": "Feature",
   "geometry": {
    "type": "Point",
    "coordinates": [
     144.758759,
     -37.70705
    ]
   },
   "properties": {
    "name": "1 PARKVILLE TERRACE TAYLORS HILL 3037",
    "locID": "LOC000101042826",
    "tech": "FTTN",
    "upgrade": "FTTP_SA",
    "gnaf_pid": "GAVIC419728448"
   }
  },
  {
   "type": "Feature",
   "geometry": {
    "type": "Point",
    "coordinates": [
     144.759261,
     -37.707299
    ]
   },
   "properties": {
    "name": "11 BRIGHTON PLACE TAYLORS HILL 3037",
    "locID": "LOC000109036974",
    "tech": "FTTN",
    "upgrade": "FTTP_SA",
    "gnaf_pid": "GAVIC419728449"
   }
  },
  {
   "type": "Feature",
   "geometry": {
    "type": "Point",
    "coordinates": [
     144.760423,
     -37.707824
    ]
   },
   "properties": {
    "name": "5 BURNLEY GROVE TAYLORS HILL 3037",
    "locID": "LOC000062178755",
    "tech": "FTTN",
    "upgrade": "FTTP_SA",
    "gnaf_pid": "GAVIC419728451"
   }
  },
  {
   "type": "Feature",
   "geometry": {
    "type": "Point",
    "coordinates": [
     144.757716,
     -37.723248
    ]
   },
   "properties": {
    "name": "4 LOCKIE PLACE TAYLORS HILL 3037",
    "locID": "LOC000002074790",
    "tech": "FTTN",
    "upgrade": "FTTP_SA",
    "gnaf_pid": "GAVIC419729246"
   }
  },
  {
   "type": "Feature",
   "geometry": {
    "type": "Point",
    "coordinates": [
     144.761451,
     -37.720568
    ]
   },
   "properties": {
    "name": "20 NICHOLSON TERRACE TAYLORS HILL 3037",
    "locID": "LOC000107569342",
    "tech": "FTTN",
    "upgrade": "FTTP_SA",
    "gnaf_pid": "GAVIC419730428"
   }
  },
  {
   "type": "Feature",
   "geometry": {
    "type": "Point",
    "coordinates": [
     144.762836,
     -37.720317
    ]
   },
   "properties": {
    "name": "32 NICHOLSON TERRACE TAYLORS HILL 3037",
    "locID": "LOC000021114298",
    "tech": "FTTN",
    "upgrade": "FTTP_SA",
    "gnaf_pid": "GAVIC419730429"
   }
  },
  {
   "type": "Feature",
   "geometry": {
    "type": "Point",
    "coordinates": [
     144.763198,
     -37.719553
    ]
   },
   "properties": {
    "name": "42 NICHOLSON TERRACE TAYLORS HILL 3037",
    "locID": "LOC000103373477",
    "tech": "FTTN",
    "upgrade": "FTTP_SA",
    "gnaf_pid": "GAVIC419730430"
   }
  },
  {
   "type": "Feature",
   "geometry": {
    "type": "Point",
    "coordinates": [
     144.764119,
     -37.720568
    ]
   },
   "properties": {
    "name": "11 HOWQUA WAY TAYLORS HILL 3037",
    "locID": "LOC000005280383",
    "tech": "FTTN",
    "upgrade": "FTTP_SA",
    "gnaf_pid": "GAVIC419730431"
   }
  },
  {
   "type": "Feature",
   "geometry": {
    "type": "Point",
    "coordinates": [
     144.764298,
     -37.720591
    ]
   },
   "properties": {
    "name": "13 HOWQUA WAY TAYLORS HILL 3037",
    "locID": "LOC000088807797",
    "tech": "FTTN",
    "upgrade": "FTTP_SA",
    "gnaf_pid": "GAVIC419730432"
   }
  },
  {
   "type": "Feature",
   "geometry": {
    "type": "Point",
    "coordinates": [
     144.759182,
     -37.72235
    ]
   },
   "properties": {
    "name": "27 WATERVALE BOULEVARD TAYLORS HILL 3037",
    "locID": "LOC000057319066",
    "tech": "FTTP",
    "upgrade": "UNKNOWN",
    "gnaf_pid": "GAVIC419731782"
   }
  },
  {
   "type": "Feature",
   "geometry": {
    "type": "Point",
    "coordinates": [
     144.760264,
     -37.720076
    ]
   },
   "properties": {
    "name": "13 NICHOLSON TERRACE TAYLORS HILL 3037",
    "locID": "LOC000102306612",
    "tech": "FTTP",
    "upgrade": "UNKNOWN",
    "gnaf_pid": "GAVIC419731783"
   }
  },
  {
   "type": "Feature",
   "geometry": {
    "type": "Point",
    "coordinates": [
     144.75463,
     -37.706241
    ]
   },
   "properties": {
    "name": "2 SOUTHBANK WALK TAYLORS HILL 3037",
    "locID": "LOC000050703812",
    "tech": "FTTN",
    "upgrade": "FTTP_SA",
    "gnaf_pid": "GAVIC419731873"
   }
  },
  {
   "type": "Feature",
   "geometry": {
    "type": "Point",
    "coordinates": [
     144.755367,
     -37.70633
    ]
   },
   "properties": {
    "name": "6 SOUTHBANK WALK TAYLORS HILL 3037",
    "locID": "LOC000030898366",
    "tech": "FTTN",
    "upgrade": "FTTP_SA",
    "gnaf_pid": "GAVIC419731874"
   }
  },
  {
   "type": "Feature",
   "geometry": {
    "type": "Point",
    "coordinates": [
     144.755554,
     -37.706353
    ]
   },
   "properties": {
    "name": "7 SOUTHBANK WALK TAYLORS HILL 3037",
    "locID": "LOC000021041940",
    "tech": "FTTP",
    "upgrade": "UNKNOWN",
    "gnaf_pid": "GAVIC419731875"
   }
  },
  {
   "type": "Feature",
   "geometry": {
    "type": "Point",
    "coordinates": [
     144.756075,
     -37.706425
    ]
   },
   "properties": {
    "name": "10 SOUTHBANK WALK TAYLORS HILL 3037",
    "locID": "LOC000006212583",
    "tech": "FTTN",
    "upgrade": "FTTP_SA",
    "gnaf_pid": "GAVIC419731876"
   }
  },
  {
   "type": "Feature",
   "geometry": {
    "type": "Point",
    "coordinates": [
     144.755247,
     -37.706598
    ]
   },
   "properties": {
    "name": "14 SOUTHBANK WALK TAYLORS HILL 3037",
    "locID": "LOC000013868880",
    "tech": "FTTN",
    "upgrade": "FTTP_SA",
    "gnaf_pid": "GAVIC419731877"
   }
  },
  {
   "type": "Feature",
   "geometry": {
    "type": "Point",
    "coordinates": [
     144.754833,
     -37.706548
    ]
   },
   "properties": {
    "name": "15 SOUTHBANK WALK TAYLORS HILL 3037",
    "locID": "LOC000021042897",
    "tech": "FTTP",
    "upgrade": "UNKNOWN",
    "gnaf_pid": "GAVIC419731878"
   }
  },
  {
   "type": "Feature",
   "geometry": {
    "type": "Point",
    "coordinates": [
     144.754259,
     -37.706478
    ]
   },
   "properties": {
    "name": "18 SOUTHBANK WALK TAYLORS HILL 3037",
    "locID": "LOC000099980974",
    "tech": "FTTN",
    "upgrade": "FTTP_SA",
    "gnaf_pid": "GAVIC419731879"
   }
  },
  {
   "type": "Feature",
   "geometry": {
    "type": "Point",
    "coordinates": [
     144.754541,
     -37.709722
    ]
   },
   "properties": {
    "name": "4 BANK PLACE TAYLORS HILL 3037",
    "locID": "LOC000109072071",
    "tech": "FTTN",
    "upgrade": "FTTP_SA",
    "gnaf_pid": "GAVIC419732379"
   }
  },
  {
   "type": "Feature",
   "geometry": {
    "type": "Point",
    "coordinates": [
     144.754577,
     -37.709882
    ]
   },
   "properties": {
    "name": "3 BANK PLACE TAYLORS HILL 3037",
    "locID": "LOC000025242689",
    "tech": "FTTP",
    "upgrade": "UNKNOWN",
    "gnaf_pid": "GAVIC419732380"
   }
  },
  {
   "type": "Feature",
   "geometry": {
    "type": "Point",
    "coordinates": [
     144.758554,
     -37.719135
    ]
   },
   "properties": {
    "name": "63 WATERVALE BOULEVARD TAYLORS HILL 3037",
    "locID": "LOC000073884436",
    "tech": "FTTN",
    "upgrade": "FTTP_SA",
    "gnaf_pid": "GAVIC419734804"
   }
  },
  {
   "type": "Feature",
   "geometry": {
    "type": "Point",
    "coordinates": [
     144.758581,
     -37.718791
    ]
   },
   "properties": {
    "name": "67 WATERVALE BOULEVARD TAYLORS HILL 3037",
    "locID": "LOC000004321937",
    "tech": "FTTP",
    "upgrade": "UNKNOWN",
    "gnaf_pid": "GAVIC419734805"
   }
  },
  {
   "type": "Feature",
   "geometry": {
    "type": "Point",
    "coordinates": [
     144.758221,
     -37.717806
    ]
   },
   "properties": {
    "name": "2 AVOCA PLACE TAYLORS HILL 3037",
    "locID": "LOC000077200059",
    "tech": "FTTN",
    "upgrade": "FTTP_SA",
    "gnaf_pid": "GAVIC419734806"
   }
  },
  {
   "type": "Feature",
   "geometry": {
    "type": "Point",
    "coordinates": [
     144.757776,
     -37.717764
    ]
   },
   "properties": {
    "name": "4 AVOCA PLACE TAYLORS HILL 3037",
    "locID": "LOC000010204199",
    "tech": "FTTN",
    "upgrade": "FTTP_SA",
    "gnaf_pid": "GAVIC419734807"
   }
  },
  {
   "type": "Feature",
   "geometry": {
    "type": "Point",
    "coordinates": [
     144.760034,
     -37.718721
    ]
   },
   "properties": {
    "name": "8 CARDINIA CRESCENT TAYLORS HILL 3037",
    "locID": "LOC000022725473",
    "tech": "FTTN",
    "upgrade": "FTTP_SA",
    "gnaf_pid": "GAVIC419734808"
   }
  },
  {
   "type": "Feature",
   "geometry": {
    "type": "Point",
    "coordinates": [
     144.753499,
     -37.709799
    ]
   },
   "properties": {
    "name": "15 LATROBE TERRACE TAYLORS HILL 3037",
    "locID": "LOC000076961557",
    "tech": "FTTP",
    "upgrade": "FTTN_CT",
    "gnaf_pid": "GAVIC419735049"
   }
  },
  {
   "type": "Feature",
   "geometry": {
    "type": "Point",
    "coordinates": [
     144.762177,
     -37.717095
    ]
   },
   "properties": {
    "name": "24 LODDON DRIVE TAYLORS HILL 3037",
    "locID": "LOC000036147375",
    "tech": "FTTN",
    "upgrade": "FTTP_SA",
    "gnaf_pid": "GAVIC419737796"
   }
  },
  {
   "type": "Feature",
   "geometry": {
    "type": "Point",
    "coordinates": [
     144.76159,
     -37.717032
    ]
   },
   "properties": {
    "name": "30 LODDON DRIVE TAYLORS HILL 3037",
    "locID": "LOC000091056666",
    "tech": "FTTN",
    "upgrade": "FTTP_SA",
    "gnaf_pid": "GAVIC419737797"
   }
  },
  {
   "type": "Feature",
   "geometry": {
    "type": "Point",
    "coordinates": [
     144.762486,
     -37.716618
    ]
   },
   "properties": {
    "name": "3 GLENELG BOULEVARD TAYLORS HILL 3037",
    "locID": "LOC000040601214",
    "tech": "FTTN",
    "upgrade": "FTTP_SA",
    "gnaf_pid": "GAVIC419737799"
   }
  },
  {
   "type": "Feature",
   "geometry": {
    "type": "Point",
    "coordinates": [
     144.747386,
     -37.709313
    ]
   },
   "properties": {
    "name": "1 FLAGSTAFF LANE TAYLORS HILL 3037",
    "locID": "LOC000084961819",
    "tech": "FTTP",
    "upgrade": "UNKNOWN",
    "gnaf_pid": "GAVIC419739137"
   }
  },
  {
   "type": "Feature",
   "geometry": {
    "type": "Point",
    "coordinates": [
     144.747258,
     -37.709643
    ]
   },
   "properties": {
    "name": "12 UNIVERSITY DRIVE TAYLORS HILL 3037",
    "locID": "LOC000073156963",
    "tech": "FTTN",
    "upgrade": "FTTP_SA",
    "gnaf_pid": "GAVIC419739138"
   }
  },
  {
   "type": "Feature",
   "geometry": {
    "type": "Point",
    "coordinates": [
     144.749047,
     -37.709469
    ]
   },
   "properties": {
    "name": "20 CHURCH AVENUE TAYLORS HILL 3037",
    "locID": "LOC000083470857",
    "tech": "FTTN",
    "upgrade": "FTTP_SA",
    "gnaf_pid": "GAVIC419739139"
   }
  },
  {
   "type": "Feature",
   "geometry": {
    "type": "Point",
    "coordinates": [
     144.748475,
     -37.709087
    ]
   },
   "properties": {
    "name": "13 COLLINS STREET TAYLORS HILL 3037",
    "locID": "LOC000043176520",
    "tech": "FTTP",
    "upgrade": "UNKNOWN",
    "gnaf_pid": "GAVIC419739141"
   }
  },
  {
   "type": "Feature",
   "geometry": {
    "type": "Point",
    "coordinates": [
     144.748687,
     -37.7104
    ]
   },
   "properties": {
    "name": "4 COLLINS STREET TAYLORS HILL 3037",
    "locID": "LOC000048431351",
    "tech": "FTTN",
    "upgrade": "FTTP_SA",
    "gnaf_pid": "GAVIC419739142"
   }
  },
  {
   "type": "Feature",
   "geometry": {
    "type": "Point",
    "coordinates": [
     144.748948,
     -37.708799
    ]
   },
   "properties": {
    "name": "20 COLLINS STREET TAYLORS HILL 3037",
    "locID": "LOC000003953954",
    "tech": "FTTN",
    "upgrade": "FTTP_SA",
    "gnaf_pid": "GAVIC419739143"
   }
  },
  {
   "type": "Feature",
   "geometry": {
    "type": "Point",
    "coordinates": [
     144.758705,
     -37.717084
    ]
   },
   "properties": {
    "name": "85 WATERVALE BOULEVARD TAYLORS HILL 3037",
    "locID": "LOC000041943346",
    "tech": "FTTN",
    "upgrade": "FTTP_SA",
    "gnaf_pid": "GAVIC419739149"
   }
  },
  {
   "type": "Feature",
   "geometry": {
    "type": "Point",
    "coordinates": [
     144.759724,
     -37.717148
    ]
   },
   "properties": {
    "name": "47 LODDON DRIVE TAYLORS HILL 3037",
    "locID": "LOC000077017689",
    "tech": "FTTN",
    "upgrade": "FTTP_SA",
    "gnaf_pid": "GAVIC419739150"
   }
  },
  {
   "type": "Feature",
   "geometry": {
    "type": "Point",
    "coordinates": [
     144.747991,
     -37.708069
    ]
   },
   "properties": {
    "name": "11 FLAGSTAFF LANE TAYLORS HILL 3037",
    "locID": "LOC000074942074",
    "tech": "FTTN",
    "upgrade": "FTTP_SA",
    "gnaf_pid": "GAVIC419741793"
   }
  },
  {
   "type": "Feature",
   "geometry": {
    "type": "Point",
    "coordinates": [
     144.760583,
     -37.717247
    ]
   },
   "properties": {
    "name": "39 LODDON DRIVE TAYLORS HILL 3037",
    "locID": "LOC000092010144",
    "tech": "FTTN",
    "upgrade": "FTTP_SA",
    "gnaf_pid": "GAVIC419741813"
   }
  },
  {
   "type": "Feature",
   "geometry": {
    "type": "Point",
    "coordinates": [
     144.760797,
     -37.717267
    ]
   },
   "properties": {
    "name": "37 LODDON DRIVE TAYLORS HILL 3037",
    "locID": "LOC000071432743",
    "tech": "FTTN",
    "upgrade": "FTTP_SA",
    "gnaf_pid": "GAVIC419741814"
   }
  },
  {
   "type": "Feature",
   "geometry": {
    "type": "Point",
    "coordinates": [
     144.761432,
     -37.717337
    ]
   },
   "properties": {
    "name": "31 LODDON DRIVE TAYLORS HILL 3037",
    "locID": "LOC000058082745",
    "tech": "FTTN",
    "upgrade": "FTTP_SA",
    "gnaf_pid": "GAVIC419741815"
   }
  },
  {
   "type": "Feature",
   "geometry": {
    "type": "Point",
    "coordinates": [
     144.749878,
     -37.709437
    ]
   },
   "properties": {
    "name": "22 SWANSTON COURT TAYLORS HILL 3037",
    "locID": "LOC000026218304",
    "tech": "FTTN",
    "upgrade": "FTTP_SA",
    "gnaf_pid": "GAVIC419742854"
   }
  },
  {
   "type": "Feature",
   "geometry": {
    "type": "Point",
    "coordinates": [
     144.750026,
     -37.709981
    ]
   },
   "properties": {
    "name": "12 CHURCH AVENUE TAYLORS HILL 3037",
    "locID": "LOC000067110528",
    "tech": "FTTN",
    "upgrade": "FTTP_SA",
    "gnaf_pid": "GAVIC419742855"
   }
  },
  {
   "type": "Feature",
   "geometry": {
    "type": "Point",
    "coordinates": [
     144.750574,
     -37.709138
    ]
   },
   "properties": {
    "name": "3 THE CAUSEWAY TAYLORS HILL 3037",
    "locID": "LOC000106298879",
    "tech": "FTTN",
    "upgrade": "FTTP_SA",
    "gnaf_pid": "GAVIC419742856"
   }
  },
  {
   "type": "Feature",
   "geometry": {
    "type": "Point",
    "coordinates": [
     144.749263,
     -37.710676
    ]
   },
   "properties": {
    "name": "4 HIGHLANDER COURT TAYLORS HILL 3037",
    "locID": "LOC000015655053",
    "tech": "FTTN",
    "upgrade": "FTTP_SA",
    "gnaf_pid": "GAVIC419742857"
   }
  },
  {
   "type": "Feature",
   "geometry": {
    "type": "Point",
    "coordinates": [
     144.750452,
     -37.708657
    ]
   },
   "properties": {
    "name": "17 SWANSTON COURT TAYLORS HILL 3037",
    "locID": "LOC000027835483",
    "tech": "FTTN",
    "upgrade": "FTTP_SA",
    "gnaf_pid": "GAVIC419742940"
   }
  },
  {
   "type": "Feature",
   "geometry": {
    "type": "Point",
    "coordinates": [
     144.750455,
     -37.707861
    ]
   },
   "properties": {
    "name": "23 TAYLORS HILL BOULEVARD TAYLORS HILL 3037",
    "locID": "LOC000050541146",
    "tech": "FTTN",
    "upgrade": "FTTP_SA",
    "gnaf_pid": "GAVIC419742941"
   }
  },
  {
   "type": "Feature",
   "geometry": {
    "type": "Point",
    "coordinates": [
     144.749819,
     -37.707777
    ]
   },
   "properties": {
    "name": "29 TAYLORS HILL BOULEVARD TAYLORS HILL 3037",
    "locID": "LOC000101771821",
    "tech": "FTTN",
    "upgrade": "FTTP_SA",
    "gnaf_pid": "GAVIC419742942"
   }
  },
  {
   "type": "Feature",
   "geometry": {
    "type": "Point",
    "coordinates": [
     144.764617,
     -37.715717
    ]
   },
   "properties": {
    "name": "49 JAMIESON TERRACE TAYLORS HILL 3037",
    "locID": "LOC000036068813",
    "tech": "FTTP",
    "upgrade": "UNKNOWN",
    "gnaf_pid": "GAVIC419743085"
   }
  },
  {
   "type": "Feature",
   "geometry": {
    "type": "Point",
    "coordinates": [
     144.764903,
     -37.717733
    ]
   },
   "properties": {
    "name": "3 LODDON DRIVE TAYLORS HILL 3037",
    "locID": "LOC000066384656",
    "tech": "FTTN",
    "upgrade": "FTTP_SA",
    "gnaf_pid": "GAVIC419743086"
   }
  },
  {
   "type": "Feature",
   "geometry": {
    "type": "Point",
    "coordinates": [
     144.76486,
     -37.717074
    ]
   },
   "properties": {
    "name": "14 COORONG COURT TAYLORS HILL 3037",
    "locID": "LOC000097341639",
    "tech": "FTTN",
    "upgrade": "FTTP_SA",
    "gnaf_pid": "GAVIC419743087"
   }
  },
  {
   "type": "Feature",
   "geometry": {
    "type": "Point",
    "coordinates": [
     144.765074,
     -37.716313
    ]
   },
   "properties": {
    "name": "9 COORONG COURT TAYLORS HILL 3037",
    "locID": "LOC000050824231",
    "tech": "FTTN",
    "upgrade": "FTTP_SA",
    "gnaf_pid": "GAVIC419743769"
   }
  },
  {
   "type": "Feature",
   "geometry": {
    "type": "Point",
    "coordinates": [
     144.749183,
     -37.707701
    ]
   },
   "properties": {
    "name": "35 TAYLORS HILL BOULEVARD TAYLORS HILL 3037",
    "locID": "LOC000058105878",
    "tech": "FTTN",
    "upgrade": "FTTP_SA",
    "gnaf_pid": "GAVIC419745607"
   }
  },
  {
   "type": "Feature",
   "geometry": {
    "type": "Point",
    "coordinates": [
     144.748725,
     -37.70765
    ]
   },
   "properties": {
    "name": "37 TAYLORS HILL BOULEVARD TAYLORS HILL 3037",
    "locID": "LOC000030245081",
    "tech": "FTTN",
    "upgrade": "FTTP_SA",
    "gnaf_pid": "GAVIC419745608"
   }
  },
  {
   "type": "Feature",
   "geometry": {
    "type": "Point",
    "coordinates": [
     144.749231,
     -37.707373
    ]
   },
   "properties": {
    "name": "52 TAYLORS HILL BOULEVARD TAYLORS HILL 3037",
    "locID": "LOC000090891864",
    "tech": "FTTN",
    "upgrade": "FTTP_SA",
    "gnaf_pid": "GAVIC419745609"
   }
  },
  {
   "type": "Feature",
   "geometry": {
    "type": "Point",
    "coordinates": [
     144.764077,
     -37.716253
    ]
   },
   "properties": {
    "name": "7 CLYDE CLOSE TAYLORS HILL 3037",
    "locID": "LOC000047251489",
    "tech": "FTTN",
    "upgrade": "FTTP_SA",
    "gnaf_pid": "GAVIC419749257"
   }
  },
  {
   "type": "Feature",
   "geometry": {
    "type": "Point",
    "coordinates": [
     144.764162,
     -37.71576
    ]
   },
   "properties": {
    "name": "2 CLYDE CLOSE TAYLORS HILL 3037",
    "locID": "LOC000062655528",
    "tech": "FTTN",
    "upgrade": "FTTP_SA",
    "gnaf_pid": "GAVIC419749258"
   }
  },
  {
   "type": "Feature",
   "geometry": {
    "type": "Point",
    "coordinates": [
     144.76451,
     -37.715405
    ]
   },
   "properties": {
    "name": "70 JAMIESON TERRACE TAYLORS HILL 3037",
    "locID": "LOC000030189537",
    "tech": "FTTN",
    "upgrade": "FTTP_SA",
    "gnaf_pid": "GAVIC419749259"
   }
  },
  {
   "type": "Feature",
   "geometry": {
    "type": "Point",
    "coordinates": [
     144.764309,
     -37.715386
    ]
   },
   "properties": {
    "name": "72 JAMIESON TERRACE TAYLORS HILL 3037",
    "locID": "LOC000054925584",
    "tech": "FTTN",
    "upgrade": "FTTP_SA",
    "gnaf_pid": "GAVIC419749260"
   }
  },
  {
   "type": "Feature",
   "geometry": {
    "type": "Point",
    "coordinates": [
     144.761338,
     -37.715354
    ]
   },
   "properties": {
    "name": "11 COOKS WAY TAYLORS HILL 3037",
    "locID": "LOC000086392555",
    "tech": "FTTN",
    "upgrade": "FTTP_SA",
    "gnaf_pid": "GAVIC419749261"
   }
  },
  {
   "type": "Feature",
   "geometry": {
    "type": "Point",
    "coordinates": [
     144.761311,
     -37.715519
    ]
   },
   "properties": {
    "name": "9 COOKS WAY TAYLORS HILL 3037",
    "locID": "LOC000076837650",
    "tech": "FTTN",
    "upgrade": "FTTP_SA",
    "gnaf_pid": "GAVIC419749262"
   }
  },
  {
   "type": "Feature",
   "geometry": {
    "type": "Point",
    "coordinates": [
     144.761282,
     -37.715685
    ]
   },
   "properties": {
    "name": "7 COOKS WAY TAYLORS HILL 3037",
    "locID": "LOC000050818497",
    "tech": "FTTN",
    "upgrade": "FTTP_SA",
    "gnaf_pid": "GAVIC419749263"
   }
  },
  {
   "type": "Feature",
   "geometry": {
    "type": "Point",
    "coordinates": [
     144.761253,
     -37.715848
    ]
   },
   "properties": {
    "name": "5 COOKS WAY TAYLORS HILL 3037",
    "locID": "LOC000041289814",
    "tech": "FTTN",
    "upgrade": "FTTP_SA",
    "gnaf_pid": "GAVIC419749264"
   }
  },
  {
   "type": "Feature",
   "geometry": {
    "type": "Point",
    "coordinates": [
     144.757139,
     -37.716966
    ]
   },
   "properties": {
    "name": "65 LODDON DRIVE TAYLORS HILL 3037",
    "locID": "LOC000101957160",
    "tech": "FTTN",
    "upgrade": "FTTP_SA",
    "gnaf_pid": "GAVIC419750451"
   }
  },
  {
   "type": "Feature",
   "geometry": {
    "type": "Point",
    "coordinates": [
     144.756755,
     -37.716947
    ]
   },
   "properties": {
    "name": "69 LODDON DRIVE TAYLORS HILL 3037",
    "locID": "LOC000040650021",
    "tech": "FTTN",
    "upgrade": "FTTP_SA",
    "gnaf_pid": "GAVIC419750452"
   }
  },
  {
   "type": "Feature",
   "geometry": {
    "type": "Point",
    "coordinates": [
     144.757763,
     -37.716116
    ]
   },
   "properties": {
    "name": "3 ELM TREE CLOSE TAYLORS HILL 3037",
    "locID": "LOC000082554140",
    "tech": "FTTN",
    "upgrade": "FTTP_SA",
    "gnaf_pid": "GAVIC419750455"
   }
  },
  {
   "type": "Feature",
   "geometry": {
    "type": "Point",
    "coordinates": [
     144.74370968,
     -37.70869536
    ]
   },
   "properties": {
    "name": "6 DOMAIN WAY TAYLORS HILL 3037",
    "locID": "LOC000062324571",
    "tech": "FTTN",
    "upgrade": "FTTP_SA",
    "gnaf_pid": "GAVIC419750964"
   }
  },
  {
   "type": "Feature",
   "geometry": {
    "type": "Point",
    "coordinates": [
     144.74346088,
     -37.71002378
    ]
   },
   "properties": {
    "name": "15 DOMAIN WAY TAYLORS HILL 3037",
    "locID": "LOC000085265876",
    "tech": "FTTP",
    "upgrade": "NULL_NA",
    "gnaf_pid": "GAVIC419750965"
   }
  },
  {
   "type": "Feature",
   "geometry": {
    "type": "Point",
    "coordinates": [
     144.74105755,
     -37.70973904
    ]
   },
   "properties": {
    "name": "39 DOMAIN WAY TAYLORS HILL 3037",
    "locID": "LOC000041141975",
    "tech": "FTTP",
    "upgrade": "UNKNOWN",
    "gnaf_pid": "GAVIC419750966"
   }
  },
  {
   "type": "Feature",
   "geometry": {
    "type": "Point",
    "coordinates": [
     144.7424643,
     -37.7096177
    ]
   },
   "properties": {
    "name": "22 DOMAIN WAY TAYLORS HILL 3037",
    "locID": "LOC000069956854",
    "tech": "FTTN",
    "upgrade": "FTTP_SA",
    "gnaf_pid": "GAVIC419750968"
   }
  },
  {
   "type": "Feature",
   "geometry": {
    "type": "Point",
    "coordinates": [
     144.766623,
     -37.712758
    ]
   },
   "properties": {
    "name": "47 JINDABYNE AVENUE TAYLORS HILL 3037",
    "locID": "LOC000054256843",
    "tech": "FTTN",
    "upgrade": "FTTP_SA",
    "gnaf_pid": "GAVIC419751277"
   }
  },
  {
   "type": "Feature",
   "geometry": {
    "type": "Point",
    "coordinates": [
     144.764927,
     -37.712931
    ]
   },
   "properties": {
    "name": "28 THE GLADES TAYLORS HILL 3037",
    "locID": "LOC000092674455",
    "tech": "FTTN",
    "upgrade": "FTTP_SA",
    "gnaf_pid": "GAVIC419751304"
   }
  },
  {
   "type": "Feature",
   "geometry": {
    "type": "Point",
    "coordinates": [
     144.765196,
     -37.713111
    ]
   },
   "properties": {
    "name": "51 THE GLADES TAYLORS HILL 3037",
    "locID": "LOC000041573766",
    "tech": "FTTP",
    "upgrade": "NULL_NA",
    "gnaf_pid": "GAVIC419751305"
   }
  },
  {
   "type": "Feature",
   "geometry": {
    "type": "Point",
    "coordinates": [
     144.7646,
     -37.712888
    ]
   },
   "properties": {
    "name": "4 THE GLADES TAYLORS HILL 3037",
    "locID": "LOC000054136186",
    "tech": "FTTN",
    "upgrade": "FTTP_SA",
    "gnaf_pid": "GAVIC419751306"
   }
  },
  {
   "type": "Feature",
   "geometry": {
    "type": "Point",
    "coordinates": [
     144.764208,
     -37.713277
    ]
   },
   "properties": {
    "name": "75 THE GLADES TAYLORS HILL 3037",
    "locID": "LOC000038822387",
    "tech": "FTTP",
    "upgrade": "NULL_NA",
    "gnaf_pid": "GAVIC419751307"
   }
  },
  {
   "type": "Feature",
   "geometry": {
    "type": "Point",
    "coordinates": [
     144.764194,
     -37.713356
    ]
   },
   "properties": {
    "name": "73 THE GLADES TAYLORS HILL 3037",
    "locID": "LOC000013869829",
    "tech": "FTTN",
    "upgrade": "FTTP_SA",
    "gnaf_pid": "GAVIC419751308"
   }
  },
  {
   "type": "Feature",
   "geometry": {
    "type": "Point",
    "coordinates": [
     144.757805,
     -37.715914
    ]
   },
   "properties": {
    "name": "4 ELM TREE CLOSE TAYLORS HILL 3037",
    "locID": "LOC000012840700",
    "tech": "FTTN",
    "upgrade": "FTTP_SA",
    "gnaf_pid": "GAVIC419751327"
   }
  },
  {
   "type": "Feature",
   "geometry": {
    "type": "Point",
    "coordinates": [
     144.758154,
     -37.715964
    ]
   },
   "properties": {
    "name": "5 ELM TREE CLOSE TAYLORS HILL 3037",
    "locID": "LOC000010185573",
    "tech": "FTTN",
    "upgrade": "FTTP_SA",
    "gnaf_pid": "GAVIC419751328"
   }
  },
  {
   "type": "Feature",
   "geometry": {
    "type": "Point",
    "coordinates": [
     144.765928,
     -37.711545
    ]
   },
   "properties": {
    "name": "70 JINDABYNE AVENUE TAYLORS HILL 3037",
    "locID": "LOC000075170413",
    "tech": "FTTN",
    "upgrade": "FTTP_SA",
    "gnaf_pid": "GAVIC419751433"
   }
  },
  {
   "type": "Feature",
   "geometry": {
    "type": "Point",
    "coordinates": [
     144.74158274,
     -37.70804605
    ]
   },
   "properties": {
    "name": "72 DOMAIN WAY TAYLORS HILL 3037",
    "locID": "LOC000009305072",
    "tech": "FTTN",
    "upgrade": "FTTP_SA",
    "gnaf_pid": "GAVIC419751735"
   }
  },
  {
   "type": "Feature",
   "geometry": {
    "type": "Point",
    "coordinates": [
     144.766339,
     -37.713824
    ]
   },
   "properties": {
    "name": "35 JINDABYNE AVENUE TAYLORS HILL 3037",
    "locID": "LOC000015995431",
    "tech": "FTTN",
    "upgrade": "FTTP_SA",
    "gnaf_pid": "GAVIC419751877"
   }
  },
  {
   "type": "Feature",
   "geometry": {
    "type": "Point",
    "coordinates": [
     144.765559,
     -37.713899
    ]
   },
   "properties": {
    "name": "27 JINDABYNE AVENUE TAYLORS HILL 3037",
    "locID": "LOC000076387828",
    "tech": "FTTN",
    "upgrade": "FTTP_SA",
    "gnaf_pid": "GAVIC419751878"
   }
  },
  {
   "type": "Feature",
   "geometry": {
    "type": "Point",
    "coordinates": [
     144.765008,
     -37.71384
    ]
   },
   "properties": {
    "name": "21 JINDABYNE AVENUE TAYLORS HILL 3037",
    "locID": "LOC000061789449",
    "tech": "FTTN",
    "upgrade": "FTTP_SA",
    "gnaf_pid": "GAVIC419751879"
   }
  },
  {
   "type": "Feature",
   "geometry": {
    "type": "Point",
    "coordinates": [
     144.764636,
     -37.713798
    ]
   },
   "properties": {
    "name": "17 JINDABYNE AVENUE TAYLORS HILL 3037",
    "locID": "LOC000052044348",
    "tech": "FTTN",
    "upgrade": "FTTP_SA",
    "gnaf_pid": "GAVIC419751880"
   }
  },
  {
   "type": "Feature",
   "geometry": {
    "type": "Point",
    "coordinates": [
     144.766851,
     -37.7134
    ]
   },
   "properties": {
    "name": "42 JINDABYNE AVENUE TAYLORS HILL 3037",
    "locID": "LOC000040012912",
    "tech": "FTTN",
    "upgrade": "FTTP_SA",
    "gnaf_pid": "GAVIC419751881"
   }
  },
  {
   "type": "Feature",
   "geometry": {
    "type": "Point",
    "coordinates": [
     144.765383,
     -37.713388
    ]
   },
   "properties": {
    "name": "5 GEORGES COURT TAYLORS HILL 3037",
    "locID": "LOC000085537441",
    "tech": "FTTN",
    "upgrade": "FTTP_SA",
    "gnaf_pid": "GAVIC419751882"
   }
  },
  {
   "type": "Feature",
   "geometry": {
    "type": "Point",
    "coordinates": [
     144.76602,
     -37.713463
    ]
   },
   "properties": {
    "name": "2 GEORGES COURT TAYLORS HILL 3037",
    "locID": "LOC000065637156",
    "tech": "FTTN",
    "upgrade": "FTTP_SA",
    "gnaf_pid": "GAVIC419751883"
   }
  },
  {
   "type": "Feature",
   "geometry": {
    "type": "Point",
    "coordinates": [
     144.764341,
     -37.712611
    ]
   },
   "properties": {
    "name": "11 THE GLADES TAYLORS HILL 3037",
    "locID": "LOC000031907217",
    "tech": "FTTN",
    "upgrade": "FTTP_SA",
    "gnaf_pid": "GAVIC419752360"
   }
  },
  {
   "type": "Feature",
   "geometry": {
    "type": "Point",
    "coordinates": [
     144.764677,
     -37.712149
    ]
   },
   "properties": {
    "name": "25 THE GLADES TAYLORS HILL 3037",
    "locID": "LOC000039325826",
    "tech": "FTTN",
    "upgrade": "FTTP_SA",
    "gnaf_pid": "GAVIC419752361"
   }
  },
  {
   "type": "Feature",
   "geometry": {
    "type": "Point",
    "coordinates": [
     144.742793,
     -37.70729
    ]
   },
   "properties": {
    "name": "112 TAYLORS HILL BOULEVARD TAYLORS HILL 3037",
    "locID": "LOC000090984411",
    "tech": "FTTP",
    "upgrade": "UNKNOWN",
    "gnaf_pid": "GAVIC419752830"
   }
  },
  {
   "type": "Feature",
   "geometry": {
    "type": "Point",
    "coordinates": [
     144.742914,
     -37.706769
    ]
   },
   "properties": {
    "name": "5 CHAPEL STREET TAYLORS HILL 3037",
    "locID": "LOC000032845326",
    "tech": "FTTN",
    "upgrade": "FTTP_SA",
    "gnaf_pid": "GAVIC419752831"
   }
  },
  {
   "type": "Feature",
   "geometry": {
    "type": "Point",
    "coordinates": [
     144.763411,
     -37.714792
    ]
   },
   "properties": {
    "name": "18 GLENELG BOULEVARD TAYLORS HILL 3037",
    "locID": "LOC000063146078",
    "tech": "FTTN",
    "upgrade": "FTTP_SA",
    "gnaf_pid": "GAVIC419753392"
   }
  },
  {
   "type": "Feature",
   "geometry": {
    "type": "Point",
    "coordinates": [
     144.76328,
     -37.71358
    ]
   },
   "properties": {
    "name": "37 GLENELG BOULEVARD TAYLORS HILL 3037",
    "locID": "LOC000045828856",
    "tech": "FTTN",
    "upgrade": "FTTP_SA",
    "gnaf_pid": "GAVIC419753393"
   }
  },
  {
   "type": "Feature",
   "geometry": {
    "type": "Point",
    "coordinates": [
     144.7633,
     -37.713045
    ]
   },
   "properties": {
    "name": "43 GLENELG BOULEVARD TAYLORS HILL 3037",
    "locID": "LOC000077047396",
    "tech": "FTTN",
    "upgrade": "FTTP_SA",
    "gnaf_pid": "GAVIC419753394"
   }
  },
  {
   "type": "Feature",
   "geometry": {
    "type": "Point",
    "coordinates": [
     144.763731,
     -37.713364
    ]
   },
   "properties": {
    "name": "34 GLENELG BOULEVARD TAYLORS HILL 3037",
    "locID": "LOC000048791206",
    "tech": "FTTN",
    "upgrade": "FTTP_SA",
    "gnaf_pid": "GAVIC419753395"
   }
  },
  {
   "type": "Feature",
   "geometry": {
    "type": "Point",
    "coordinates": [
     144.763499,
     -37.71445
    ]
   },
   "properties": {
    "name": "20 GLENELG BOULEVARD TAYLORS HILL 3037",
    "locID": "LOC000013016829",
    "tech": "FTTN",
    "upgrade": "FTTP_SA",
    "gnaf_pid": "GAVIC419753396"
   }
  },
  {
   "type": "Feature",
   "geometry": {
    "type": "Point",
    "coordinates": [
     144.759563,
     -37.718382
    ]
   },
   "properties": {
    "name": "3 CARDINIA CRESCENT TAYLORS HILL 3037",
    "locID": "LOC000028750874",
    "tech": "FTTN",
    "upgrade": "FTTP_SA",
    "gnaf_pid": "GAVIC419754370"
   }
  },
  {
   "type": "Feature",
   "geometry": {
    "type": "Point",
    "coordinates": [
     144.760117,
     -37.718424
    ]
   },
   "properties": {
    "name": "1 WATTLETREE DRIVE TAYLORS HILL 3037",
    "locID": "LOC000041273733",
    "tech": "FTTN",
    "upgrade": "NULL_NA",
    "gnaf_pid": "GAVIC419754371"
   }
  },
  {
   "type": "Feature",
   "geometry": {
    "type": "Point",
    "coordinates": [
     144.760162,
     -37.718203
    ]
   },
   "properties": {
    "name": "5 WATTLETREE DRIVE TAYLORS HILL 3037",
    "locID": "LOC000002010080",
    "tech": "FTTN",
    "upgrade": "NULL_NA",
    "gnaf_pid": "GAVIC419754372"
   }
  },
  {
   "type": "Feature",
   "geometry": {
    "type": "Point",
    "coordinates": [
     144.74124898,
     -37.7092867
    ]
   },
   "properties": {
    "name": "32 DOMAIN WAY TAYLORS HILL 3037",
    "locID": "LOC000081427170",
    "tech": "FTTN",
    "upgrade": "FTTP_SA",
    "gnaf_pid": "GAVIC419755398"
   }
  },
  {
   "type": "Feature",
   "geometry": {
    "type": "Point",
    "coordinates": [
     144.74131295,
     -37.7089532
    ]
   },
   "properties": {
    "name": "36 DOMAIN WAY TAYLORS HILL 3037",
    "locID": "LOC000040844188",
    "tech": "FTTP",
    "upgrade": "UNKNOWN",
    "gnaf_pid": "GAVIC419755399"
   }
  },
  {
   "type": "Feature",
   "geometry": {
    "type": "Point",
    "coordinates": [
     144.763005,
     -37.712515
    ]
   },
   "properties": {
    "name": "27 WORONORA WAY TAYLORS HILL 3037",
    "locID": "LOC000018596618",
    "tech": "FTTN",
    "upgrade": "FTTP_SA",
    "gnaf_pid": "GAVIC419756135"
   }
  },
  {
   "type": "Feature",
   "geometry": {
    "type": "Point",
    "coordinates": [
     144.762306,
     -37.713324
    ]
   },
   "properties": {
    "name": "11 WORONORA WAY TAYLORS HILL 3037",
    "locID": "LOC000084700129",
    "tech": "FTTN",
    "upgrade": "FTTP_SA",
    "gnaf_pid": "GAVIC419756136"
   }
  },
  {
   "type": "Feature",
   "geometry": {
    "type": "Point",
    "coordinates": [
     144.762221,
     -37.713805
    ]
   },
   "properties": {
    "name": "5 WORONORA WAY TAYLORS HILL 3037",
    "locID": "LOC000033090006",
    "tech": "FTTN",
    "upgrade": "FTTP_SA",
    "gnaf_pid": "GAVIC419756137"
   }
  },
  {
   "type": "Feature",
   "geometry": {
    "type": "Point",
    "coordinates": [
     144.761598,
     -37.713051
    ]
   },
   "properties": {
    "name": "16 BREWSTER WAY TAYLORS HILL 3037",
    "locID": "LOC000048746548",
    "tech": "FTTN",
    "upgrade": "FTTP_SA",
    "gnaf_pid": "GAVIC419756138"
   }
  },
  {
   "type": "Feature",
   "geometry": {
    "type": "Point",
    "coordinates": [
     144.74927,
     -37.705888
    ]
   },
   "properties": {
    "name": "15 MARKET TERRACE TAYLORS HILL 3037",
    "locID": "LOC000089666749",
    "tech": "FTTP",
    "upgrade": "UNKNOWN",
    "gnaf_pid": "GAVIC419757478"
   }
  },
  {
   "type": "Feature",
   "geometry": {
    "type": "Point",
    "coordinates": [
     144.749176,
     -37.706375
    ]
   },
   "properties": {
    "name": "18 MARKET TERRACE TAYLORS HILL 3037",
    "locID": "LOC000016872110",
    "tech": "FTTN",
    "upgrade": "FTTP_SA",
    "gnaf_pid": "GAVIC419757479"
   }
  },
  {
   "type": "Feature",
   "geometry": {
    "type": "Point",
    "coordinates": [
     144.748685,
     -37.70581
    ]
   },
   "properties": {
    "name": "9 MARKET TERRACE TAYLORS HILL 3037",
    "locID": "LOC000039281351",
    "tech": "FTTN",
    "upgrade": "FTTP_SA",
    "gnaf_pid": "GAVIC419757480"
   }
  },
  {
   "type": "Feature",
   "geometry": {
    "type": "Point",
    "coordinates": [
     144.760165,
     -37.711336
    ]
   },
   "properties": {
    "name": "29 BLOOMSBURY DRIVE TAYLORS HILL 3037",
    "locID": "LOC000047384185",
    "tech": "FTTN",
    "upgrade": "FTTP_SA",
    "gnaf_pid": "GAVIC419757602"
   }
  },
  {
   "type": "Feature",
   "geometry": {
    "type": "Point",
    "coordinates": [
     144.759989,
     -37.712275
    ]
   },
   "properties": {
    "name": "41 BLOOMSBURY DRIVE TAYLORS HILL 3037",
    "locID": "LOC000072855999",
    "tech": "FTTN",
    "upgrade": "FTTP_SA",
    "gnaf_pid": "GAVIC419757603"
   }
  },
  {
   "type": "Feature",
   "geometry": {
    "type": "Point",
    "coordinates": [
     144.764402,
     -37.709924
    ]
   },
   "properties": {
    "name": "5 SPRINGVIEW BOULEVARD TAYLORS HILL 3037",
    "locID": "LOC000065288631",
    "tech": "FTTN",
    "upgrade": "FTTP_SA",
    "gnaf_pid": "GAVIC419758046"
   }
  },
  {
   "type": "Feature",
   "geometry": {
    "type": "Point",
    "coordinates": [
     144.763887,
     -37.71018
    ]
   },
   "properties": {
    "name": "10 SPRINGVIEW BOULEVARD TAYLORS HILL 3037",
    "locID": "LOC000104445975",
    "tech": "FTTN",
    "upgrade": "FTTP_SA",
    "gnaf_pid": "GAVIC419758047"
   }
  },
  {
   "type": "Feature",
   "geometry": {
    "type": "Point",
    "coordinates": [
     144.763997,
     -37.709566
    ]
   },
   "properties": {
    "name": "2 SPRINGVIEW BOULEVARD TAYLORS HILL 3037",
    "locID": "LOC000059298773",
    "tech": "FTTN",
    "upgrade": "FTTP_SA",
    "gnaf_pid": "GAVIC419758048"
   }
  },
  {
   "type": "Feature",
   "geometry": {
    "type": "Point",
    "coordinates": [
     144.764318,
     -37.710551
    ]
   },
   "properties": {
    "name": "98 JINDABYNE AVENUE TAYLORS HILL 3037",
    "locID": "LOC000060994051",
    "tech": "FTTN",
    "upgrade": "FTTP_SA",
    "gnaf_pid": "GAVIC419758049"
   }
  },
  {
   "type": "Feature",
   "geometry": {
    "type": "Point",
    "coordinates": [
     144.764805,
     -37.711074
    ]
   },
   "properties": {
    "name": "88 JINDABYNE AVENUE TAYLORS HILL 3037",
    "locID": "LOC000037719267",
    "tech": "FTTN",
    "upgrade": "FTTP_SA",
    "gnaf_pid": "GAVIC419758050"
   }
  },
  {
   "type": "Feature",
   "geometry": {
    "type": "Point",
    "coordinates": [
     144.76582553,
     -37.71103264
    ]
   },
   "properties": {
    "name": "28 SHEARWATER COURT TAYLORS HILL 3037",
    "locID": "LOC000087763703",
    "tech": "FTTN",
    "upgrade": "FTTP_SA",
    "gnaf_pid": "GAVIC419758452"
   }
  },
  {
   "type": "Feature",
   "geometry": {
    "type": "Point",
    "coordinates": [
     144.7668321,
     -37.7111453
    ]
   },
   "properties": {
    "name": "12 ELDERWOOD COURT TAYLORS HILL 3037",
    "locID": "LOC000102269248",
    "tech": "FTTN",
    "upgrade": "FTTP_SA",
    "gnaf_pid": "GAVIC419758453"
   }
  },
  {
   "type": "Feature",
   "geometry": {
    "type": "Point",
    "coordinates": [
     144.76704066,
     -37.71116429
    ]
   },
   "properties": {
    "name": "11 ELDERWOOD COURT TAYLORS HILL 3037",
    "locID": "LOC000060990587",
    "tech": "FTTN",
    "upgrade": "FTTP_SA",
    "gnaf_pid": "GAVIC419758454"
   }
  },
  {
   "type": "Feature",
   "geometry": {
    "type": "Point",
    "coordinates": [
     144.76744308,
     -37.71109758
    ]
   },
   "properties": {
    "name": "8 ELDERWOOD COURT TAYLORS HILL 3037",
    "locID": "LOC000095773568",
    "tech": "FTTN",
    "upgrade": "FTTP_SA",
    "gnaf_pid": "GAVIC419758455"
   }
  },
  {
   "type": "Feature",
   "geometry": {
    "type": "Point",
    "coordinates": [
     144.76670699,
     -37.710833
    ]
   },
   "properties": {
    "name": "3 ELDERWOOD COURT TAYLORS HILL 3037",
    "locID": "LOC000108676080",
    "tech": "FTTN",
    "upgrade": "FTTP_SA",
    "gnaf_pid": "GAVIC419758456"
   }
  },
  {
   "type": "Feature",
   "geometry": {
    "type": "Point",
    "coordinates": [
     144.76588935,
     -37.71072725
    ]
   },
   "properties": {
    "name": "5 SHEARWATER COURT TAYLORS HILL 3037",
    "locID": "LOC000046667179",
    "tech": "FTTN",
    "upgrade": "FTTP_SA",
    "gnaf_pid": "GAVIC419758457"
   }
  },
  {
   "type": "Feature",
   "geometry": {
    "type": "Point",
    "coordinates": [
     144.767313,
     -37.710103
    ]
   },
   "properties": {
    "name": "15 SHEARWATER COURT TAYLORS HILL 3037",
    "locID": "LOC000083778251",
    "tech": "FTTN",
    "upgrade": "FTTP_SA",
    "gnaf_pid": "GAVIC419758461"
   }
  },
  {
   "type": "Feature",
   "geometry": {
    "type": "Point",
    "coordinates": [
     144.76760746,
     -37.71045325
    ]
   },
   "properties": {
    "name": "19 SHEARWATER COURT TAYLORS HILL 3037",
    "locID": "LOC000105005744",
    "tech": "FTTN",
    "upgrade": "FTTP_SA",
    "gnaf_pid": "GAVIC419758462"
   }
  },
  {
   "type": "Feature",
   "geometry": {
    "type": "Point",
    "coordinates": [
     144.76724471,
     -37.71038955
    ]
   },
   "properties": {
    "name": "21 SHEARWATER COURT TAYLORS HILL 3037",
    "locID": "LOC000008888601",
    "tech": "FTTN",
    "upgrade": "FTTP_SA",
    "gnaf_pid": "GAVIC419758463"
   }
  },
  {
   "type": "Feature",
   "geometry": {
    "type": "Point",
    "coordinates": [
     144.76680391,
     -37.71033528
    ]
   },
   "properties": {
    "name": "23 SHEARWATER COURT TAYLORS HILL 3037",
    "locID": "LOC000031092702",
    "tech": "FTTN",
    "upgrade": "FTTP_SA",
    "gnaf_pid": "GAVIC419758464"
   }
  },
  {
   "type": "Feature",
   "geometry": {
    "type": "Point",
    "coordinates": [
     144.744529,
     -37.709952
    ]
   },
   "properties": {
    "name": "6 ST KILDA PARADE TAYLORS HILL 3037",
    "locID": "LOC000046556299",
    "tech": "FTTN",
    "upgrade": "FTTP_SA",
    "gnaf_pid": "GAVIC419758883"
   }
  },
  {
   "type": "Feature",
   "geometry": {
    "type": "Point",
    "coordinates": [
     144.744561,
     -37.709784
    ]
   },
   "properties": {
    "name": "8 ST KILDA PARADE TAYLORS HILL 3037",
    "locID": "LOC000041302434",
    "tech": "FTTN",
    "upgrade": "FTTP_SA",
    "gnaf_pid": "GAVIC419758884"
   }
  },
  {
   "type": "Feature",
   "geometry": {
    "type": "Point",
    "coordinates": [
     144.744685,
     -37.709139
    ]
   },
   "properties": {
    "name": "16 ST KILDA PARADE TAYLORS HILL 3037",
    "locID": "LOC000023457939",
    "tech": "FTTN",
    "upgrade": "FTTP_SA",
    "gnaf_pid": "GAVIC419758885"
   }
  },
  {
   "type": "Feature",
   "geometry": {
    "type": "Point",
    "coordinates": [
     144.74568175,
     -37.7082159
    ]
   },
   "properties": {
    "name": "4 GRANGE TERRACE TAYLORS HILL 3037",
    "locID": "LOC000067839352",
    "tech": "FTTN",
    "upgrade": "FTTP_SA",
    "gnaf_pid": "GAVIC419758886"
   }
  },
  {
   "type": "Feature",
   "geometry": {
    "type": "Point",
    "coordinates": [
     144.743962,
     -37.706566
    ]
   },
   "properties": {
    "name": "96 TAYLORS HILL BOULEVARD TAYLORS HILL 3037",
    "locID": "LOC000087577863",
    "tech": "FTTP",
    "upgrade": "UNKNOWN",
    "gnaf_pid": "GAVIC419758887"
   }
  },
  {
   "type": "Feature",
   "geometry": {
    "type": "Point",
    "coordinates": [
     144.744725,
     -37.706663
    ]
   },
   "properties": {
    "name": "88 TAYLORS HILL BOULEVARD TAYLORS HILL 3037",
    "locID": "LOC000040989980",
    "tech": "FTTN",
    "upgrade": "FTTP_SA",
    "gnaf_pid": "GAVIC419758888"
   }
  },
  {
   "type": "Feature",
   "geometry": {
    "type": "Point",
    "coordinates": [
     144.745167,
     -37.706716
    ]
   },
   "properties": {
    "name": "84 TAYLORS HILL BOULEVARD TAYLORS HILL 3037",
    "locID": "LOC000002853607",
    "tech": "FTTN",
    "upgrade": "FTTP_SA",
    "gnaf_pid": "GAVIC419758889"
   }
  },
  {
   "type": "Feature",
   "geometry": {
    "type": "Point",
    "coordinates": [
     144.746138,
     -37.707002
    ]
   },
   "properties": {
    "name": "76 TAYLORS HILL BOULEVARD TAYLORS HILL 3037",
    "locID": "LOC000012546124",
    "tech": "FTTN",
    "upgrade": "FTTP_SA",
    "gnaf_pid": "GAVIC419758890"
   }
  },
  {
   "type": "Feature",
   "geometry": {
    "type": "Point",
    "coordinates": [
     144.746183,
     -37.707335
    ]
   },
   "properties": {
    "name": "61 TAYLORS HILL BOULEVARD TAYLORS HILL 3037",
    "locID": "LOC000095252507",
    "tech": "FTTN",
    "upgrade": "FTTP_SA",
    "gnaf_pid": "GAVIC419758891"
   }
  },
  {
   "type": "Feature",
   "geometry": {
    "type": "Point",
    "coordinates": [
     144.760328,
     -37.710387
    ]
   },
   "properties": {
    "name": "10 ROCKLAND COURT TAYLORS HILL 3037",
    "locID": "LOC000102037299",
    "tech": "FTTN",
    "upgrade": "FTTP_SA",
    "gnaf_pid": "GAVIC419759243"
   }
  },
  {
   "type": "Feature",
   "geometry": {
    "type": "Point",
    "coordinates": [
     144.760631,
     -37.710125
    ]
   },
   "properties": {
    "name": "12 ROCKLAND COURT TAYLORS HILL 3037",
    "locID": "LOC000014850123",
    "tech": "FTTN",
    "upgrade": "FTTP_SA",
    "gnaf_pid": "GAVIC419759244"
   }
  },
  {
   "type": "Feature",
   "geometry": {
    "type": "Point",
    "coordinates": [
     144.76181,
     -37.710262
    ]
   },
   "properties": {
    "name": "18 ROCKLAND COURT TAYLORS HILL 3037",
    "locID": "LOC000072732870",
    "tech": "FTTN",
    "upgrade": "FTTP_SA",
    "gnaf_pid": "GAVIC419759245"
   }
  },
  {
   "type": "Feature",
   "geometry": {
    "type": "Point",
    "coordinates": [
     144.760782,
     -37.709343
    ]
   },
   "properties": {
    "name": "16 WILLOWOOD COURT TAYLORS HILL 3037",
    "locID": "LOC000002874325",
    "tech": "FTTN",
    "upgrade": "FTTP_SA",
    "gnaf_pid": "GAVIC419759246"
   }
  },
  {
   "type": "Feature",
   "geometry": {
    "type": "Point",
    "coordinates": [
     144.761603,
     -37.709443
    ]
   },
   "properties": {
    "name": "20 WILLOWOOD COURT TAYLORS HILL 3037",
    "locID": "LOC000048935693",
    "tech": "FTTN",
    "upgrade": "FTTP_SA",
    "gnaf_pid": "GAVIC419759247"
   }
  },
  {
   "type": "Feature",
   "geometry": {
    "type": "Point",
    "coordinates": [
     144.7628,
     -37.709584
    ]
   },
   "properties": {
    "name": "26 WILLOWOOD COURT TAYLORS HILL 3037",
    "locID": "LOC000085488214",
    "tech": "FTTP",
    "upgrade": "UNKNOWN",
    "gnaf_pid": "GAVIC419759248"
   }
  },
  {
   "type": "Feature",
   "geometry": {
    "type": "Point",
    "coordinates": [
     144.765439,
     -37.717338
    ]
   },
   "properties": {
    "name": "19 JAMIESON TERRACE TAYLORS HILL 3037",
    "locID": "LOC000005244429",
    "tech": "FTTN",
    "upgrade": "FTTP_SA",
    "gnaf_pid": "GAVIC419759790"
   }
  },
  {
   "type": "Feature",
   "geometry": {
    "type": "Point",
    "coordinates": [
     144.765671,
     -37.716461
    ]
   },
   "properties": {
    "name": "31 JAMIESON TERRACE TAYLORS HILL 3037",
    "locID": "LOC000083530529",
    "tech": "FTTN",
    "upgrade": "FTTP_SA",
    "gnaf_pid": "GAVIC419759791"
   }
  },
  {
   "type": "Feature",
   "geometry": {
    "type": "Point",
    "coordinates": [
     144.765748,
     -37.716159
    ]
   },
   "properties": {
    "name": "35 JAMIESON TERRACE TAYLORS HILL 3037",
    "locID": "LOC000107827544",
    "tech": "FTTN",
    "upgrade": "FTTP_SA",
    "gnaf_pid": "GAVIC419759792"
   }
  },
  {
   "type": "Feature",
   "geometry": {
    "type": "Point",
    "coordinates": [
     144.745498,
     -37.710286
    ]
   },
   "properties": {
    "name": "32 UNIVERSITY DRIVE TAYLORS HILL 3037",
    "locID": "LOC000076346843",
    "tech": "FTTN",
    "upgrade": "FTTP_SA",
    "gnaf_pid": "GAVIC419761437"
   }
  },
  {
   "type": "Feature",
   "geometry": {
    "type": "Point",
    "coordinates": [
     144.746576,
     -37.709746
    ]
   },
   "properties": {
    "name": "8 FARADAY COURT TAYLORS HILL 3037",
    "locID": "LOC000035779819",
    "tech": "FTTN",
    "upgrade": "FTTP_SA",
    "gnaf_pid": "GAVIC419761438"
   }
  },
  {
   "type": "Feature",
   "geometry": {
    "type": "Point",
    "coordinates": [
     144.746389,
     -37.70736
    ]
   },
   "properties": {
    "name": "59 TAYLORS HILL BOULEVARD TAYLORS HILL 3037",
    "locID": "LOC000092222030",
    "tech": "FTTN",
    "upgrade": "FTTP_SA",
    "gnaf_pid": "GAVIC419761442"
   }
  },
  {
   "type": "Feature",
   "geometry": {
    "type": "Point",
    "coordinates": [
     144.748377,
     -37.707273
    ]
   },
   "properties": {
    "name": "58 TAYLORS HILL BOULEVARD TAYLORS HILL 3037",
    "locID": "LOC000069323859",
    "tech": "FTTN",
    "upgrade": "FTTP_SA",
    "gnaf_pid": "GAVIC419761443"
   }
  },
  {
   "type": "Feature",
   "geometry": {
    "type": "Point",
    "coordinates": [
     144.746044,
     -37.706479
    ]
   },
   "properties": {
    "name": "6 DORCAS LANE TAYLORS HILL 3037",
    "locID": "LOC000082196373",
    "tech": "FTTP",
    "upgrade": "UNKNOWN",
    "gnaf_pid": "GAVIC419762911"
   }
  },
  {
   "type": "Feature",
   "geometry": {
    "type": "Point",
    "coordinates": [
     144.746107,
     -37.706153
    ]
   },
   "properties": {
    "name": "10 DORCAS LANE TAYLORS HILL 3037",
    "locID": "LOC000057340741",
    "tech": "FTTN",
    "upgrade": "FTTP_SA",
    "gnaf_pid": "GAVIC419762912"
   }
  },
  {
   "type": "Feature",
   "geometry": {
    "type": "Point",
    "coordinates": [
     144.74623,
     -37.705507
    ]
   },
   "properties": {
    "name": "18 DORCAS LANE TAYLORS HILL 3037",
    "locID": "LOC000018470019",
    "tech": "FTTN",
    "upgrade": "FTTP_SA",
    "gnaf_pid": "GAVIC419763746"
   }
  },
  {
   "type": "Feature",
   "geometry": {
    "type": "Point",
    "coordinates": [
     144.74606,
     -37.705187
    ]
   },
   "properties": {
    "name": "24 DORCAS LANE TAYLORS HILL 3037",
    "locID": "LOC000036864984",
    "tech": "FTTP",
    "upgrade": "UNKNOWN",
    "gnaf_pid": "GAVIC419763747"
   }
  },
  {
   "type": "Feature",
   "geometry": {
    "type": "Point",
    "coordinates": [
     144.745435,
     -37.705403
    ]
   },
   "properties": {
    "name": "13 DORCAS LANE TAYLORS HILL 3037",
    "locID": "LOC000082212656",
    "tech": "FTTN",
    "upgrade": "FTTP_SA",
    "gnaf_pid": "GAVIC419763748"
   }
  },
  {
   "type": "Feature",
   "geometry": {
    "type": "Point",
    "coordinates": [
     144.745854,
     -37.705454
    ]
   },
   "properties": {
    "name": "9 DORCAS LANE TAYLORS HILL 3037",
    "locID": "LOC000101111135",
    "tech": "FTTN",
    "upgrade": "FTTP_SA",
    "gnaf_pid": "GAVIC419763749"
   }
  },
  {
   "type": "Feature",
   "geometry": {
    "type": "Point",
    "coordinates": [
     144.744942,
     -37.705887
    ]
   },
   "properties": {
    "name": "13 PUCKLE STREET TAYLORS HILL 3037",
    "locID": "LOC000011018249",
    "tech": "FTTN",
    "upgrade": "FTTP_SA",
    "gnaf_pid": "GAVIC419763750"
   }
  },
  {
   "type": "Feature",
   "geometry": {
    "type": "Point",
    "coordinates": [
     144.744736,
     -37.705862
    ]
   },
   "properties": {
    "name": "11 PUCKLE STREET TAYLORS HILL 3037",
    "locID": "LOC000030957030",
    "tech": "FTTN",
    "upgrade": "FTTP_SA",
    "gnaf_pid": "GAVIC419763751"
   }
  },
  {
   "type": "Feature",
   "geometry": {
    "type": "Point",
    "coordinates": [
     144.76066,
     -37.717687
    ]
   },
   "properties": {
    "name": "27 WATTLETREE DRIVE TAYLORS HILL 3037",
    "locID": "LOC000100501292",
    "tech": "FTTN",
    "upgrade": "NULL_NA",
    "gnaf_pid": "GAVIC419764330"
   }
  },
  {
   "type": "Feature",
   "geometry": {
    "type": "Point",
    "coordinates": [
     144.761023,
     -37.718409
    ]
   },
   "properties": {
    "name": "17 CARDINIA CRESCENT TAYLORS HILL 3037",
    "locID": "LOC000016933316",
    "tech": "FTTN",
    "upgrade": "FTTP_SA",
    "gnaf_pid": "GAVIC419764341"
   }
  },
  {
   "type": "Feature",
   "geometry": {
    "type": "Point",
    "coordinates": [
     144.759062,
     -37.714938
    ]
   },
   "properties": {
    "name": "19 PARK LANE TAYLORS HILL 3037",
    "locID": "LOC000108765297",
    "tech": "FTTN",
    "upgrade": "FTTP_SA",
    "gnaf_pid": "GAVIC419767606"
   }
  },
  {
   "type": "Feature",
   "geometry": {
    "type": "Point",
    "coordinates": [
     144.760296,
     -37.713741
    ]
   },
   "properties": {
    "name": "57 BLOOMSBURY DRIVE TAYLORS HILL 3037",
    "locID": "LOC000049940036",
    "tech": "FTTN",
    "upgrade": "FTTP_SA",
    "gnaf_pid": "GAVIC419767608"
   }
  },
  {
   "type": "Feature",
   "geometry": {
    "type": "Point",
    "coordinates": [
     144.759112,
     -37.713615
    ]
   },
   "properties": {
    "name": "37 PARK LANE TAYLORS HILL 3037",
    "locID": "ChIJU2mllLz11moREiJaRZ-JWNs",
    "tech": "FTTN",
    "upgrade": "UNKNOWN",
    "gnaf_pid": "GAVIC419767609"
   }
  },
  {
   "type": "Feature",
   "geometry": {
    "type": "Point",
    "coordinates": [
     144.760424,
     -37.713373
    ]
   },
   "properties": {
    "name": "28 BREWSTER WAY TAYLORS HILL 3037",
    "locID": "LOC000002913107",
    "tech": "FTTN",
    "upgrade": "FTTP_SA",
    "gnaf_pid": "GAVIC419767610"
   }
  },
  {
   "type": "Feature",
   "geometry": {
    "type": "Point",
    "coordinates": [
     144.760772,
     -37.712077
    ]
   },
   "properties": {
    "name": "5 WISTERIA CLOSE TAYLORS HILL 3037",
    "locID": "LOC000030234286",
    "tech": "FTTN",
    "upgrade": "FTTP_SA",
    "gnaf_pid": "GAVIC419773957"
   }
  },
  {
   "type": "Feature",
   "geometry": {
    "type": "Point",
    "coordinates": [
     144.748217,
     -37.705734
    ]
   },
   "properties": {
    "name": "15 MORAY CLOSE TAYLORS HILL 3037",
    "locID": "LOC000052897520",
    "tech": "FTTP",
    "upgrade": "UNKNOWN",
    "gnaf_pid": "GAVIC419775775"
   }
  },
  {
   "type": "Feature",
   "geometry": {
    "type": "Point",
    "coordinates": [
     144.748567,
     -37.705497
    ]
   },
   "properties": {
    "name": "14 MORAY CLOSE TAYLORS HILL 3037",
    "locID": "LOC000093940669",
    "tech": "FTTP",
    "upgrade": "UNKNOWN",
    "gnaf_pid": "GAVIC419775776"
   }
  },
  {
   "type": "Feature",
   "geometry": {
    "type": "Point",
    "coordinates": [
     144.747832,
     -37.705684
    ]
   },
   "properties": {
    "name": "8 MORAY CLOSE TAYLORS HILL 3037",
    "locID": "LOC000081648054",
    "tech": "FTTN",
    "upgrade": "FTTP_SA",
    "gnaf_pid": "GAVIC419775777"
   }
  },
  {
   "type": "Feature",
   "geometry": {
    "type": "Point",
    "coordinates": [
     144.747314,
     -37.705339
    ]
   },
   "properties": {
    "name": "13 YORK CLOSE TAYLORS HILL 3037",
    "locID": "LOC000092149808",
    "tech": "FTTN",
    "upgrade": "FTTP_SA",
    "gnaf_pid": "GAVIC419775778"
   }
  },
  {
   "type": "Feature",
   "geometry": {
    "type": "Point",
    "coordinates": [
     144.74271,
     -37.705622
    ]
   },
   "properties": {
    "name": "11 FITZROY PLACE TAYLORS HILL 3037",
    "locID": "LOC000070401783",
    "tech": "FTTN",
    "upgrade": "FTTP_SA",
    "gnaf_pid": "GAVIC419775817"
   }
  },
  {
   "type": "Feature",
   "geometry": {
    "type": "Point",
    "coordinates": [
     144.742314,
     -37.705574
    ]
   },
   "properties": {
    "name": "9 FITZROY PLACE TAYLORS HILL 3037",
    "locID": "LOC000038910699",
    "tech": "FTTN",
    "upgrade": "FTTP_SA",
    "gnaf_pid": "GAVIC419775818"
   }
  },
  {
   "type": "Feature",
   "geometry": {
    "type": "Point",
    "coordinates": [
     144.742134,
     -37.705552
    ]
   },
   "properties": {
    "name": "8 FITZROY PLACE TAYLORS HILL 3037",
    "locID": "LOC000020221586",
    "tech": "FTTN",
    "upgrade": "FTTP_SA",
    "gnaf_pid": "GAVIC419775819"
   }
  },
  {
   "type": "Feature",
   "geometry": {
    "type": "Point",
    "coordinates": [
     144.75630023,
     -37.7188879
    ]
   },
   "properties": {
    "name": "4 WEBBS AVENUE TAYLORS HILL 3037",
    "locID": "LOC000019603281",
    "tech": "FTTN",
    "upgrade": "FTTP_SA",
    "gnaf_pid": "GAVIC419880622"
   }
  },
  {
   "type": "Feature",
   "geometry": {
    "type": "Point",
    "coordinates": [
     144.75754283,
     -37.71842514
    ]
   },
   "properties": {
    "name": "9 MITCHELL GROVE TAYLORS HILL 3037",
    "locID": "LOC000097166742",
    "tech": "FTTN",
    "upgrade": "FTTP_SA",
    "gnaf_pid": "GAVIC419880623"
   }
  },
  {
   "type": "Feature",
   "geometry": {
    "type": "Point",
    "coordinates": [
     144.75695705,
     -37.71823133
    ]
   },
   "properties": {
    "name": "15 MITCHELL GROVE TAYLORS HILL 3037",
    "locID": "LOC000045802290",
    "tech": "FTTN",
    "upgrade": "FTTP_SA",
    "gnaf_pid": "GAVIC419880624"
   }
  },
  {
   "type": "Feature",
   "geometry": {
    "type": "Point",
    "coordinates": [
     144.75775615,
     -37.7182606
    ]
   },
   "properties": {
    "name": "8 MITCHELL GROVE TAYLORS HILL 3037",
    "locID": "LOC000023484292",
    "tech": "FTTN",
    "upgrade": "FTTP_SA",
    "gnaf_pid": "GAVIC419880625"
   }
  },
  {
   "type": "Feature",
   "geometry": {
    "type": "Point",
    "coordinates": [
     144.75733775,
     -37.71765884
    ]
   },
   "properties": {
    "name": "7 MULWALA PLACE TAYLORS HILL 3037",
    "locID": "LOC000037479510",
    "tech": "FTTN",
    "upgrade": "FTTP_SA",
    "gnaf_pid": "GAVIC419880626"
   }
  },
  {
   "type": "Feature",
   "geometry": {
    "type": "Point",
    "coordinates": [
     144.745449,
     -37.712074
    ]
   },
   "properties": {
    "name": "2 SUSSEX GROVE TAYLORS HILL 3037",
    "locID": "LOC000050493432",
    "tech": "FTTN",
    "upgrade": "FTTP_SA",
    "gnaf_pid": "GAVIC419880860"
   }
  },
  {
   "type": "Feature",
   "geometry": {
    "type": "Point",
    "coordinates": [
     144.744094,
     -37.711632
    ]
   },
   "properties": {
    "name": "11 VAUCLUSE BOULEVARD TAYLORS HILL 3037",
    "locID": "LOC000083302721",
    "tech": "FTTN",
    "upgrade": "FTTP_SA",
    "gnaf_pid": "GAVIC419880863"
   }
  },
  {
   "type": "Feature",
   "geometry": {
    "type": "Point",
    "coordinates": [
     144.744857,
     -37.712625
    ]
   },
   "properties": {
    "name": "34 PYRMONT TERRACE TAYLORS HILL 3037",
    "locID": "LOC000067892181",
    "tech": "FTTN",
    "upgrade": "FTTP_SA",
    "gnaf_pid": "GAVIC419884228"
   }
  },
  {
   "type": "Feature",
   "geometry": {
    "type": "Point",
    "coordinates": [
     144.744739,
     -37.71324
    ]
   },
   "properties": {
    "name": "28 PYRMONT TERRACE TAYLORS HILL 3037",
    "locID": "LOC000033777130",
    "tech": "FTTN",
    "upgrade": "FTTP_SA",
    "gnaf_pid": "GAVIC419884229"
   }
  },
  {
   "type": "Feature",
   "geometry": {
    "type": "Point",
    "coordinates": [
     144.745026,
     -37.710849
    ]
   },
   "properties": {
    "name": "3 MANLY COURT TAYLORS HILL 3037",
    "locID": "LOC000091578861",
    "tech": "FTTN",
    "upgrade": "FTTP_SA",
    "gnaf_pid": "GAVIC419892203"
   }
  },
  {
   "type": "Feature",
   "geometry": {
    "type": "Point",
    "coordinates": [
     144.760398,
     -37.706913
    ]
   },
   "properties": {
    "name": "8 GRAMAN WAY TAYLORS HILL 3037",
    "locID": "LOC000100210417",
    "tech": "FTTP",
    "upgrade": "UNKNOWN",
    "gnaf_pid": "GAVIC420007822"
   }
  },
  {
   "type": "Feature",
   "geometry": {
    "type": "Point",
    "coordinates": [
     144.759627,
     -37.706854
    ]
   },
   "properties": {
    "name": "16 GRAMAN WAY TAYLORS HILL 3037",
    "locID": "LOC000067199395",
    "tech": "FTTN",
    "upgrade": "FTTP_SA",
    "gnaf_pid": "GAVIC420007823"
   }
  },
  {
   "type": "Feature",
   "geometry": {
    "type": "Point",
    "coordinates": [
     144.75735,
     -37.706579
    ]
   },
   "properties": {
    "name": "13 CARLTON COURT TAYLORS HILL 3037",
    "locID": "LOC000065589527",
    "tech": "FTTN",
    "upgrade": "FTTP_SA",
    "gnaf_pid": "GAVIC420007825"
   }
  },
  {
   "type": "Feature",
   "geometry": {
    "type": "Point",
    "coordinates": [
     144.758724,
     -37.707232
    ]
   },
   "properties": {
    "name": "3 PARKVILLE TERRACE TAYLORS HILL 3037",
    "locID": "LOC000070476215",
    "tech": "FTTN",
    "upgrade": "FTTP_SA",
    "gnaf_pid": "GAVIC420007826"
   }
  },
  {
   "type": "Feature",
   "geometry": {
    "type": "Point",
    "coordinates": [
     144.759513,
     -37.707942
    ]
   },
   "properties": {
    "name": "6 BRIGHTON PLACE TAYLORS HILL 3037",
    "locID": "LOC000092618340",
    "tech": "FTTN",
    "upgrade": "FTTP_SA",
    "gnaf_pid": "GAVIC420007828"
   }
  },
  {
   "type": "Feature",
   "geometry": {
    "type": "Point",
    "coordinates": [
     144.759633,
     -37.707157
    ]
   },
   "properties": {
    "name": "1 BRIGHTON PLACE TAYLORS HILL 3037",
    "locID": "LOC000016903656",
    "tech": "FTTN",
    "upgrade": "FTTP_SA",
    "gnaf_pid": "GAVIC420007829"
   }
  },
  {
   "type": "Feature",
   "geometry": {
    "type": "Point",
    "coordinates": [
     144.760039,
     -37.708031
    ]
   },
   "properties": {
    "name": "13 BURNLEY GROVE TAYLORS HILL 3037",
    "locID": "LOC000102501558",
    "tech": "FTTN",
    "upgrade": "FTTP_SA",
    "gnaf_pid": "GAVIC420007830"
   }
  },
  {
   "type": "Feature",
   "geometry": {
    "type": "Point",
    "coordinates": [
     144.760339,
     -37.70845
    ]
   },
   "properties": {
    "name": "9 BURNLEY GROVE TAYLORS HILL 3037",
    "locID": "LOC000084828995",
    "tech": "FTTN",
    "upgrade": "FTTP_SA",
    "gnaf_pid": "GAVIC420007831"
   }
  },
  {
   "type": "Feature",
   "geometry": {
    "type": "Point",
    "coordinates": [
     144.760454,
     -37.707658
    ]
   },
   "properties": {
    "name": "4 BURNLEY GROVE TAYLORS HILL 3037",
    "locID": "LOC000057691028",
    "tech": "FTTN",
    "upgrade": "FTTP_SA",
    "gnaf_pid": "GAVIC420007832"
   }
  },
  {
   "type": "Feature",
   "geometry": {
    "type": "Point",
    "coordinates": [
     144.751613,
     -37.710856
    ]
   },
   "properties": {
    "name": "1 FLINDERS STREET TAYLORS HILL 3037",
    "locID": "LOC000096371088",
    "tech": "FTTN",
    "upgrade": "FTTP_SA",
    "gnaf_pid": "GAVIC420012860"
   }
  },
  {
   "type": "Feature",
   "geometry": {
    "type": "Point",
    "coordinates": [
     144.758499,
     -37.719841
    ]
   },
   "properties": {
    "name": "55 WATERVALE BOULEVARD TAYLORS HILL 3037",
    "locID": "LOC000037863822",
    "tech": "FTTP",
    "upgrade": "UNKNOWN",
    "gnaf_pid": "GAVIC420016514"
   }
  },
  {
   "type": "Feature",
   "geometry": {
    "type": "Point",
    "coordinates": [
     144.758461,
     -37.720356
    ]
   },
   "properties": {
    "name": "51 WATERVALE BOULEVARD TAYLORS HILL 3037",
    "locID": "LOC000011020074",
    "tech": "FTTN",
    "upgrade": "FTTP_SA",
    "gnaf_pid": "GAVIC420020019"
   }
  },
  {
   "type": "Feature",
   "geometry": {
    "type": "Point",
    "coordinates": [
     144.753501,
     -37.706113
    ]
   },
   "properties": {
    "name": "27 SOUTHBANK WALK TAYLORS HILL 3037",
    "locID": "LOC000031055316",
    "tech": "FTTN",
    "upgrade": "FTTP_SA",
    "gnaf_pid": "GAVIC420022473"
   }
  },
  {
   "type": "Feature",
   "geometry": {
    "type": "Point",
    "coordinates": [
     144.753899,
     -37.706162
    ]
   },
   "properties": {
    "name": "29 SOUTHBANK WALK TAYLORS HILL 3037",
    "locID": "LOC000048930114",
    "tech": "FTTN",
    "upgrade": "FTTP_SA",
    "gnaf_pid": "GAVIC420022474"
   }
  },
  {
   "type": "Feature",
   "geometry": {
    "type": "Point",
    "coordinates": [
     144.754057,
     -37.706454
    ]
   },
   "properties": {
    "name": "19 SOUTHBANK WALK TAYLORS HILL 3037",
    "locID": "LOC000028862135",
    "tech": "FTTN",
    "upgrade": "FTTP_SA",
    "gnaf_pid": "GAVIC420022475"
   }
  },
  {
   "type": "Feature",
   "geometry": {
    "type": "Point",
    "coordinates": [
     144.753065,
     -37.706334
    ]
   },
   "properties": {
    "name": "24 SOUTHBANK WALK TAYLORS HILL 3037",
    "locID": "LOC000095126031",
    "tech": "FTTN",
    "upgrade": "FTTP_SA",
    "gnaf_pid": "GAVIC420022476"
   }
  },
  {
   "type": "Feature",
   "geometry": {
    "type": "Point",
    "coordinates": [
     144.764172,
     -37.720874
    ]
   },
   "properties": {
    "name": "20 HOWQUA WAY TAYLORS HILL 3037",
    "locID": "LOC000046046885",
    "tech": "FTTN",
    "upgrade": "FTTP_SA",
    "gnaf_pid": "GAVIC420022546"
   }
  },
  {
   "type": "Feature",
   "geometry": {
    "type": "Point",
    "coordinates": [
     144.762834,
     -37.72071
    ]
   },
   "properties": {
    "name": "6 HOWQUA WAY TAYLORS HILL 3037",
    "locID": "LOC000066966987",
    "tech": "FTTN",
    "upgrade": "FTTP_SA",
    "gnaf_pid": "GAVIC420022547"
   }
  },
  {
   "type": "Feature",
   "geometry": {
    "type": "Point",
    "coordinates": [
     144.763684,
     -37.720148
    ]
   },
   "properties": {
    "name": "2 MITTA PLACE TAYLORS HILL 3037",
    "locID": "LOC000044612260",
    "tech": "FTTN",
    "upgrade": "FTTP_SA",
    "gnaf_pid": "GAVIC420022548"
   }
  },
  {
   "type": "Feature",
   "geometry": {
    "type": "Point",
    "coordinates": [
     144.763595,
     -37.719784
    ]
   },
   "properties": {
    "name": "4 MITTA PLACE TAYLORS HILL 3037",
    "locID": "LOC000056827908",
    "tech": "FTTN",
    "upgrade": "FTTP_SA",
    "gnaf_pid": "GAVIC420022549"
   }
  },
  {
   "type": "Feature",
   "geometry": {
    "type": "Point",
    "coordinates": [
     144.764009,
     -37.719718
    ]
   },
   "properties": {
    "name": "6 MITTA PLACE TAYLORS HILL 3037",
    "locID": "LOC000095243268",
    "tech": "FTTN",
    "upgrade": "FTTP_SA",
    "gnaf_pid": "GAVIC420022550"
   }
  },
  {
   "type": "Feature",
   "geometry": {
    "type": "Point",
    "coordinates": [
     144.764207,
     -37.719743
    ]
   },
   "properties": {
    "name": "7 MITTA PLACE TAYLORS HILL 3037",
    "locID": "LOC000106184674",
    "tech": "FTTN",
    "upgrade": "FTTP_SA",
    "gnaf_pid": "GAVIC420022551"
   }
  },
  {
   "type": "Feature",
   "geometry": {
    "type": "Point",
    "coordinates": [
     144.765137,
     -37.72015
    ]
   },
   "properties": {
    "name": "9 DARGO PLACE TAYLORS HILL 3037",
    "locID": "LOC000102113334",
    "tech": "FTTN",
    "upgrade": "FTTP_SA",
    "gnaf_pid": "GAVIC420022552"
   }
  },
  {
   "type": "Feature",
   "geometry": {
    "type": "Point",
    "coordinates": [
     144.764536,
     -37.71835
    ]
   },
   "properties": {
    "name": "6 WARATAH LANE TAYLORS HILL 3037",
    "locID": "LOC000016138266",
    "tech": "FTTN",
    "upgrade": "FTTP_SA",
    "gnaf_pid": "GAVIC420024080"
   }
  },
  {
   "type": "Feature",
   "geometry": {
    "type": "Point",
    "coordinates": [
     144.762509,
     -37.718256
    ]
   },
   "properties": {
    "name": "3 DARLING COURT TAYLORS HILL 3037",
    "locID": "LOC000094242776",
    "tech": "FTTN",
    "upgrade": "FTTP_SA",
    "gnaf_pid": "GAVIC420024082"
   }
  },
  {
   "type": "Feature",
   "geometry": {
    "type": "Point",
    "coordinates": [
     144.762855,
     -37.718017
    ]
   },
   "properties": {
    "name": "14 DARLING COURT TAYLORS HILL 3037",
    "locID": "LOC000036678946",
    "tech": "FTTN",
    "upgrade": "FTTP_SA",
    "gnaf_pid": "GAVIC420024083"
   }
  },
  {
   "type": "Feature",
   "geometry": {
    "type": "Point",
    "coordinates": [
     144.761745,
     -37.71817
    ]
   },
   "properties": {
    "name": "7 DARLING COURT TAYLORS HILL 3037",
    "locID": "LOC000104172487",
    "tech": "FTTN",
    "upgrade": "FTTP_SA",
    "gnaf_pid": "GAVIC420024084"
   }
  },
  {
   "type": "Feature",
   "geometry": {
    "type": "Point",
    "coordinates": [
     144.75879,
     -37.721783
    ]
   },
   "properties": {
    "name": "35 WATERVALE BOULEVARD TAYLORS HILL 3037",
    "locID": "LOC000073609756",
    "tech": "FTTN",
    "upgrade": "FTTP_SA",
    "gnaf_pid": "GAVIC420024891"
   }
  },
  {
   "type": "Feature",
   "geometry": {
    "type": "Point",
    "coordinates": [
     144.758714,
     -37.721641
    ]
   },
   "properties": {
    "name": "37 WATERVALE BOULEVARD TAYLORS HILL 3037",
    "locID": "LOC000045639740",
    "tech": "FTTN",
    "upgrade": "FTTP_SA",
    "gnaf_pid": "GAVIC420024892"
   }
  },
  {
   "type": "Feature",
   "geometry": {
    "type": "Point",
    "coordinates": [
     144.758655,
     -37.721502
    ]
   },
   "properties": {
    "name": "39 WATERVALE BOULEVARD TAYLORS HILL 3037",
    "locID": "LOC000071596828",
    "tech": "FTTN",
    "upgrade": "FTTP_SA",
    "gnaf_pid": "GAVIC420024893"
   }
  },
  {
   "type": "Feature",
   "geometry": {
    "type": "Point",
    "coordinates": [
     144.758578,
     -37.721211
    ]
   },
   "properties": {
    "name": "41 WATERVALE BOULEVARD TAYLORS HILL 3037",
    "locID": "LOC000083425443",
    "tech": "FTTN",
    "upgrade": "FTTP_SA",
    "gnaf_pid": "GAVIC420024894"
   }
  },
  {
   "type": "Feature",
   "geometry": {
    "type": "Point",
    "coordinates": [
     144.759157,
     -37.719951
    ]
   },
   "properties": {
    "name": "3 NICHOLSON TERRACE TAYLORS HILL 3037",
    "locID": "LOC000074105023",
    "tech": "FTTN",
    "upgrade": "FTTP_SA",
    "gnaf_pid": "GAVIC420024895"
   }
  },
  {
   "type": "Feature",
   "geometry": {
    "type": "Point",
    "coordinates": [
     144.761861,
     -37.721542
    ]
   },
   "properties": {
    "name": "3 WARANGA WAY TAYLORS HILL 3037",
    "locID": "LOC000081174639",
    "tech": "FTTN",
    "upgrade": "FTTP_SA",
    "gnaf_pid": "GAVIC420024898"
   }
  },
  {
   "type": "Feature",
   "geometry": {
    "type": "Point",
    "coordinates": [
     144.760636,
     -37.718789
    ]
   },
   "properties": {
    "name": "14 CARDINIA CRESCENT TAYLORS HILL 3037",
    "locID": "LOC000016942163",
    "tech": "FTTN",
    "upgrade": "FTTP_SA",
    "gnaf_pid": "GAVIC420028162"
   }
  },
  {
   "type": "Feature",
   "geometry": {
    "type": "Point",
    "coordinates": [
     144.758675,
     -37.722792
    ]
   },
   "properties": {
    "name": "18 BARWON STREET TAYLORS HILL 3037",
    "locID": "LOC000063568740",
    "tech": "FTTP",
    "upgrade": "UNKNOWN",
    "gnaf_pid": "GAVIC420028421"
   }
  },
  {
   "type": "Feature",
   "geometry": {
    "type": "Point",
    "coordinates": [
     144.754002,
     -37.707778
    ]
   },
   "properties": {
    "name": "8 EXHIBITION PARADE TAYLORS HILL 3037",
    "locID": "LOC000037182699",
    "tech": "FTTN",
    "upgrade": "FTTP_SA",
    "gnaf_pid": "GAVIC420028915"
   }
  },
  {
   "type": "Feature",
   "geometry": {
    "type": "Point",
    "coordinates": [
     144.754316,
     -37.707473
    ]
   },
   "properties": {
    "name": "12 EXHIBITION PARADE TAYLORS HILL 3037",
    "locID": "LOC000081373594",
    "tech": "FTTP",
    "upgrade": "UNKNOWN",
    "gnaf_pid": "GAVIC420028918"
   }
  },
  {
   "type": "Feature",
   "geometry": {
    "type": "Point",
    "coordinates": [
     144.75409,
     -37.708474
    ]
   },
   "properties": {
    "name": "6 TAYLORS HILL BOULEVARD TAYLORS HILL 3037",
    "locID": "LOC000095895824",
    "tech": "FTTN",
    "upgrade": "FTTP_SA",
    "gnaf_pid": "GAVIC420028921"
   }
  },
  {
   "type": "Feature",
   "geometry": {
    "type": "Point",
    "coordinates": [
     144.752576,
     -37.70778
    ]
   },
   "properties": {
    "name": "24 TAYLORS HILL BOULEVARD TAYLORS HILL 3037",
    "locID": "LOC000066806957",
    "tech": "FTTN",
    "upgrade": "FTTP_SA",
    "gnaf_pid": "GAVIC420028922"
   }
  },