{
 "type": "FeatureCollection",
 "generated": "2023-10-25T10:26:38.945866",
 "suburb": "TOONGABBIE",
 "features": [
  {
   "type": "Feature",
   "geometry": {
    "type": "Point",
    "coordinates": [
     146.62841011,
     -38.05674814
    ]
   },
   "properties": {
    "name": "35 SPARKS LANE TOONGABBIE 3856",
    "locID": "LOC000125310175",
    "tech": "WIRELESS",
    "upgrade": "NULL_NA",
    "gnaf_pid": "GAVIC412469286"
   }
  },
  {
   "type": "Feature",
   "geometry": {
    "type": "Point",
    "coordinates": [
     146.6105174,
     -38.05293604
    ]
   },
   "properties": {
    "name": "140 HUMPHREY ROAD TOONGABBIE 3856",
    "locID": "LOC000036780309",
    "tech": "WIRELESS",
    "upgrade": "NULL_NA",
    "gnaf_pid": "GAVIC412472699"
   }
  },
  {
   "type": "Feature",
   "geometry": {
    "type": "Point",
    "coordinates": [
     146.63252473,
     -38.02373334
    ]
   },
   "properties": {
    "name": "20 TRAVOYERS ROAD TOONGABBIE 3856",
    "locID": "LOC000106138045",
    "tech": "WIRELESS",
    "upgrade": "NULL_NA",
    "gnaf_pid": "GAVIC412484883"
   }
  },
  {
   "type": "Feature",
   "geometry": {
    "type": "Point",
    "coordinates": [
     146.6252964,
     -38.05616881
    ]
   },
   "properties": {
    "name": "31 VICTORIA STREET TOONGABBIE 3856",
    "locID": "LOC000071772688",
    "tech": "WIRELESS",
    "upgrade": "NULL_NA",
    "gnaf_pid": "GAVIC412484885"
   }
  },
  {
   "type": "Feature",
   "geometry": {
    "type": "Point",
    "coordinates": [
     146.6069864,
     -38.05249168
    ]
   },
   "properties": {
    "name": "170 HUMPHREY ROAD TOONGABBIE 3856",
    "locID": "ChIJL27YhQnfKGsRS9enZiPH540",
    "tech": "WIRELESS",
    "upgrade": "UNKNOWN",
    "gnaf_pid": "GAVIC412484888"
   }
  },
  {
   "type": "Feature",
   "geometry": {
    "type": "Point",
    "coordinates": [
     146.64775113,
     -38.0608135
    ]
   },
   "properties": {
    "name": "1920 TRARALGON-MAFFRA ROAD TOONGABBIE 3856",
    "locID": "LOC000055276151",
    "tech": "SATELLITE",
    "upgrade": "NULL_NA",
    "gnaf_pid": "GAVIC412484889"
   }
  },
  {
   "type": "Feature",
   "geometry": {
    "type": "Point",
    "coordinates": [
     146.61048115,
     -38.05332346
    ]
   },
   "properties": {
    "name": "145 HUMPHREY ROAD TOONGABBIE 3856",
    "locID": "LOC000007027684",
    "tech": "WIRELESS",
    "upgrade": "NULL_NA",
    "gnaf_pid": "GAVIC412485390"
   }
  },
  {
   "type": "Feature",
   "geometry": {
    "type": "Point",
    "coordinates": [
     146.61500695,
     -38.0684077
    ]
   },
   "properties": {
    "name": "245 GUYATTS ROAD TOONGABBIE 3856",
    "locID": "LOC000079922959",
    "tech": "WIRELESS",
    "upgrade": "NULL_NA",
    "gnaf_pid": "GAVIC412485394"
   }
  },
  {
   "type": "Feature",
   "geometry": {
    "type": "Point",
    "coordinates": [
     146.6213732,
     -38.05890613
    ]
   },
   "properties": {
    "name": "23 KING STREET TOONGABBIE 3856",
    "locID": "LOC000114888554",
    "tech": "WIRELESS",
    "upgrade": "NULL_NA",
    "gnaf_pid": "GAVIC412485399"
   }
  },
  {
   "type": "Feature",
   "geometry": {
    "type": "Point",
    "coordinates": [
     146.62238113,
     -38.05385049
    ]
   },
   "properties": {
    "name": "75 KING STREET TOONGABBIE 3856",
    "locID": "LOC000085243882",
    "tech": "WIRELESS",
    "upgrade": "NULL_NA",
    "gnaf_pid": "GAVIC412486822"
   }
  },
  {
   "type": "Feature",
   "geometry": {
    "type": "Point",
    "coordinates": [
     146.62134701,
     -38.05042981
    ]
   },
   "properties": {
    "name": "35 OLD WALHALLA ROAD TOONGABBIE 3856",
    "locID": "ChIJb56T2w_fKGsRbx-bC0C9I4M",
    "tech": "WIRELESS",
    "upgrade": "UNKNOWN",
    "gnaf_pid": "GAVIC412486823"
   }
  },
  {
   "type": "Feature",
   "geometry": {
    "type": "Point",
    "coordinates": [
     146.6224905,
     -38.05330954
    ]
   },
   "properties": {
    "name": "81 KING STREET TOONGABBIE 3856",
    "locID": "LOC000023564242",
    "tech": "WIRELESS",
    "upgrade": "NULL_NA",
    "gnaf_pid": "GAVIC412486824"
   }
  },
  {
   "type": "Feature",
   "geometry": {
    "type": "Point",
    "coordinates": [
     146.6254664,
     -38.04290778
    ]
   },
   "properties": {
    "name": "120 TOONGABBIE-COWWARR ROAD TOONGABBIE 3856",
    "locID": "LOC000017730184",
    "tech": "WIRELESS",
    "upgrade": "NULL_NA",
    "gnaf_pid": "GAVIC412486825"
   }
  },
  {
   "type": "Feature",
   "geometry": {
    "type": "Point",
    "coordinates": [
     146.62626522,
     -38.03908161
    ]
   },
   "properties": {
    "name": "160 TOONGABBIE-COWWARR ROAD TOONGABBIE 3856",
    "locID": "LOC000094147310",
    "tech": "WIRELESS",
    "upgrade": "NULL_NA",
    "gnaf_pid": "GAVIC412489653"
   }
  },
  {
   "type": "Feature",
   "geometry": {
    "type": "Point",
    "coordinates": [
     146.61637855,
     -38.06772721
    ]
   },
   "properties": {
    "name": "1595 TRARALGON-MAFFRA ROAD TOONGABBIE 3856",
    "locID": "LOC000060394538",
    "tech": "WIRELESS",
    "upgrade": "NULL_NA",
    "gnaf_pid": "GAVIC412490430"
   }
  },
  {
   "type": "Feature",
   "geometry": {
    "type": "Point",
    "coordinates": [
     146.62872008,
     -38.06432057
    ]
   },
   "properties": {
    "name": "2 HEYWOOD STREET TOONGABBIE 3856",
    "locID": "LOC000029400989",
    "tech": "WIRELESS",
    "upgrade": "NULL_NA",
    "gnaf_pid": "GAVIC412492994"
   }
  },
  {
   "type": "Feature",
   "geometry": {
    "type": "Point",
    "coordinates": [
     146.62873222,
     -38.05751729
    ]
   },
   "properties": {
    "name": "20 SPARKS LANE TOONGABBIE 3856",
    "locID": "LOC000007204023",
    "tech": "WIRELESS",
    "upgrade": "NULL_NA",
    "gnaf_pid": "GAVIC412494100"
   }
  },
  {
   "type": "Feature",
   "geometry": {
    "type": "Point",
    "coordinates": [
     146.63648624,
     -38.05900369
    ]
   },
   "properties": {
    "name": "1815 TRARALGON-MAFFRA ROAD TOONGABBIE 3856",
    "locID": "LOC000101472885",
    "tech": "WIRELESS",
    "upgrade": "NULL_NA",
    "gnaf_pid": "GAVIC412494101"
   }
  },
  {
   "type": "Feature",
   "geometry": {
    "type": "Point",
    "coordinates": [
     146.6262236,
     -38.05896207
    ]
   },
   "properties": {
    "name": "7B GOODWIN STREET TOONGABBIE 3856",
    "locID": "ChIJ_QToHRXfKGsR5j3auxF0A-k",
    "tech": "WIRELESS",
    "upgrade": "UNKNOWN",
    "gnaf_pid": "GAVIC412494103"
   }
  },
  {
   "type": "Feature",
   "geometry": {
    "type": "Point",
    "coordinates": [
     146.61966371,
     -38.05943722
    ]
   },
   "properties": {
    "name": "10 HUMPHREY ROAD TOONGABBIE 3856",
    "locID": "ChIJmW8nFm3fKGsRXAGNQnofoAA",
    "tech": "WIRELESS",
    "upgrade": "UNKNOWN",
    "gnaf_pid": "GAVIC412495282"
   }
  },
  {
   "type": "Feature",
   "geometry": {
    "type": "Point",
    "coordinates": [
     146.64054687,
     -38.0214025
    ]
   },
   "properties": {
    "name": "4 HILLIER LANE TOONGABBIE 3856",
    "locID": "ChIJs-ywmLDeKGsR74jEa1OjTmE",
    "tech": "WIRELESS",
    "upgrade": "UNKNOWN",
    "gnaf_pid": "GAVIC412495285"
   }
  },
  {
   "type": "Feature",
   "geometry": {
    "type": "Point",
    "coordinates": [
     146.62257944,
     -38.05754156
    ]
   },
   "properties": {
    "name": "2 STEWART STREET TOONGABBIE 3856",
    "locID": "LOC000125305826",
    "tech": "WIRELESS",
    "upgrade": "NULL_NA",
    "gnaf_pid": "GAVIC412501399"
   }
  },
  {
   "type": "Feature",
   "geometry": {
    "type": "Point",
    "coordinates": [
     146.62227174,
     -38.05439153
    ]
   },
   "properties": {
    "name": "69 KING STREET TOONGABBIE 3856",
    "locID": "LOC000106757146",
    "tech": "WIRELESS",
    "upgrade": "NULL_NA",
    "gnaf_pid": "GAVIC412504233"
   }
  },
  {
   "type": "Feature",
   "geometry": {
    "type": "Point",
    "coordinates": [
     146.62608484,
     -38.05798765
    ]
   },
   "properties": {
    "name": "24 STEWART STREET TOONGABBIE 3856",
    "locID": "LOC000125305890",
    "tech": "WIRELESS",
    "upgrade": "NULL_NA",
    "gnaf_pid": "GAVIC412504237"
   }
  },
  {
   "type": "Feature",
   "geometry": {
    "type": "Point",
    "coordinates": [
     146.63227406,
     -38.03057328
    ]
   },
   "properties": {
    "name": "275 TOONGABBIE-COWWARR ROAD TOONGABBIE 3856",
    "locID": "LOC000081284804",
    "tech": "WIRELESS",
    "upgrade": "NULL_NA",
    "gnaf_pid": "GAVIC412504238"
   }
  },
  {
   "type": "Feature",
   "geometry": {
    "type": "Point",
    "coordinates": [
     146.62517695,
     -38.0324796
    ]
   },
   "properties": {
    "name": "70 HILSLEY COURT TOONGABBIE 3856",
    "locID": "LOC000040619608",
    "tech": "WIRELESS",
    "upgrade": "NULL_NA",
    "gnaf_pid": "GAVIC412504240"
   }
  },
  {
   "type": "Feature",
   "geometry": {
    "type": "Point",
    "coordinates": [
     146.64190605,
     -38.00876493
    ]
   },
   "properties": {
    "name": "125 COWWARR-WALHALLA ROAD TOONGABBIE 3856",
    "locID": "ChIJdQMuL6jeKGsRGxUgsYTrjho",
    "tech": "WIRELESS",
    "upgrade": "UNKNOWN",
    "gnaf_pid": "GAVIC412507200"
   }
  },
  {
   "type": "Feature",
   "geometry": {
    "type": "Point",
    "coordinates": [
     146.6309339,
     -38.0707839
    ]
   },
   "properties": {
    "name": "66 HENDERSONS ROAD TOONGABBIE 3856",
    "locID": "LOC000185091120",
    "tech": "WIRELESS",
    "upgrade": "NULL_NA",
    "gnaf_pid": "GAVIC412507201"
   }
  },
  {
   "type": "Feature",
   "geometry": {
    "type": "Point",
    "coordinates": [
     146.63131965,
     -38.03230075
    ]
   },
   "properties": {
    "name": "260 TOONGABBIE-COWWARR ROAD TOONGABBIE 3856",
    "locID": "LOC000012045209",
    "tech": "WIRELESS",
    "upgrade": "NULL_NA",
    "gnaf_pid": "GAVIC412507202"
   }
  },
  {
   "type": "Feature",
   "geometry": {
    "type": "Point",
    "coordinates": [
     146.63219959,
     -38.0272383
    ]
   },
   "properties": {
    "name": "30 SHEILA COURT TOONGABBIE 3856",
    "locID": "LOC000051735607",
    "tech": "WIRELESS",
    "upgrade": "NULL_NA",
    "gnaf_pid": "GAVIC412507672"
   }
  },
  {
   "type": "Feature",
   "geometry": {
    "type": "Point",
    "coordinates": [
     146.62739935,
     -38.06293885
    ]
   },
   "properties": {
    "name": "3 RIES STREET TOONGABBIE 3856",
    "locID": "LOC000082519289",
    "tech": "WIRELESS",
    "upgrade": "NULL_NA",
    "gnaf_pid": "GAVIC412507674"
   }
  },
  {
   "type": "Feature",
   "geometry": {
    "type": "Point",
    "coordinates": [
     146.62521105,
     -38.0347329
    ]
   },
   "properties": {
    "name": "10 RESERVOIR ROAD TOONGABBIE 3856",
    "locID": "LOC000073161109",
    "tech": "WIRELESS",
    "upgrade": "NULL_NA",
    "gnaf_pid": "GAVIC412507892"
   }
  },
  {
   "type": "Feature",
   "geometry": {
    "type": "Point",
    "coordinates": [
     146.59822768,
     -38.05342643
    ]
   },
   "properties": {
    "name": "245 HUMPHREY ROAD TOONGABBIE 3856",
    "locID": "LOC000081236001",
    "tech": "WIRELESS",
    "upgrade": "NULL_NA",
    "gnaf_pid": "GAVIC412519351"
   }
  },
  {
   "type": "Feature",
   "geometry": {
    "type": "Point",
    "coordinates": [
     146.61693013,
     -38.06689084
    ]
   },
   "properties": {
    "name": "1605 TRARALGON-MAFFRA ROAD TOONGABBIE 3856",
    "locID": "LOC000058069241",
    "tech": "WIRELESS",
    "upgrade": "NULL_NA",
    "gnaf_pid": "GAVIC412519353"
   }
  },
  {
   "type": "Feature",
   "geometry": {
    "type": "Point",
    "coordinates": [
     146.62673681,
     -38.0579518
    ]
   },
   "properties": {
    "name": "LOT 1 GOODWIN STREET TOONGABBIE 3856",
    "locID": "LOC000114179617",
    "tech": "WIRELESS",
    "upgrade": "NULL_NA",
    "gnaf_pid": "GAVIC412675274"
   }
  },
  {
   "type": "Feature",
   "geometry": {
    "type": "Point",
    "coordinates": [
     146.63309608,
     -38.02745569
    ]
   },
   "properties": {
    "name": "LOT 16 SHEILA COURT TOONGABBIE 3856",
    "locID": "EiwxNiBTaGVpbGEgQ3QsIFRvb25nYWJiaWUgVklDIDM4NTYsIEF1c3RyYWxpYSIwEi4KFAoSCYOCqgzB3ihrEbRq-dBaUBZ7EBAqFAoSCYOCqgzB3ihrERAmYRww-uWU",
    "tech": "WIRELESS",
    "upgrade": "UNKNOWN",
    "gnaf_pid": "GAVIC412675279"
   }
  },
  {
   "type": "Feature",
   "geometry": {
    "type": "Point",
    "coordinates": [
     146.63197991,
     -38.02464615
    ]
   },
   "properties": {
    "name": "LOT 22 TRAVOYERS ROAD TOONGABBIE 3856",
    "locID": "Ei8yMiBUcmF2b3llcnMgUmQsIFRvb25nYWJiaWUgVklDIDM4NTYsIEF1c3RyYWxpYSIwEi4KFAoSCUH3by_A3ihrEeFjIC5LDqSAEBYqFAoSCUH3by_A3ihrERjIy5Ybv1wb",
    "tech": "WIRELESS",
    "upgrade": "UNKNOWN",
    "gnaf_pid": "GAVIC412675282"
   }
  },
  {
   "type": "Feature",
   "geometry": {
    "type": "Point",
    "coordinates": [
     146.63309608,
     -38.02745569
    ]
   },
   "properties": {
    "name": "LOT 18 SHEILA COURT TOONGABBIE 3856",
    "locID": "EiwxOCBTaGVpbGEgQ3QsIFRvb25nYWJiaWUgVklDIDM4NTYsIEF1c3RyYWxpYSIwEi4KFAoSCYOCqgzB3ihrEbRq-dBaUBZ7EBIqFAoSCYOCqgzB3ihrERAmYRww-uWU",
    "tech": "WIRELESS",
    "upgrade": "UNKNOWN",
    "gnaf_pid": "GAVIC412675292"
   }
  },
  {
   "type": "Feature",
   "geometry": {
    "type": "Point",
    "coordinates": [
     146.63309608,
     -38.02745569
    ]
   },
   "properties": {
    "name": "LOT 15 SHEILA COURT TOONGABBIE 3856",
    "locID": "EiwxNSBTaGVpbGEgQ3QsIFRvb25nYWJiaWUgVklDIDM4NTYsIEF1c3RyYWxpYSIwEi4KFAoSCYOCqgzB3ihrEbRq-dBaUBZ7EA8qFAoSCYOCqgzB3ihrERAmYRww-uWU",
    "tech": "WIRELESS",
    "upgrade": "UNKNOWN",
    "gnaf_pid": "GAVIC412675301"
   }
  },
  {
   "type": "Feature",
   "geometry": {
    "type": "Point",
    "coordinates": [
     146.59686757,
     -38.03145605
    ]
   },
   "properties": {
    "name": "LOT 1 OLD WALHALLA ROAD TOONGABBIE 3856",
    "locID": "LOC000048838626",
    "tech": "WIRELESS",
    "upgrade": "NULL_NA",
    "gnaf_pid": "GAVIC412675306"
   }
  },
  {
   "type": "Feature",
   "geometry": {
    "type": "Point",
    "coordinates": [
     146.62673681,
     -38.0579518
    ]
   },
   "properties": {
    "name": "LOT 7 GOODWIN STREET TOONGABBIE 3856",
    "locID": "ChIJ_QToHRXfKGsRu4iZ_M-po7Q",
    "tech": "WIRELESS",
    "upgrade": "UNKNOWN",
    "gnaf_pid": "GAVIC412677414"
   }
  },
  {
   "type": "Feature",
   "geometry": {
    "type": "Point",
    "coordinates": [
     146.62954663,
     -38.05792927
    ]
   },
   "properties": {
    "name": "LOT 6 CAMPBELL STREET TOONGABBIE 3856",
    "locID": "LOC000010227380",
    "tech": "WIRELESS",
    "upgrade": "NULL_NA",
    "gnaf_pid": "GAVIC412677418"
   }
  },
  {
   "type": "Feature",
   "geometry": {
    "type": "Point",
    "coordinates": [
     146.63197991,
     -38.02464615
    ]
   },
   "properties": {
    "name": "LOT 24 TRAVOYERS ROAD TOONGABBIE 3856",
    "locID": "Ei8yNCBUcmF2b3llcnMgUmQsIFRvb25nYWJiaWUgVklDIDM4NTYsIEF1c3RyYWxpYSIwEi4KFAoSCUH3by_A3ihrEeFjIC5LDqSAEBgqFAoSCUH3by_A3ihrERjIy5Ybv1wb",
    "tech": "WIRELESS",
    "upgrade": "UNKNOWN",
    "gnaf_pid": "GAVIC412677477"
   }
  },
  {
   "type": "Feature",
   "geometry": {
    "type": "Point",
    "coordinates": [
     146.62611913,
     -38.05348402
    ]
   },
   "properties": {
    "name": "LOT 8 HILL STREET TOONGABBIE 3856",
    "locID": "LOC000003568961",
    "tech": "WIRELESS",
    "upgrade": "NULL_NA",
    "gnaf_pid": "GAVIC412677488"
   }
  },
  {
   "type": "Feature",
   "geometry": {
    "type": "Point",
    "coordinates": [
     146.61334548,
     -38.06834582
    ]
   },
   "properties": {
    "name": "LOT 80 GUYATTS ROAD TOONGABBIE 3856",
    "locID": "Ei04MCBHdXlhdHRzIFJkLCBUb29uZ2FiYmllIFZJQyAzODU2LCBBdXN0cmFsaWEiMBIuChQKEgmX4C0Ygt8oaxG0oywAEYzdOhBQKhQKEglPa3ifTt8oaxEjzsF3VT7tgg",
    "tech": "WIRELESS",
    "upgrade": "UNKNOWN",
    "gnaf_pid": "GAVIC412677516"
   }
  },
  {
   "type": "Feature",
   "geometry": {
    "type": "Point",
    "coordinates": [
     146.62611913,
     -38.05348402
    ]
   },
   "properties": {
    "name": "LOT 2 HILL STREET TOONGABBIE 3856",
    "locID": "LOC000085491137",
    "tech": "WIRELESS",
    "upgrade": "NULL_NA",
    "gnaf_pid": "GAVIC412677535"
   }
  },
  {
   "type": "Feature",
   "geometry": {
    "type": "Point",
    "coordinates": [
     146.63197991,
     -38.02464615
    ]
   },
   "properties": {
    "name": "LOT 9 TRAVOYERS ROAD TOONGABBIE 3856",
    "locID": "Ei45IFRyYXZveWVycyBSZCwgVG9vbmdhYmJpZSBWSUMgMzg1NiwgQXVzdHJhbGlhIjASLgoUChIJQfdvL8DeKGsR4GMgLksOpIAQCSoUChIJQfdvL8DeKGsRGMjLlhu_XBs",
    "tech": "WIRELESS",
    "upgrade": "UNKNOWN",
    "gnaf_pid": "GAVIC412677558"
   }
  },
  {
   "type": "Feature",
   "geometry": {
    "type": "Point",
    "coordinates": [
     146.66071906,
     -38.08502422
    ]
   },
   "properties": {
    "name": "LOT 2 HENDERSONS ROAD TOONGABBIE 3856",
    "locID": "LOC000017059038",
    "tech": "SATELLITE",
    "upgrade": "NULL_NA",
    "gnaf_pid": "GAVIC412679757"
   }
  },
  {
   "type": "Feature",
   "geometry": {
    "type": "Point",
    "coordinates": [
     146.62558045,
     -38.02196666
    ]
   },
   "properties": {
    "name": "LOT 7 WYKES ROAD TOONGABBIE 3856",
    "locID": "Eio3IFd5a2VzIFJkLCBUb29uZ2FiYmllIFZJQyAzODU2LCBBdXN0cmFsaWEiMBIuChQKEglBTyjalN4oaxEyWc395Jwf7hAHKhQKEglBTyjalN4oaxEk_a5Gaq_T_A",
    "tech": "WIRELESS",
    "upgrade": "UNKNOWN",
    "gnaf_pid": "GAVIC412679761"
   }
  },
  {
   "type": "Feature",
   "geometry": {
    "type": "Point",
    "coordinates": [
     146.63309608,
     -38.02745569
    ]
   },
   "properties": {
    "name": "LOT 17 SHEILA COURT TOONGABBIE 3856",
    "locID": "EiwxNyBTaGVpbGEgQ3QsIFRvb25nYWJiaWUgVklDIDM4NTYsIEF1c3RyYWxpYSIwEi4KFAoSCYOCqgzB3ihrEbRq-dBaUBZ7EBEqFAoSCYOCqgzB3ihrERAmYRww-uWU",
    "tech": "WIRELESS",
    "upgrade": "UNKNOWN",
    "gnaf_pid": "GAVIC412679795"
   }
  },
  {
   "type": "Feature",
   "geometry": {
    "type": "Point",
    "coordinates": [
     146.63197991,
     -38.02464615
    ]
   },
   "properties": {
    "name": "LOT 23 TRAVOYERS ROAD TOONGABBIE 3856",
    "locID": "Ei8yMyBUcmF2b3llcnMgUmQsIFRvb25nYWJiaWUgVklDIDM4NTYsIEF1c3RyYWxpYSIwEi4KFAoSCUH3by_A3ihrEeBjIC5LDqSAEBcqFAoSCUH3by_A3ihrERjIy5Ybv1wb",
    "tech": "WIRELESS",
    "upgrade": "UNKNOWN",
    "gnaf_pid": "GAVIC412679814"
   }
  },
  {
   "type": "Feature",
   "geometry": {
    "type": "Point",
    "coordinates": [
     146.63309608,
     -38.02745569
    ]
   },
   "properties": {
    "name": "LOT 13 SHEILA COURT TOONGABBIE 3856",
    "locID": "EiwxMyBTaGVpbGEgQ3QsIFRvb25nYWJiaWUgVklDIDM4NTYsIEF1c3RyYWxpYSIwEi4KFAoSCYOCqgzB3ihrEbRq-dBaUBZ7EA0qFAoSCYOCqgzB3ihrERAmYRww-uWU",
    "tech": "WIRELESS",
    "upgrade": "UNKNOWN",
    "gnaf_pid": "GAVIC412681807"
   }
  },
  {
   "type": "Feature",
   "geometry": {
    "type": "Point",
    "coordinates": [
     146.62739935,
     -38.06293885
    ]
   },
   "properties": {
    "name": "2 RIES STREET TOONGABBIE 3856",
    "locID": "ChIJgzuD9GrfKGsRjC7HBmQsQfg",
    "tech": "WIRELESS",
    "upgrade": "UNKNOWN",
    "gnaf_pid": "GAVIC414703705"
   }
  },
  {
   "type": "Feature",
   "geometry": {
    "type": "Point",
    "coordinates": [
     146.62739935,
     -38.06293885
    ]
   },
   "properties": {
    "name": "4 RIES STREET TOONGABBIE 3856",
    "locID": "ChIJgzuD9GrfKGsR2ZQ_8rb7Nto",
    "tech": "WIRELESS",
    "upgrade": "UNKNOWN",
    "gnaf_pid": "GAVIC414703707"
   }
  },
  {
   "type": "Feature",
   "geometry": {
    "type": "Point",
    "coordinates": [
     146.62739935,
     -38.06293885
    ]
   },
   "properties": {
    "name": "5 RIES STREET TOONGABBIE 3856",
    "locID": "ChIJgzuD9GrfKGsR55Ykaq9WG4w",
    "tech": "WIRELESS",
    "upgrade": "UNKNOWN",
    "gnaf_pid": "GAVIC414703708"
   }
  },
  {
   "type": "Feature",
   "geometry": {
    "type": "Point",
    "coordinates": [
     146.62739935,
     -38.06293885
    ]
   },
   "properties": {
    "name": "6 RIES STREET TOONGABBIE 3856",
    "locID": "ChIJgzuD9GrfKGsReV28t-tCbRM",
    "tech": "WIRELESS",
    "upgrade": "UNKNOWN",
    "gnaf_pid": "GAVIC414703709"
   }
  },
  {
   "type": "Feature",
   "geometry": {
    "type": "Point",
    "coordinates": [
     146.62739935,
     -38.06293885
    ]
   },
   "properties": {
    "name": "7 RIES STREET TOONGABBIE 3856",
    "locID": "ChIJgzuD9GrfKGsRSWayn4lnabY",
    "tech": "WIRELESS",
    "upgrade": "UNKNOWN",
    "gnaf_pid": "GAVIC414703710"
   }
  },
  {
   "type": "Feature",
   "geometry": {
    "type": "Point",
    "coordinates": [
     146.62739935,
     -38.06293885
    ]
   },
   "properties": {
    "name": "8 RIES STREET TOONGABBIE 3856",
    "locID": "ChIJgzuD9GrfKGsRpw8i_SnT2ug",
    "tech": "WIRELESS",
    "upgrade": "UNKNOWN",
    "gnaf_pid": "GAVIC414703711"
   }
  },
  {
   "type": "Feature",
   "geometry": {
    "type": "Point",
    "coordinates": [
     146.62739935,
     -38.06293885
    ]
   },
   "properties": {
    "name": "9 RIES STREET TOONGABBIE 3856",
    "locID": "ChIJgzuD9GrfKGsR7mv4qIrzlZE",
    "tech": "WIRELESS",
    "upgrade": "UNKNOWN",
    "gnaf_pid": "GAVIC414717333"
   }
  },
  {
   "type": "Feature",
   "geometry": {
    "type": "Point",
    "coordinates": [
     146.62739935,
     -38.06293885
    ]
   },
   "properties": {
    "name": "10 RIES STREET TOONGABBIE 3856",
    "locID": "ChIJg_6E9GrfKGsRNxRLW4dY-E8",
    "tech": "WIRELESS",
    "upgrade": "UNKNOWN",
    "gnaf_pid": "GAVIC414717334"
   }
  },
  {
   "type": "Feature",
   "geometry": {
    "type": "Point",
    "coordinates": [
     146.615807,
     -38.06147951
    ]
   },
   "properties": {
    "name": "50 NICHOLSONS ROAD TOONGABBIE 3856",
    "locID": "LOC000081712556",
    "tech": "WIRELESS",
    "upgrade": "NULL_NA",
    "gnaf_pid": "GAVIC419670541"
   }
  },
  {
   "type": "Feature",
   "geometry": {
    "type": "Point",
    "coordinates": [
     146.62402112,
     -38.06019022
    ]
   },
   "properties": {
    "name": "43 MAIN STREET TOONGABBIE 3856",
    "locID": "LOC000018459430",
    "tech": "WIRELESS",
    "upgrade": "NULL_NA",
    "gnaf_pid": "GAVIC419670543"
   }
  },
  {
   "type": "Feature",
   "geometry": {
    "type": "Point",
    "coordinates": [
     146.62297696,
     -38.06638036
    ]
   },
   "properties": {
    "name": "9-17 HOWER STREET TOONGABBIE 3856",
    "locID": "LOC000081980373",
    "tech": "WIRELESS",
    "upgrade": "NULL_NA",
    "gnaf_pid": "GAVIC419670546"
   }
  },
  {
   "type": "Feature",
   "geometry": {
    "type": "Point",
    "coordinates": [
     146.62810031,
     -38.05827231
    ]
   },
   "properties": {
    "name": "19 SPARKS LANE TOONGABBIE 3856",
    "locID": "LOC000086401781",
    "tech": "WIRELESS",
    "upgrade": "NULL_NA",
    "gnaf_pid": "GAVIC419670547"
   }
  },
  {
   "type": "Feature",
   "geometry": {
    "type": "Point",
    "coordinates": [
     146.62535675,
     -38.0584807
    ]
   },
   "properties": {
    "name": "12 VICTORIA STREET TOONGABBIE 3856",
    "locID": "LOC000073690949",
    "tech": "WIRELESS",
    "upgrade": "NULL_NA",
    "gnaf_pid": "GAVIC419670549"
   }
  },
  {
   "type": "Feature",
   "geometry": {
    "type": "Point",
    "coordinates": [
     146.62707789,
     -38.05387621
    ]
   },
   "properties": {
    "name": "24-26 HILL STREET TOONGABBIE 3856",
    "locID": "LOC000049316119",
    "tech": "WIRELESS",
    "upgrade": "NULL_NA",
    "gnaf_pid": "GAVIC419670550"
   }
  },
  {
   "type": "Feature",
   "geometry": {
    "type": "Point",
    "coordinates": [
     146.62850135,
     -38.05892723
    ]
   },
   "properties": {
    "name": "10-12 SPARKS LANE TOONGABBIE 3856",
    "locID": "ChIJw4jqeBXfKGsRVtG2xihh-YU",
    "tech": "WIRELESS",
    "upgrade": "UNKNOWN",
    "gnaf_pid": "GAVIC419670551"
   }
  },
  {
   "type": "Feature",
   "geometry": {
    "type": "Point",
    "coordinates": [
     146.62654629,
     -38.0575238
    ]
   },
   "properties": {
    "name": "19-21 GOODWIN STREET TOONGABBIE 3856",
    "locID": "ChIJ8ZGQsRXfKGsRodLbvmwtddA",
    "tech": "WIRELESS",
    "upgrade": "UNKNOWN",
    "gnaf_pid": "GAVIC419670552"
   }
  },
  {
   "type": "Feature",
   "geometry": {
    "type": "Point",
    "coordinates": [
     146.62588655,
     -38.05595758
    ]
   },
   "properties": {
    "name": "36-38 VICTORIA STREET TOONGABBIE 3856",
    "locID": "LOC000125310199",
    "tech": "WIRELESS",
    "upgrade": "NULL_NA",
    "gnaf_pid": "GAVIC419670553"
   }
  },
  {
   "type": "Feature",
   "geometry": {
    "type": "Point",
    "coordinates": [
     146.62837376,
     -38.05692889
    ]
   },
   "properties": {
    "name": "33 SPARKS LANE TOONGABBIE 3856",
    "locID": "LOC000092246978",
    "tech": "WIRELESS",
    "upgrade": "NULL_NA",
    "gnaf_pid": "GAVIC419670554"
   }
  },
  {
   "type": "Feature",
   "geometry": {
    "type": "Point",
    "coordinates": [
     146.62878421,
     -38.05486305
    ]
   },
   "properties": {
    "name": "55 SPARKS LANE TOONGABBIE 3856",
    "locID": "LOC000013016445",
    "tech": "WIRELESS",
    "upgrade": "NULL_NA",
    "gnaf_pid": "GAVIC419670555"
   }
  },
  {
   "type": "Feature",
   "geometry": {
    "type": "Point",
    "coordinates": [
     146.62674389,
     -38.05552879
    ]
   },
   "properties": {
    "name": "23-25 HAZEL STREET TOONGABBIE 3856",
    "locID": "LOC000125305861",
    "tech": "WIRELESS",
    "upgrade": "NULL_NA",
    "gnaf_pid": "GAVIC419670587"
   }
  },
  {
   "type": "Feature",
   "geometry": {
    "type": "Point",
    "coordinates": [
     146.62610148,
     -38.0548833
    ]
   },
   "properties": {
    "name": "46 VICTORIA STREET TOONGABBIE 3856",
    "locID": "LOC000067981742",
    "tech": "WIRELESS",
    "upgrade": "NULL_NA",
    "gnaf_pid": "GAVIC419670588"
   }
  },
  {
   "type": "Feature",
   "geometry": {
    "type": "Point",
    "coordinates": [
     146.62620933,
     -38.05434624
    ]
   },
   "properties": {
    "name": "52 VICTORIA STREET TOONGABBIE 3856",
    "locID": "LOC000079770634",
    "tech": "WIRELESS",
    "upgrade": "NULL_NA",
    "gnaf_pid": "GAVIC419670589"
   }
  },
  {
   "type": "Feature",
   "geometry": {
    "type": "Point",
    "coordinates": [
     146.62313184,
     -38.05450239
    ]
   },
   "properties": {
    "name": "54 KING STREET TOONGABBIE 3856",
    "locID": "LOC000062543562",
    "tech": "WIRELESS",
    "upgrade": "NULL_NA",
    "gnaf_pid": "GAVIC419670590"
   }
  },
  {
   "type": "Feature",
   "geometry": {
    "type": "Point",
    "coordinates": [
     146.62323945,
     -38.05396676
    ]
   },
   "properties": {
    "name": "60 KING STREET TOONGABBIE 3856",
    "locID": "LOC000097136281",
    "tech": "WIRELESS",
    "upgrade": "NULL_NA",
    "gnaf_pid": "GAVIC419671429"
   }
  },
  {
   "type": "Feature",
   "geometry": {
    "type": "Point",
    "coordinates": [
     146.62909365,
     -38.05576232
    ]
   },
   "properties": {
    "name": "38-54 SPARKS LANE TOONGABBIE 3856",
    "locID": "LOC000080578571",
    "tech": "WIRELESS",
    "upgrade": "NULL_NA",
    "gnaf_pid": "GAVIC419671430"
   }
  },
  {
   "type": "Feature",
   "geometry": {
    "type": "Point",
    "coordinates": [
     146.63116525,
     -38.05763572
    ]
   },
   "properties": {
    "name": "19-25 CAMPBELL STREET TOONGABBIE 3856",
    "locID": "ChIJJdGZfz7fKGsRcTHYtJaakos",
    "tech": "WIRELESS",
    "upgrade": "UNKNOWN",
    "gnaf_pid": "GAVIC419671431"
   }
  },
  {
   "type": "Feature",
   "geometry": {
    "type": "Point",
    "coordinates": [
     146.63224347,
     -38.05752848
    ]
   },
   "properties": {
    "name": "27-33 CAMPBELL STREET TOONGABBIE 3856",
    "locID": "LOC000057626920",
    "tech": "WIRELESS",
    "upgrade": "NULL_NA",
    "gnaf_pid": "GAVIC419671432"
   }
  },
  {
   "type": "Feature",
   "geometry": {
    "type": "Point",
    "coordinates": [
     146.60878174,
     -38.06209625
    ]
   },
   "properties": {
    "name": "65 HARRIS LANE TOONGABBIE 3856",
    "locID": "LOC000039183329",
    "tech": "WIRELESS",
    "upgrade": "NULL_NA",
    "gnaf_pid": "GAVIC419677387"
   }
  },
  {
   "type": "Feature",
   "geometry": {
    "type": "Point",
    "coordinates": [
     146.62521243,
     -38.05919863
    ]
   },
   "properties": {
    "name": "4 VICTORIA STREET TOONGABBIE 3856",
    "locID": "LOC000072044220",
    "tech": "WIRELESS",
    "upgrade": "NULL_NA",
    "gnaf_pid": "GAVIC419756774"
   }
  },
  {
   "type": "Feature",
   "geometry": {
    "type": "Point",
    "coordinates": [
     146.6180499,
     -38.05947677
    ]
   },
   "properties": {
    "name": "10 PAGE LANE TOONGABBIE 3856",
    "locID": "LOC000038445716",
    "tech": "WIRELESS",
    "upgrade": "NULL_NA",
    "gnaf_pid": "GAVIC419765889"
   }
  },
  {
   "type": "Feature",
   "geometry": {
    "type": "Point",
    "coordinates": [
     146.62150206,
     -38.06160416
    ]
   },
   "properties": {
    "name": "29 MAIN STREET TOONGABBIE 3856",
    "locID": "LOC000019502278",
    "tech": "WIRELESS",
    "upgrade": "NULL_NA",
    "gnaf_pid": "GAVIC419765891"
   }
  },
  {
   "type": "Feature",
   "geometry": {
    "type": "Point",
    "coordinates": [
     146.62369328,
     -38.06500677
    ]
   },
   "properties": {
    "name": "11 SEMMENS STREET TOONGABBIE 3856",
    "locID": "LOC000092054032",
    "tech": "WIRELESS",
    "upgrade": "NULL_NA",
    "gnaf_pid": "GAVIC419765892"
   }
  },
  {
   "type": "Feature",
   "geometry": {
    "type": "Point",
    "coordinates": [
     146.62688728,
     -38.06426066
    ]
   },
   "properties": {
    "name": "13 RIES STREET TOONGABBIE 3856",
    "locID": "LOC000082519289",
    "tech": "WIRELESS",
    "upgrade": "NULL_NA",
    "gnaf_pid": "GAVIC419765893"
   }
  },
  {
   "type": "Feature",
   "geometry": {
    "type": "Point",
    "coordinates": [
     146.623355,
     -38.065542
    ]
   },
   "properties": {
    "name": "7 SEMMENS STREET TOONGABBIE 3856",
    "locID": "LOC000181037908",
    "tech": "WIRELESS",
    "upgrade": "NULL_NA",
    "gnaf_pid": "GAVIC419765895"
   }
  },
  {
   "type": "Feature",
   "geometry": {
    "type": "Point",
    "coordinates": [
     146.6248904,
     -38.0578362
    ]
   },
   "properties": {
    "name": "18 STEWART STREET TOONGABBIE 3856",
    "locID": "LOC000113249717",
    "tech": "WIRELESS",
    "upgrade": "NULL_NA",
    "gnaf_pid": "GAVIC419765896"
   }
  },
  {
   "type": "Feature",
   "geometry": {
    "type": "Point",
    "coordinates": [
     146.62429519,
     -38.05622525
    ]
   },
   "properties": {
    "name": "12 SCOTT STREET TOONGABBIE 3856",
    "locID": "LOC000044566453",
    "tech": "WIRELESS",
    "upgrade": "NULL_NA",
    "gnaf_pid": "GAVIC419765897"
   }
  },
  {
   "type": "Feature",
   "geometry": {
    "type": "Point",
    "coordinates": [
     146.6245367,
     -38.05524608
    ]
   },
   "properties": {
    "name": "11 HAZEL STREET TOONGABBIE 3856",
    "locID": "LOC000083405806",
    "tech": "WIRELESS",
    "upgrade": "NULL_NA",
    "gnaf_pid": "GAVIC419765898"
   }
  },
  {
   "type": "Feature",
   "geometry": {
    "type": "Point",
    "coordinates": [
     146.62482245,
     -38.05528166
    ]
   },
   "properties": {
    "name": "13 HAZEL STREET TOONGABBIE 3856",
    "locID": "LOC000109807355",
    "tech": "WIRELESS",
    "upgrade": "NULL_NA",
    "gnaf_pid": "GAVIC419765899"
   }
  },
  {
   "type": "Feature",
   "geometry": {
    "type": "Point",
    "coordinates": [
     146.62517474,
     -38.05362824
    ]
   },
   "properties": {
    "name": "14 HILL STREET TOONGABBIE 3856",
    "locID": "LOC000085491137",
    "tech": "WIRELESS",
    "upgrade": "NULL_NA",
    "gnaf_pid": "GAVIC419776974"
   }
  },
  {
   "type": "Feature",
   "geometry": {
    "type": "Point",
    "coordinates": [
     146.63460359,
     -38.0226763
    ]
   },
   "properties": {
    "name": "45 FOXS ROAD TOONGABBIE 3856",
    "locID": "ChIJd0Aa1b7eKGsRmRPD3XbsZf4",
    "tech": "WIRELESS",
    "upgrade": "UNKNOWN",
    "gnaf_pid": "GAVIC419785483"
   }
  },
  {
   "type": "Feature",
   "geometry": {
    "type": "Point",
    "coordinates": [
     146.6280283,
     -38.05864065
    ]
   },
   "properties": {
    "name": "15 SPARKS LANE TOONGABBIE 3856",
    "locID": "LOC000115860666",
    "tech": "WIRELESS",
    "upgrade": "NULL_NA",
    "gnaf_pid": "GAVIC419965271"
   }
  },
  {
   "type": "Feature",
   "geometry": {
    "type": "Point",
    "coordinates": [
     146.6280639,
     -38.0584586
    ]
   },
   "properties": {
    "name": "17 SPARKS LANE TOONGABBIE 3856",
    "locID": "LOC100077376049",
    "tech": "WIRELESS",
    "upgrade": "NULL_NA",
    "gnaf_pid": "GAVIC419965272"
   }
  },
  {
   "type": "Feature",
   "geometry": {
    "type": "Point",
    "coordinates": [
     146.62237249,
     -38.05827775
    ]
   },
   "properties": {
    "name": "18 KING STREET TOONGABBIE 3856",
    "locID": "LOC000107813148",
    "tech": "WIRELESS",
    "upgrade": "NULL_NA",
    "gnaf_pid": "GAVIC419965274"
   }
  },
  {
   "type": "Feature",
   "geometry": {
    "type": "Point",
    "coordinates": [
     146.62788841,
     -38.059356
    ]
   },
   "properties": {
    "name": "7 SPARKS LANE TOONGABBIE 3856",
    "locID": "LOC000021899523",
    "tech": "WIRELESS",
    "upgrade": "NULL_NA",
    "gnaf_pid": "GAVIC419965275"
   }
  },
  {
   "type": "Feature",
   "geometry": {
    "type": "Point",
    "coordinates": [
     146.62328405,
     -38.05762944
    ]
   },
   "properties": {
    "name": "6-8 STEWART STREET TOONGABBIE 3856",
    "locID": "LOC000102392710",
    "tech": "WIRELESS",
    "upgrade": "NULL_NA",
    "gnaf_pid": "GAVIC419965276"
   }
  },
  {
   "type": "Feature",
   "geometry": {
    "type": "Point",
    "coordinates": [
     146.6255913,
     -38.05739824
    ]
   },
   "properties": {
    "name": "20-22 VICTORIA STREET TOONGABBIE 3856",
    "locID": "LOC000125305842",
    "tech": "WIRELESS",
    "upgrade": "NULL_NA",
    "gnaf_pid": "GAVIC419965278"
   }
  },
  {
   "type": "Feature",
   "geometry": {
    "type": "Point",
    "coordinates": [
     146.62848093,
     -38.0563959
    ]
   },
   "properties": {
    "name": "39 SPARKS LANE TOONGABBIE 3856",
    "locID": "LOC000007711844",
    "tech": "WIRELESS",
    "upgrade": "NULL_NA",
    "gnaf_pid": "GAVIC419965280"
   }
  },
  {
   "type": "Feature",
   "geometry": {
    "type": "Point",
    "coordinates": [
     146.62355395,
     -38.053422
    ]
   },
   "properties": {
    "name": "2-4 HILL STREET TOONGABBIE 3856",
    "locID": "LOC000001962069",
    "tech": "WIRELESS",
    "upgrade": "NULL_NA",
    "gnaf_pid": "GAVIC419965281"
   }
  },
  {
   "type": "Feature",
   "geometry": {
    "type": "Point",
    "coordinates": [
     146.60002286,
     -38.06285089
    ]
   },
   "properties": {
    "name": "170 CEMETERY ROAD TOONGABBIE 3856",
    "locID": "LOC000035513457",
    "tech": "WIRELESS",
    "upgrade": "NULL_NA",
    "gnaf_pid": "GAVIC419970253"
   }
  },
  {
   "type": "Feature",
   "geometry": {
    "type": "Point",
    "coordinates": [
     146.60974304,
     -38.0592424
    ]
   },
   "properties": {
    "name": "100 HARRIS LANE TOONGABBIE 3856",
    "locID": "LOC000083542453",
    "tech": "WIRELESS",
    "upgrade": "NULL_NA",
    "gnaf_pid": "GAVIC419970254"
   }
  },
  {
   "type": "Feature",
   "geometry": {
    "type": "Point",
    "coordinates": [
     146.6212872,
     -38.05934119
    ]
   },
   "properties": {
    "name": "19 KING STREET TOONGABBIE 3856",
    "locID": "LOC000044596207",
    "tech": "WIRELESS",
    "upgrade": "NULL_NA",
    "gnaf_pid": "GAVIC419970257"
   }
  },
  {
   "type": "Feature",
   "geometry": {
    "type": "Point",
    "coordinates": [
     146.62312173,
     -38.06075841
    ]
   },
   "properties": {
    "name": "33-39 MAIN STREET TOONGABBIE 3856",
    "locID": "ChIJ7UQOn2zfKGsRmQ1-bFbk5cU",
    "tech": "WIRELESS",
    "upgrade": "UNKNOWN",
    "gnaf_pid": "GAVIC419970258"
   }
  },
  {
   "type": "Feature",
   "geometry": {
    "type": "Point",
    "coordinates": [
     146.62350016,
     -38.06292264
    ]
   },
   "properties": {
    "name": "38 HOWER STREET TOONGABBIE 3856",
    "locID": "LOC000049091570",
    "tech": "WIRELESS",
    "upgrade": "NULL_NA",
    "gnaf_pid": "GAVIC419970261"
   }
  },
  {
   "type": "Feature",
   "geometry": {
    "type": "Point",
    "coordinates": [
     146.62144621,
     -38.0585368
    ]
   },
   "properties": {
    "name": "27 KING STREET TOONGABBIE 3856",
    "locID": "LOC000104707780",
    "tech": "WIRELESS",
    "upgrade": "NULL_NA",
    "gnaf_pid": "GAVIC420070363"
   }
  },
  {
   "type": "Feature",
   "geometry": {
    "type": "Point",
    "coordinates": [
     146.6218049,
     -38.06141626
    ]
   },
   "properties": {
    "name": "1 KING STREET TOONGABBIE 3856",
    "locID": "LOC000040848982",
    "tech": "WIRELESS",
    "upgrade": "NULL_NA",
    "gnaf_pid": "GAVIC420075230"
   }
  },
  {
   "type": "Feature",
   "geometry": {
    "type": "Point",
    "coordinates": [
     146.62814076,
     -38.02323285
    ]
   },
   "properties": {
    "name": "30 WYKES ROAD TOONGABBIE 3856",
    "locID": "LOC000001980401",
    "tech": "WIRELESS",
    "upgrade": "NULL_NA",
    "gnaf_pid": "GAVIC420081941"
   }
  },
  {
   "type": "Feature",
   "geometry": {
    "type": "Point",
    "coordinates": [
     146.6317685,
     -38.02230694
    ]
   },
   "properties": {
    "name": "75 FOXS ROAD TOONGABBIE 3856",
    "locID": "LOC000057871578",
    "tech": "WIRELESS",
    "upgrade": "NULL_NA",
    "gnaf_pid": "GAVIC420081942"
   }
  },
  {
   "type": "Feature",
   "geometry": {
    "type": "Point",
    "coordinates": [
     146.60178682,
     -38.06339028
    ]
   },
   "properties": {
    "name": "145 CEMETERY ROAD TOONGABBIE 3856",
    "locID": "ChIJkc-Mq4PfKGsRT4FRpT-XmpY",
    "tech": "WIRELESS",
    "upgrade": "UNKNOWN",
    "gnaf_pid": "GAVIC420084278"
   }
  },
  {
   "type": "Feature",
   "geometry": {
    "type": "Point",
    "coordinates": [
     146.63110505,
     -38.02510785
    ]
   },
   "properties": {
    "name": "40 TRAVOYERS ROAD TOONGABBIE 3856",
    "locID": "LOC000077056611",
    "tech": "WIRELESS",
    "upgrade": "NULL_NA",
    "gnaf_pid": "GAVIC420084448"
   }
  },
  {
   "type": "Feature",
   "geometry": {
    "type": "Point",
    "coordinates": [
     146.62840673,
     -38.06474626
    ]
   },
   "properties": {
    "name": "23-33 HEYWOOD STREET TOONGABBIE 3856",
    "locID": "ChIJn80nDWrfKGsRg1KZcHOsQpE",
    "tech": "WIRELESS",
    "upgrade": "UNKNOWN",
    "gnaf_pid": "GAVIC420087857"
   }
  },
  {
   "type": "Feature",
   "geometry": {
    "type": "Point",
    "coordinates": [
     146.62824764,
     -38.0575564
    ]
   },
   "properties": {
    "name": "25-27 SPARKS LANE TOONGABBIE 3856",
    "locID": "LOC000125305959",
    "tech": "WIRELESS",
    "upgrade": "NULL_NA",
    "gnaf_pid": "GAVIC420136243"
   }
  },
  {
   "type": "Feature",
   "geometry": {
    "type": "Point",
    "coordinates": [
     146.62224695,
     -38.0645657
    ]
   },
   "properties": {
    "name": "19-29 HOWER STREET TOONGABBIE 3856",
    "locID": "ChIJwc7-o27fKGsR-YrOrBxgHiU",
    "tech": "WIRELESS",
    "upgrade": "UNKNOWN",
    "gnaf_pid": "GAVIC420269580"
   }
  },
  {
   "type": "Feature",
   "geometry": {
    "type": "Point",
    "coordinates": [
     146.62438755,
     -38.05576571
    ]
   },
   "properties": {
    "name": "16 SCOTT STREET TOONGABBIE 3856",
    "locID": "LOC000029343920",
    "tech": "WIRELESS",
    "upgrade": "NULL_NA",
    "gnaf_pid": "GAVIC420269581"
   }
  },
  {
   "type": "Feature",
   "geometry": {
    "type": "Point",
    "coordinates": [
     146.62579195,
     -38.05641923
    ]
   },
   "properties": {
    "name": "32 VICTORIA STREET TOONGABBIE 3856",
    "locID": "LOC000016796889",
    "tech": "WIRELESS",
    "upgrade": "NULL_NA",
    "gnaf_pid": "GAVIC420269582"
   }
  },
  {
   "type": "Feature",
   "geometry": {
    "type": "Point",
    "coordinates": [
     146.62860745,
     -38.05575745
    ]
   },
   "properties": {
    "name": "45 SPARKS LANE TOONGABBIE 3856",
    "locID": "LOC000060432280",
    "tech": "WIRELESS",
    "upgrade": "NULL_NA",
    "gnaf_pid": "GAVIC420269583"
   }
  },
  {
   "type": "Feature",
   "geometry": {
    "type": "Point",
    "coordinates": [
     146.62871239,
     -38.0552265
    ]
   },
   "properties": {
    "name": "51 SPARKS LANE TOONGABBIE 3856",
    "locID": "LOC000125310303",
    "tech": "WIRELESS",
    "upgrade": "NULL_NA",
    "gnaf_pid": "GAVIC420269585"
   }
  },
  {
   "type": "Feature",
   "geometry": {
    "type": "Point",
    "coordinates": [
     146.6232754,
     -38.05378785
    ]
   },
   "properties": {
    "name": "62 KING STREET TOONGABBIE 3856",
    "locID": "LOC000022786282",
    "tech": "WIRELESS",
    "upgrade": "NULL_NA",
    "gnaf_pid": "GAVIC420269586"
   }
  },
  {
   "type": "Feature",
   "geometry": {
    "type": "Point",
    "coordinates": [
     146.60942621,
     -38.06094476
    ]
   },
   "properties": {
    "name": "80 HARRIS LANE TOONGABBIE 3856",
    "locID": "LOC000044614453",
    "tech": "WIRELESS",
    "upgrade": "NULL_NA",
    "gnaf_pid": "GAVIC420274752"
   }
  },
  {
   "type": "Feature",
   "geometry": {
    "type": "Point",
    "coordinates": [
     146.60926184,
     -38.0618455
    ]
   },
   "properties": {
    "name": "70 HARRIS LANE TOONGABBIE 3856",
    "locID": "LOC000101505287",
    "tech": "WIRELESS",
    "upgrade": "NULL_NA",
    "gnaf_pid": "GAVIC420274753"
   }
  },
  {
   "type": "Feature",
   "geometry": {
    "type": "Point",
    "coordinates": [
     146.62134055,
     -38.0590713
    ]
   },
   "properties": {
    "name": "21 KING STREET TOONGABBIE 3856",
    "locID": "LOC000091307136",
    "tech": "WIRELESS",
    "upgrade": "NULL_NA",
    "gnaf_pid": "GAVIC420274754"
   }
  },
  {
   "type": "Feature",
   "geometry": {
    "type": "Point",
    "coordinates": [
     146.62968426,
     -38.02668964
    ]
   },
   "properties": {
    "name": "60 TRAVOYERS ROAD TOONGABBIE 3856",
    "locID": "LOC000087256122",
    "tech": "WIRELESS",
    "upgrade": "NULL_NA",
    "gnaf_pid": "GAVIC420361775"
   }
  },
  {
   "type": "Feature",
   "geometry": {
    "type": "Point",
    "coordinates": [
     146.6375179,
     -38.02547028
    ]
   },
   "properties": {
    "name": "355 TOONGABBIE-COWWARR ROAD TOONGABBIE 3856",
    "locID": "LOC000030172547",
    "tech": "WIRELESS",
    "upgrade": "NULL_NA",
    "gnaf_pid": "GAVIC420367182"
   }
  },
  {
   "type": "Feature",
   "geometry": {
    "type": "Point",
    "coordinates": [
     146.63259134,
     -38.02408504
    ]
   },
   "properties": {
    "name": "25 TRAVOYERS ROAD TOONGABBIE 3856",
    "locID": "LOC000045596972",
    "tech": "WIRELESS",
    "upgrade": "NULL_NA",
    "gnaf_pid": "GAVIC420367184"
   }
  },
  {
   "type": "Feature",
   "geometry": {
    "type": "Point",
    "coordinates": [
     146.62631195,
     -38.02214551
    ]
   },
   "properties": {
    "name": "50 WYKES ROAD TOONGABBIE 3856",
    "locID": "LOC000053159911",
    "tech": "WIRELESS",
    "upgrade": "NULL_NA",
    "gnaf_pid": "GAVIC420367247"
   }
  },
  {
   "type": "Feature",
   "geometry": {
    "type": "Point",
    "coordinates": [
     146.62280261,
     -38.06374953
    ]
   },
   "properties": {
    "name": "34 HOWER STREET TOONGABBIE 3856",
    "locID": "LOC000101849537",
    "tech": "WIRELESS",
    "upgrade": "NULL_NA",
    "gnaf_pid": "GAVIC420568300"
   }
  },
  {
   "type": "Feature",
   "geometry": {
    "type": "Point",
    "coordinates": [
     146.626354,
     -38.05842513
    ]
   },
   "properties": {
    "name": "13 GOODWIN STREET TOONGABBIE 3856",
    "locID": "LOC000125301806",
    "tech": "WIRELESS",
    "upgrade": "NULL_NA",
    "gnaf_pid": "GAVIC420568302"
   }
  },
  {
   "type": "Feature",
   "geometry": {
    "type": "Point",
    "coordinates": [
     146.62240816,
     -38.05809999
    ]
   },
   "properties": {
    "name": "20 KING STREET TOONGABBIE 3856",
    "locID": "LOC000107805293",
    "tech": "WIRELESS",
    "upgrade": "NULL_NA",
    "gnaf_pid": "GAVIC420568303"
   }
  },
  {
   "type": "Feature",
   "geometry": {
    "type": "Point",
    "coordinates": [
     146.62841346,
     -38.05937345
    ]
   },
   "properties": {
    "name": "6-8 SPARKS LANE TOONGABBIE 3856",
    "locID": "LOC000098527083",
    "tech": "WIRELESS",
    "upgrade": "NULL_NA",
    "gnaf_pid": "GAVIC420568304"
   }
  },
  {
   "type": "Feature",
   "geometry": {
    "type": "Point",
    "coordinates": [
     146.6302474,
     -38.059719
    ]
   },
   "properties": {
    "name": "69 MAIN STREET TOONGABBIE 3856",
    "locID": "LOC000063994793",
    "tech": "WIRELESS",
    "upgrade": "NULL_NA",
    "gnaf_pid": "GAVIC420568305"
   }
  },
  {
   "type": "Feature",
   "geometry": {
    "type": "Point",
    "coordinates": [
     146.63059211,
     -38.0596798
    ]
   },
   "properties": {
    "name": "71-73 MAIN STREET TOONGABBIE 3856",
    "locID": "LOC000125310405",
    "tech": "WIRELESS",
    "upgrade": "NULL_NA",
    "gnaf_pid": "GAVIC420568306"
   }
  },
  {
   "type": "Feature",
   "geometry": {
    "type": "Point",
    "coordinates": [
     146.6180453,
     -38.0585126
    ]
   },
   "properties": {
    "name": "24-30 HUMPHREY ROAD TOONGABBIE 3856",
    "locID": "LOC000125305928",
    "tech": "WIRELESS",
    "upgrade": "NULL_NA",
    "gnaf_pid": "GAVIC420568308"
   }
  },
  {
   "type": "Feature",
   "geometry": {
    "type": "Point",
    "coordinates": [
     146.62522261,
     -38.05653098
    ]
   },
   "properties": {
    "name": "27 VICTORIA STREET TOONGABBIE 3856",
    "locID": "LOC000086179729",
    "tech": "WIRELESS",
    "upgrade": "NULL_NA",
    "gnaf_pid": "GAVIC420568309"
   }
  },
  {
   "type": "Feature",
   "geometry": {
    "type": "Point",
    "coordinates": [
     146.62830215,
     -38.05728514
    ]
   },
   "properties": {
    "name": "29 SPARKS LANE TOONGABBIE 3856",
    "locID": "LOC000007997879",
    "tech": "WIRELESS",
    "upgrade": "NULL_NA",
    "gnaf_pid": "GAVIC420568310"
   }
  },
  {
   "type": "Feature",
   "geometry": {
    "type": "Point",
    "coordinates": [
     146.62811115,
     -38.06063584
    ]
   },
   "properties": {
    "name": "52 RIES STREET TOONGABBIE 3856",
    "locID": "ChIJ25WgrGrfKGsRhKl-QwqED8w",
    "tech": "WIRELESS",
    "upgrade": "UNKNOWN",
    "gnaf_pid": "GAVIC420571814"
   }
  },
  {
   "type": "Feature",
   "geometry": {
    "type": "Point",
    "coordinates": [
     146.61617264,
     -38.06568065
    ]
   },
   "properties": {
    "name": "15 CEMETERY ROAD TOONGABBIE 3856",
    "locID": "LOC000059509149",
    "tech": "WIRELESS",
    "upgrade": "NULL_NA",
    "gnaf_pid": "GAVIC420571815"
   }
  },
  {
   "type": "Feature",
   "geometry": {
    "type": "Point",
    "coordinates": [
     146.62475039,
     -38.06213389
    ]
   },
   "properties": {
    "name": "46-48 HOWER STREET TOONGABBIE 3856",
    "locID": "LOC000152793090",
    "tech": "WIRELESS",
    "upgrade": "NULL_NA",
    "gnaf_pid": "GAVIC420571817"
   }
  },
  {
   "type": "Feature",
   "geometry": {
    "type": "Point",
    "coordinates": [
     146.62378288,
     -38.05515215
    ]
   },
   "properties": {
    "name": "5-7 HAZEL STREET TOONGABBIE 3856",
    "locID": "LOC000088641413",
    "tech": "WIRELESS",
    "upgrade": "NULL_NA",
    "gnaf_pid": "GAVIC420573757"
   }
  },
  {
   "type": "Feature",
   "geometry": {
    "type": "Point",
    "coordinates": [
     146.6302875,
     -38.05774375
    ]
   },
   "properties": {
    "name": "11-17 CAMPBELL STREET TOONGABBIE 3856",
    "locID": "ChIJuZFncj7fKGsRcemy1GX7izE",
    "tech": "WIRELESS",
    "upgrade": "UNKNOWN",
    "gnaf_pid": "GAVIC420573758"
   }
  },
  {
   "type": "Feature",
   "geometry": {
    "type": "Point",
    "coordinates": [
     146.62881945,
     -38.0546847
    ]
   },
   "properties": {
    "name": "57 SPARKS LANE TOONGABBIE 3856",
    "locID": "LOC000006905051",
    "tech": "WIRELESS",
    "upgrade": "NULL_NA",
    "gnaf_pid": "GAVIC420592681"
   }
  },
  {
   "type": "Feature",
   "geometry": {
    "type": "Point",
    "coordinates": [
     146.62617363,
     -38.05452399
    ]
   },
   "properties": {
    "name": "50 VICTORIA STREET TOONGABBIE 3856",
    "locID": "LOC000050162277",
    "tech": "WIRELESS",
    "upgrade": "NULL_NA",
    "gnaf_pid": "GAVIC420592682"
   }
  },
  {
   "type": "Feature",
   "geometry": {
    "type": "Point",
    "coordinates": [
     146.6256125,
     -38.05463678
    ]
   },
   "properties": {
    "name": "45 VICTORIA STREET TOONGABBIE 3856",
    "locID": "LOC000052042417",
    "tech": "WIRELESS",
    "upgrade": "NULL_NA",
    "gnaf_pid": "GAVIC420592683"
   }
  },
  {
   "type": "Feature",
   "geometry": {
    "type": "Point",
    "coordinates": [
     146.62377885,
     -38.05296351
    ]
   },
   "properties": {
    "name": "1-3 HILL STREET TOONGABBIE 3856",
    "locID": "LOC000085491137",
    "tech": "WIRELESS",
    "upgrade": "NULL_NA",
    "gnaf_pid": "GAVIC420646369"
   }
  },
  {
   "type": "Feature",
   "geometry": {
    "type": "Point",
    "coordinates": [
     146.62609119,
     -38.05939295
    ]
   },
   "properties": {
    "name": "1-5 GOODWIN STREET TOONGABBIE 3856",
    "locID": "LOC000114179617",
    "tech": "WIRELESS",
    "upgrade": "NULL_NA",
    "gnaf_pid": "GAVIC420648360"
   }
  },
  {
   "type": "Feature",
   "geometry": {
    "type": "Point",
    "coordinates": [
     146.62292046,
     -38.06580568
    ]
   },
   "properties": {
    "name": "16 HOWER STREET TOONGABBIE 3856",
    "locID": "LOC000015572520",
    "tech": "WIRELESS",
    "upgrade": "NULL_NA",
    "gnaf_pid": "GAVIC420690070"
   }
  },
  {
   "type": "Feature",
   "geometry": {
    "type": "Point",
    "coordinates": [
     146.62725203,
     -38.05983774
    ]
   },
   "properties": {
    "name": "53 MAIN STREET TOONGABBIE 3856",
    "locID": "LOC000024350251",
    "tech": "WIRELESS",
    "upgrade": "NULL_NA",
    "gnaf_pid": "GAVIC420690071"
   }
  },
  {
   "type": "Feature",
   "geometry": {
    "type": "Point",
    "coordinates": [
     146.62830755,
     -38.05991125
    ]
   },
   "properties": {
    "name": "2 SPARKS LANE TOONGABBIE 3856",
    "locID": "LOC000068260398",
    "tech": "WIRELESS",
    "upgrade": "NULL_NA",
    "gnaf_pid": "GAVIC420690072"
   }
  },
  {
   "type": "Feature",
   "geometry": {
    "type": "Point",
    "coordinates": [
     146.62459968,
     -38.05779878
    ]
   },
   "properties": {
    "name": "16 STEWART STREET TOONGABBIE 3856",
    "locID": "LOC000125301852",
    "tech": "WIRELESS",
    "upgrade": "NULL_NA",
    "gnaf_pid": "GAVIC420690073"
   }
  },
  {
   "type": "Feature",
   "geometry": {
    "type": "Point",
    "coordinates": [
     146.6252594,
     -38.05635045
    ]
   },
   "properties": {
    "name": "29 VICTORIA STREET TOONGABBIE 3856",
    "locID": "LOC000003882603",
    "tech": "WIRELESS",
    "upgrade": "NULL_NA",
    "gnaf_pid": "GAVIC420690074"
   }
  },
  {
   "type": "Feature",
   "geometry": {
    "type": "Point",
    "coordinates": [
     146.62887408,
     -38.05987515
    ]
   },
   "properties": {
    "name": "57 MAIN STREET TOONGABBIE 3856",
    "locID": "LOC000053090036",
    "tech": "WIRELESS",
    "upgrade": "NULL_NA",
    "gnaf_pid": "GAVIC420868219"
   }
  },
  {
   "type": "Feature",
   "geometry": {
    "type": "Point",
    "coordinates": [
     146.63001763,
     -38.05974514
    ]
   },
   "properties": {
    "name": "67 MAIN STREET TOONGABBIE 3856",
    "locID": "LOC000092769589",
    "tech": "WIRELESS",
    "upgrade": "NULL_NA",
    "gnaf_pid": "GAVIC420868220"
   }
  },
  {
   "type": "Feature",
   "geometry": {
    "type": "Point",
    "coordinates": [
     146.62271881,
     -38.05755895
    ]
   },
   "properties": {
    "name": "2-4 STEWART STREET TOONGABBIE 3856",
    "locID": "LOC000125305826",
    "tech": "WIRELESS",
    "upgrade": "NULL_NA",
    "gnaf_pid": "GAVIC420868221"
   }
  },
  {
   "type": "Feature",
   "geometry": {
    "type": "Point",
    "coordinates": [
     146.62605832,
     -38.05509824
    ]
   },
   "properties": {
    "name": "44 VICTORIA STREET TOONGABBIE 3856",
    "locID": "LOC000125310240",
    "tech": "WIRELESS",
    "upgrade": "NULL_NA",
    "gnaf_pid": "GAVIC420868222"
   }
  },
  {
   "type": "Feature",
   "geometry": {
    "type": "Point",
    "coordinates": [
     146.62412275,
     -38.05349439
    ]
   },
   "properties": {
    "name": "6-8 HILL STREET TOONGABBIE 3856",
    "locID": "LOC000003568961",
    "tech": "WIRELESS",
    "upgrade": "NULL_NA",
    "gnaf_pid": "GAVIC420868223"
   }
  },
  {
   "type": "Feature",
   "geometry": {
    "type": "Point",
    "coordinates": [
     146.62148145,
     -38.05835859
    ]
   },
   "properties": {
    "name": "29 KING STREET TOONGABBIE 3856",
    "locID": "LOC000081205389",
    "tech": "WIRELESS",
    "upgrade": "NULL_NA",
    "gnaf_pid": "GAVIC420875705"
   }
  },
  {
   "type": "Feature",
   "geometry": {
    "type": "Point",
    "coordinates": [
     146.62799259,
     -38.05882333
    ]
   },
   "properties": {
    "name": "13 SPARKS LANE TOONGABBIE 3856",
    "locID": "LOC000125301823",
    "tech": "WIRELESS",
    "upgrade": "NULL_NA",
    "gnaf_pid": "GAVIC420875708"
   }
  },
  {
   "type": "Feature",
   "geometry": {
    "type": "Point",
    "coordinates": [
     146.62696133,
     -38.0639002
    ]
   },
   "properties": {
    "name": "17 RIES STREET TOONGABBIE 3856",
    "locID": "LOC000095296576",
    "tech": "WIRELESS",
    "upgrade": "NULL_NA",
    "gnaf_pid": "GAVIC420961429"
   }
  },
  {
   "type": "Feature",
   "geometry": {
    "type": "Point",
    "coordinates": [
     146.62692368,
     -38.06408345
    ]
   },
   "properties": {
    "name": "15 RIES STREET TOONGABBIE 3856",
    "locID": "LOC000125301847",
    "tech": "WIRELESS",
    "upgrade": "NULL_NA",
    "gnaf_pid": "GAVIC420961430"
   }
  },
  {
   "type": "Feature",
   "geometry": {
    "type": "Point",
    "coordinates": [
     146.62433139,
     -38.05604516
    ]
   },
   "properties": {
    "name": "14 SCOTT STREET TOONGABBIE 3856",
    "locID": "LOC000021153007",
    "tech": "WIRELESS",
    "upgrade": "NULL_NA",
    "gnaf_pid": "GAVIC420961431"
   }
  },
  {
   "type": "Feature",
   "geometry": {
    "type": "Point",
    "coordinates": [
     146.62822139,
     -38.06563949
    ]
   },
   "properties": {
    "name": "21 HEYWOOD STREET TOONGABBIE 3856",
    "locID": "LOC000029400989",
    "tech": "WIRELESS",
    "upgrade": "NULL_NA",
    "gnaf_pid": "GAVIC420984311"
   }
  },
  {
   "type": "Feature",
   "geometry": {
    "type": "Point",
    "coordinates": [
     146.62738685,
     -38.02361803
    ]
   },
   "properties": {
    "name": "35 WYKES ROAD TOONGABBIE 3856",
    "locID": "LOC000061935458",
    "tech": "WIRELESS",
    "upgrade": "NULL_NA",
    "gnaf_pid": "GAVIC420985098"
   }
  },
  {
   "type": "Feature",
   "geometry": {
    "type": "Point",
    "coordinates": [
     146.59270362,
     -38.06221557
    ]
   },
   "properties": {
    "name": "235 CEMETERY ROAD TOONGABBIE 3856",
    "locID": "LOC000029389925",
    "tech": "SATELLITE",
    "upgrade": "NULL_NA",
    "gnaf_pid": "GAVIC420993075"
   }
  },
  {
   "type": "Feature",
   "geometry": {
    "type": "Point",
    "coordinates": [
     146.62321529,
     -38.05508141
    ]
   },
   "properties": {
    "name": "1-3 HAZEL STREET TOONGABBIE 3856",
    "locID": "LOC000125301708",
    "tech": "WIRELESS",
    "upgrade": "NULL_NA",
    "gnaf_pid": "GAVIC421153340"
   }
  },
  {
   "type": "Feature",
   "geometry": {
    "type": "Point",
    "coordinates": [
     146.66071906,
     -38.08502422
    ]
   },
   "properties": {
    "name": "LOT 9 HENDERSONS ROAD TOONGABBIE 3856",
    "locID": "LOC000060767284",
    "tech": "WIRELESS",
    "upgrade": "NULL_NA",
    "gnaf_pid": "GAVIC421164116"
   }
  },
  {
   "type": "Feature",
   "geometry": {
    "type": "Point",
    "coordinates": [
     146.63179753,
     -38.05953961
    ]
   },
   "properties": {
    "name": "79 MAIN STREET TOONGABBIE 3856",
    "locID": "LOC000170661022",
    "tech": "WIRELESS",
    "upgrade": "NULL_NA",
    "gnaf_pid": "GAVIC421164119"
   }
  },
  {
   "type": "Feature",
   "geometry": {
    "type": "Point",
    "coordinates": [
     146.62244369,
     -38.0579231
    ]
   },
   "properties": {
    "name": "22 KING STREET TOONGABBIE 3856",
    "locID": "LOC000065755573",
    "tech": "WIRELESS",
    "upgrade": "NULL_NA",
    "gnaf_pid": "GAVIC421164121"
   }
  },
  {
   "type": "Feature",
   "geometry": {
    "type": "Point",
    "coordinates": [
     146.6258291,
     -38.05623795
    ]
   },
   "properties": {
    "name": "34 VICTORIA STREET TOONGABBIE 3856",
    "locID": "LOC000179115306",
    "tech": "WIRELESS",
    "upgrade": "NULL_NA",
    "gnaf_pid": "GAVIC421164122"
   }
  },
  {
   "type": "Feature",
   "geometry": {
    "type": "Point",
    "coordinates": [
     146.62833785,
     -38.05710754
    ]
   },
   "properties": {
    "name": "31 SPARKS LANE TOONGABBIE 3856",
    "locID": "LOC000058362217",
    "tech": "WIRELESS",
    "upgrade": "NULL_NA",
    "gnaf_pid": "GAVIC421164123"
   }
  },
  {
   "type": "Feature",
   "geometry": {
    "type": "Point",
    "coordinates": [
     146.62851823,
     -38.05621039
    ]
   },
   "properties": {
    "name": "41 SPARKS LANE TOONGABBIE 3856",
    "locID": "LOC000048836662",
    "tech": "WIRELESS",
    "upgrade": "NULL_NA",
    "gnaf_pid": "GAVIC421164124"
   }
  },
  {
   "type": "Feature",
   "geometry": {
    "type": "Point",
    "coordinates": [
     146.62867674,
     -38.05540688
    ]
   },
   "properties": {
    "name": "49 SPARKS LANE TOONGABBIE 3856",
    "locID": "LOC000083334760",
    "tech": "WIRELESS",
    "upgrade": "NULL_NA",
    "gnaf_pid": "GAVIC421164125"
   }
  },
  {
   "type": "Feature",
   "geometry": {
    "type": "Point",
    "coordinates": [
     146.62861779,
     -38.05407591
    ]
   },
   "properties": {
    "name": "34 HILL STREET TOONGABBIE 3856",
    "locID": "LOC000094907680",
    "tech": "WIRELESS",
    "upgrade": "NULL_NA",
    "gnaf_pid": "GAVIC421164126"
   }
  },
  {
   "type": "Feature",
   "geometry": {
    "type": "Point",
    "coordinates": [
     146.6263009,
     -38.05389018
    ]
   },
   "properties": {
    "name": "56 VICTORIA STREET TOONGABBIE 3856",
    "locID": "LOC000103295446",
    "tech": "WIRELESS",
    "upgrade": "NULL_NA",
    "gnaf_pid": "GAVIC421164127"
   }
  },
  {
   "type": "Feature",
   "geometry": {
    "type": "Point",
    "coordinates": [
     146.62320343,
     -38.05414609
    ]
   },
   "properties": {
    "name": "58 KING STREET TOONGABBIE 3856",
    "locID": "LOC000099969387",
    "tech": "WIRELESS",
    "upgrade": "NULL_NA",
    "gnaf_pid": "GAVIC421164128"
   }
  },
  {
   "type": "Feature",
   "geometry": {
    "type": "Point",
    "coordinates": [
     146.62285546,
     -38.0599748
    ]
   },
   "properties": {
    "name": "4 COWEN STREET TOONGABBIE 3856",
    "locID": "LOC000011099476",
    "tech": "WIRELESS",
    "upgrade": "NULL_NA",
    "gnaf_pid": "GAVIC421181451"
   }
  },
  {
   "type": "Feature",
   "geometry": {
    "type": "Point",
    "coordinates": [
     146.6247104,
     -38.06358871
    ]
   },
   "properties": {
    "name": "12-14 TIMMINS STREET TOONGABBIE 3856",
    "locID": "LOC000058572271",
    "tech": "WIRELESS",
    "upgrade": "NULL_NA",
    "gnaf_pid": "GAVIC421181454"
   }
  },
  {
   "type": "Feature",
   "geometry": {
    "type": "Point",
    "coordinates": [
     146.65172536,
     -38.06889176
    ]
   },
   "properties": {
    "name": "95 ANTONS LANE TOONGABBIE 3856",
    "locID": "ChIJkbxh40rfKGsRDcmcyqkfCRY",
    "tech": "WIRELESS",
    "upgrade": "UNKNOWN",
    "gnaf_pid": "GAVIC421199347"
   }
  },
  {
   "type": "Feature",
   "geometry": {
    "type": "Point",
    "coordinates": [
     146.61165169,
     -38.06476453
    ]
   },
   "properties": {
    "name": "60 CEMETERY ROAD TOONGABBIE 3856",
    "locID": "ChIJj4lav3DfKGsRXZwSsXXMPBg",
    "tech": "WIRELESS",
    "upgrade": "UNKNOWN",
    "gnaf_pid": "GAVIC421199348"
   }
  },
  {
   "type": "Feature",
   "geometry": {
    "type": "Point",
    "coordinates": [
     146.58965433,
     -38.05786715
    ]
   },
   "properties": {
    "name": "697 GLENGARRY NORTH ROAD TOONGABBIE 3856",
    "locID": "LOC000104807792",
    "tech": "WIRELESS",
    "upgrade": "NULL_NA",
    "gnaf_pid": "GAVIC421199349"
   }
  },
  {
   "type": "Feature",
   "geometry": {
    "type": "Point",
    "coordinates": [
     146.62136166,
     -38.0602899
    ]
   },
   "properties": {
    "name": "13 KING STREET TOONGABBIE 3856",
    "locID": "ChIJdRCB5GzfKGsRwPU9jR4HIN4",
    "tech": "WIRELESS",
    "upgrade": "UNKNOWN",
    "gnaf_pid": "GAVIC421199352"
   }
  },
  {
   "type": "Feature",
   "geometry": {
    "type": "Point",
    "coordinates": [
     146.63178996,
     -38.02484863
    ]
   },
   "properties": {
    "name": "35 TRAVOYERS ROAD TOONGABBIE 3856",
    "locID": "LOC000073379268",
    "tech": "WIRELESS",
    "upgrade": "NULL_NA",
    "gnaf_pid": "GAVIC421251997"
   }
  },
  {
   "type": "Feature",
   "geometry": {
    "type": "Point",
    "coordinates": [
     146.63204418,
     -38.0241374
    ]
   },
   "properties": {
    "name": "30 TRAVOYERS ROAD TOONGABBIE 3856",
    "locID": "LOC000035996949",
    "tech": "WIRELESS",
    "upgrade": "NULL_NA",
    "gnaf_pid": "GAVIC421251998"
   }
  },
  {
   "type": "Feature",
   "geometry": {
    "type": "Point",
    "coordinates": [
     146.6288726,
     -38.05441573
    ]
   },
   "properties": {
    "name": "59-61 SPARKS LANE TOONGABBIE 3856",
    "locID": "LOC000034282549",
    "tech": "WIRELESS",
    "upgrade": "NULL_NA",
    "gnaf_pid": "GAVIC421252004"
   }
  },
  {
   "type": "Feature",
   "geometry": {
    "type": "Point",
    "coordinates": [
     146.62122816,
     -38.05995068
    ]
   },
   "properties": {
    "name": "17 KING STREET TOONGABBIE 3856",
    "locID": "LOC000074467582",
    "tech": "WIRELESS",
    "upgrade": "NULL_NA",
    "gnaf_pid": "GAVIC421284875"
   }
  },
  {
   "type": "Feature",
   "geometry": {
    "type": "Point",
    "coordinates": [
     146.62129786,
     -38.06012778
    ]
   },
   "properties": {
    "name": "15 KING STREET TOONGABBIE 3856",
    "locID": "LOC000092798805",
    "tech": "WIRELESS",
    "upgrade": "NULL_NA",
    "gnaf_pid": "GAVIC421284876"
   }
  },
  {
   "type": "Feature",
   "geometry": {
    "type": "Point",
    "coordinates": [
     146.62690969,
     -38.05979428
    ]
   },
   "properties": {
    "name": "51 MAIN STREET TOONGABBIE 3856",
    "locID": "LOC000071133521",
    "tech": "WIRELESS",
    "upgrade": "NULL_NA",
    "gnaf_pid": "GAVIC421284878"
   }
  },
  {
   "type": "Feature",
   "geometry": {
    "type": "Point",
    "coordinates": [
     146.62781849,
     -38.05971365
    ]
   },
   "properties": {
    "name": "3 SPARKS LANE TOONGABBIE 3856",
    "locID": "LOC000068223516",
    "tech": "WIRELESS",
    "upgrade": "NULL_NA",
    "gnaf_pid": "GAVIC421284879"
   }
  },
  {
   "type": "Feature",
   "geometry": {
    "type": "Point",
    "coordinates": [
     146.62566475,
     -38.05703984
    ]
   },
   "properties": {
    "name": "24-26 VICTORIA STREET TOONGABBIE 3856",
    "locID": "LOC000125305890",
    "tech": "WIRELESS",
    "upgrade": "NULL_NA",
    "gnaf_pid": "GAVIC421284880"
   }
  },
  {
   "type": "Feature",
   "geometry": {
    "type": "Point",
    "coordinates": [
     146.62599475,
     -38.05541458
    ]
   },
   "properties": {
    "name": "40 VICTORIA STREET TOONGABBIE 3856",
    "locID": "LOC000068321806",
    "tech": "WIRELESS",
    "upgrade": "NULL_NA",
    "gnaf_pid": "GAVIC421440997"
   }
  },
  {
   "type": "Feature",
   "geometry": {
    "type": "Point",
    "coordinates": [
     146.62309595,
     -38.054681
    ]
   },
   "properties": {
    "name": "52 KING STREET TOONGABBIE 3856",
    "locID": "LOC000102629181",
    "tech": "WIRELESS",
    "upgrade": "NULL_NA",
    "gnaf_pid": "GAVIC421440998"
   }
  },
  {
   "type": "Feature",
   "geometry": {
    "type": "Point",
    "coordinates": [
     146.6231676,
     -38.05432439
    ]
   },
   "properties": {
    "name": "56 KING STREET TOONGABBIE 3856",
    "locID": "LOC000103295446",
    "tech": "WIRELESS",
    "upgrade": "NULL_NA",
    "gnaf_pid": "GAVIC421440999"
   }
  },
  {
   "type": "Feature",
   "geometry": {
    "type": "Point",
    "coordinates": [
     146.62873222,
     -38.05751729
    ]
   },
   "properties": {
    "name": "18-34 SPARKS LANE TOONGABBIE 3856",
    "locID": "ChIJQd-P-BXfKGsRkXhOY82vxD0",
    "tech": "WIRELESS",
    "upgrade": "UNKNOWN",
    "gnaf_pid": "GAVIC421441000"
   }
  },
  {
   "type": "Feature",
   "geometry": {
    "type": "Point",
    "coordinates": [
     146.60914368,
     -38.0626292
    ]
   },
   "properties": {
    "name": "60 HARRIS LANE TOONGABBIE 3856",
    "locID": "LOC000044280711",
    "tech": "WIRELESS",
    "upgrade": "NULL_NA",
    "gnaf_pid": "GAVIC421444621"
   }
  },
  {
   "type": "Feature",
   "geometry": {
    "type": "Point",
    "coordinates": [
     146.60950769,
     -38.06062959
    ]
   },
   "properties": {
    "name": "90 HARRIS LANE TOONGABBIE 3856",
    "locID": "LOC000070543857",
    "tech": "WIRELESS",
    "upgrade": "NULL_NA",
    "gnaf_pid": "GAVIC421451760"
   }
  },
  {
   "type": "Feature",
   "geometry": {
    "type": "Point",
    "coordinates": [
     146.6170773,
     -38.0583382
    ]
   },
   "properties": {
    "name": "27-33 HUMPHREY ROAD TOONGABBIE 3856",
    "locID": "LOC000048730658",
    "tech": "WIRELESS",
    "upgrade": "NULL_NA",
    "gnaf_pid": "GAVIC421502878"
   }
  },
  {
   "type": "Feature",
   "geometry": {
    "type": "Point",
    "coordinates": [
     146.62047135,
     -38.06009965
    ]
   },
   "properties": {
    "name": "3-5 HUMPHREY ROAD TOONGABBIE 3856",
    "locID": "LOC000125305971",
    "tech": "WIRELESS",
    "upgrade": "NULL_NA",
    "gnaf_pid": "GAVIC421502880"
   }
  },
  {
   "type": "Feature",
   "geometry": {
    "type": "Point",
    "coordinates": [
     146.6222984,
     -38.06036351
    ]
   },
   "properties": {
    "name": "4-6 KING STREET TOONGABBIE 3856",
    "locID": "ChIJKbn8vWzfKGsRQtW_EoGYmOQ",
    "tech": "WIRELESS",
    "upgrade": "UNKNOWN",
    "gnaf_pid": "GAVIC421502881"
   }
  },
  {
   "type": "Feature",
   "geometry": {
    "type": "Point",
    "coordinates": [
     146.6228595,
     -38.06346771
    ]
   },
   "properties": {
    "name": "36 HOWER STREET TOONGABBIE 3856",
    "locID": "LOC000062181563",
    "tech": "WIRELESS",
    "upgrade": "NULL_NA",
    "gnaf_pid": "GAVIC421528847"
   }
  },
  {
   "type": "Feature",
   "geometry": {
    "type": "Point",
    "coordinates": [
     146.62410786,
     -38.06556186
    ]
   },
   "properties": {
    "name": "10-12 GADD STREET TOONGABBIE 3856",
    "locID": "ChIJI2XJR2nfKGsRbio1Jb9ESvA",
    "tech": "WIRELESS",
    "upgrade": "UNKNOWN",
    "gnaf_pid": "GAVIC421528849"
   }
  },
  {
   "type": "Feature",
   "geometry": {
    "type": "Point",
    "coordinates": [
     146.63140431,
     -38.05958438
    ]
   },
   "properties": {
    "name": "77 MAIN STREET TOONGABBIE 3856",
    "locID": "LOC000035976872",
    "tech": "WIRELESS",
    "upgrade": "NULL_NA",
    "gnaf_pid": "GAVIC421528850"
   }
  },
  {
   "type": "Feature",
   "geometry": {
    "type": "Point",
    "coordinates": [
     146.62666706,
     -38.05593714
    ]
   },
   "properties": {
    "name": "22-24 HAZEL STREET TOONGABBIE 3856",
    "locID": "LOC000014328365",
    "tech": "WIRELESS",
    "upgrade": "NULL_NA",
    "gnaf_pid": "GAVIC421528853"
   }
  },
  {
   "type": "Feature",
   "geometry": {
    "type": "Point",
    "coordinates": [
     146.62874881,
     -38.05504215
    ]
   },
   "properties": {
    "name": "53 SPARKS LANE TOONGABBIE 3856",
    "locID": "LOC000022138745",
    "tech": "WIRELESS",
    "upgrade": "NULL_NA",
    "gnaf_pid": "GAVIC421528854"
   }
  },
  {
   "type": "Feature",
   "geometry": {
    "type": "Point",
    "coordinates": [
     146.63089095,
     -38.03144319
    ]
   },
   "properties": {
    "name": "5 HILSLEY COURT TOONGABBIE 3856",
    "locID": "LOC000065894737",
    "tech": "WIRELESS",
    "upgrade": "NULL_NA",
    "gnaf_pid": "GAVIC421541409"
   }
  },
  {
   "type": "Feature",
   "geometry": {
    "type": "Point",
    "coordinates": [
     146.62858976,
     -38.05847835
    ]
   },
   "properties": {
    "name": "14-16 SPARKS LANE TOONGABBIE 3856",
    "locID": "LOC000081766021",
    "tech": "WIRELESS",
    "upgrade": "NULL_NA",
    "gnaf_pid": "GAVIC421574589"
   }
  },
  {
   "type": "Feature",
   "geometry": {
    "type": "Point",
    "coordinates": [
     146.6288594,
     -38.05365787
    ]
   },
   "properties": {
    "name": "29 HILL STREET TOONGABBIE 3856",
    "locID": "LOC000125305963",
    "tech": "WIRELESS",
    "upgrade": "NULL_NA",
    "gnaf_pid": "GAVIC421574591"
   }
  },
  {
   "type": "Feature",
   "geometry": {
    "type": "Point",
    "coordinates": [
     146.62570893,
     -38.05682431
    ]
   },
   "properties": {
    "name": "28 VICTORIA STREET TOONGABBIE 3856",
    "locID": "LOC000032731598",
    "tech": "WIRELESS",
    "upgrade": "NULL_NA",
    "gnaf_pid": "GAVIC421574592"
   }
  },
  {
   "type": "Feature",
   "geometry": {
    "type": "Point",
    "coordinates": [
     146.63779286,
     -38.02516469
    ]
   },
   "properties": {
    "name": "365 TOONGABBIE-COWWARR ROAD TOONGABBIE 3856",
    "locID": "LOC000013007217",
    "tech": "WIRELESS",
    "upgrade": "NULL_NA",
    "gnaf_pid": "GAVIC421588402"
   }
  },
  {
   "type": "Feature",
   "geometry": {
    "type": "Point",
    "coordinates": [
     146.63679148,
     -38.02260195
    ]
   },
   "properties": {
    "name": "30 FOXS ROAD TOONGABBIE 3856",
    "locID": "LOC000014638282",
    "tech": "WIRELESS",
    "upgrade": "NULL_NA",
    "gnaf_pid": "GAVIC421588404"
   }
  },
  {
   "type": "Feature",
   "geometry": {
    "type": "Point",
    "coordinates": [
     146.61243046,
     -38.0554389
    ]
   },
   "properties": {
    "name": "53-57 HUMPHREY ROAD TOONGABBIE 3856",
    "locID": "ChIJvXAFpgzfKGsReXFqI-_V7mM",
    "tech": "WIRELESS",
    "upgrade": "UNKNOWN",
    "gnaf_pid": "GAVIC421819219"
   }
  },
  {
   "type": "Feature",
   "geometry": {
    "type": "Point",
    "coordinates": [
     146.6151897,
     -38.0574578
    ]
   },
   "properties": {
    "name": "35-39 HUMPHREY ROAD TOONGABBIE 3856",
    "locID": "LOC000125310181",
    "tech": "WIRELESS",
    "upgrade": "NULL_NA",
    "gnaf_pid": "GAVIC421819222"
   }
  },
  {
   "type": "Feature",
   "geometry": {
    "type": "Point",
    "coordinates": [
     146.61550168,
     -38.06100985
    ]
   },
   "properties": {
    "name": "55 NICHOLSONS ROAD TOONGABBIE 3856",
    "locID": "LOC000075491005",
    "tech": "WIRELESS",
    "upgrade": "NULL_NA",
    "gnaf_pid": "GAVIC421819223"
   }
  },
  {
   "type": "Feature",
   "geometry": {
    "type": "Point",
    "coordinates": [
     146.61551348,
     -38.06529095
    ]
   },
   "properties": {
    "name": "30 CEMETERY ROAD TOONGABBIE 3856",
    "locID": "LOC000081662560",
    "tech": "WIRELESS",
    "upgrade": "NULL_NA",
    "gnaf_pid": "GAVIC421819224"
   }
  },
  {
   "type": "Feature",
   "geometry": {
    "type": "Point",
    "coordinates": [
     146.62967076,
     -38.05978457
    ]
   },
   "properties": {
    "name": "61 MAIN STREET TOONGABBIE 3856",
    "locID": "LOC000079121429",
    "tech": "WIRELESS",
    "upgrade": "NULL_NA",
    "gnaf_pid": "GAVIC421819226"
   }
  },
  {
   "type": "Feature",
   "geometry": {
    "type": "Point",
    "coordinates": [
     146.6257553,
     -38.05659805
    ]
   },
   "properties": {
    "name": "30 VICTORIA STREET TOONGABBIE 3856",
    "locID": "LOC000012730384",
    "tech": "WIRELESS",
    "upgrade": "NULL_NA",
    "gnaf_pid": "GAVIC421819228"
   }
  },
  {
   "type": "Feature",
   "geometry": {
    "type": "Point",
    "coordinates": [
     146.6281933,
     -38.05782646
    ]
   },
   "properties": {
    "name": "23 SPARKS LANE TOONGABBIE 3856",
    "locID": "LOC000013875515",
    "tech": "WIRELESS",
    "upgrade": "NULL_NA",
    "gnaf_pid": "GAVIC421819229"
   }
  },
  {
   "type": "Feature",
   "geometry": {
    "type": "Point",
    "coordinates": [
     146.62613776,
     -38.05470255
    ]
   },
   "properties": {
    "name": "48 VICTORIA STREET TOONGABBIE 3856",
    "locID": "LOC000125310272",
    "tech": "WIRELESS",
    "upgrade": "NULL_NA",
    "gnaf_pid": "GAVIC421819230"
   }
  },
  {
   "type": "Feature",
   "geometry": {
    "type": "Point",
    "coordinates": [
     146.62565054,
     -38.05445435
    ]
   },
   "properties": {
    "name": "47 VICTORIA STREET TOONGABBIE 3856",
    "locID": "LOC000006107775",
    "tech": "WIRELESS",
    "upgrade": "NULL_NA",
    "gnaf_pid": "GAVIC421819232"
   }
  },
  {
   "type": "Feature",
   "geometry": {
    "type": "Point",
    "coordinates": [
     146.62568765,
     -38.05427655
    ]
   },
   "properties": {
    "name": "49 VICTORIA STREET TOONGABBIE 3856",
    "locID": "LOC000092869916",
    "tech": "WIRELESS",
    "upgrade": "NULL_NA",
    "gnaf_pid": "GAVIC421819233"
   }
  },
  {
   "type": "Feature",
   "geometry": {
    "type": "Point",
    "coordinates": [
     146.62572499,
     -38.0540977
    ]
   },
   "properties": {
    "name": "51 VICTORIA STREET TOONGABBIE 3856",
    "locID": "LOC000019363392",
    "tech": "WIRELESS",
    "upgrade": "NULL_NA",
    "gnaf_pid": "GAVIC421819234"
   }
  },
  {
   "type": "Feature",
   "geometry": {
    "type": "Point",
    "coordinates": [
     146.6257822,
     -38.05382365
    ]
   },
   "properties": {
    "name": "53-55 VICTORIA STREET TOONGABBIE 3856",
    "locID": "LOC000183037993",
    "tech": "WIRELESS",
    "upgrade": "NULL_NA",
    "gnaf_pid": "GAVIC421822852"
   }
  },
  {
   "type": "Feature",
   "geometry": {
    "type": "Point",
    "coordinates": [
     146.62685034,
     -38.06444043
    ]
   },
   "properties": {
    "name": "11 RIES STREET TOONGABBIE 3856",
    "locID": "LOC000114780873",
    "tech": "WIRELESS",
    "upgrade": "NULL_NA",
    "gnaf_pid": "GAVIC421838999"
   }
  },
  {
   "type": "Feature",
   "geometry": {
    "type": "Point",
    "coordinates": [
     146.62910411,
     -38.059849
    ]
   },
   "properties": {
    "name": "59 MAIN STREET TOONGABBIE 3856",
    "locID": "LOC000087143974",
    "tech": "WIRELESS",
    "upgrade": "NULL_NA",
    "gnaf_pid": "GAVIC421870977"
   }
  },
  {
   "type": "Feature",
   "geometry": {
    "type": "Point",
    "coordinates": [
     146.62762926,
     -38.05988563
    ]
   },
   "properties": {
    "name": "55 MAIN STREET TOONGABBIE 3856",
    "locID": "LOC000093917974",
    "tech": "WIRELESS",
    "upgrade": "NULL_NA",
    "gnaf_pid": "GAVIC421882544"
   }
  },
  {
   "type": "Feature",
   "geometry": {
    "type": "Point",
    "coordinates": [
     146.62733278,
     -38.05341096
    ]
   },
   "properties": {
    "name": "23-25 HILL STREET TOONGABBIE 3856",
    "locID": "LOC000125305874",
    "tech": "WIRELESS",
    "upgrade": "NULL_NA",
    "gnaf_pid": "GAVIC421887133"
   }
  },
  {
   "type": "Feature",
   "geometry": {
    "type": "Point",
    "coordinates": [
     146.6424404,
     -38.02069955
    ]
   },
   "properties": {
    "name": "425 TOONGABBIE-COWWARR ROAD TOONGABBIE 3856",
    "locID": "LOC000015304077",
    "tech": "WIRELESS",
    "upgrade": "NULL_NA",
    "gnaf_pid": "GAVIC422000064"
   }
  },
  {
   "type": "Feature",
   "geometry": {
    "type": "Point",
    "coordinates": [
     146.61474823,
     -38.05687054
    ]
   },
   "properties": {
    "name": "41 HUMPHREY ROAD TOONGABBIE 3856",
    "locID": "LOC000027630639",
    "tech": "WIRELESS",
    "upgrade": "NULL_NA",
    "gnaf_pid": "GAVIC422000065"
   }
  },
  {
   "type": "Feature",
   "geometry": {
    "type": "Point",
    "coordinates": [
     146.63438106,
     -38.02847985
    ]
   },
   "properties": {
    "name": "305 TOONGABBIE-COWWARR ROAD TOONGABBIE 3856",
    "locID": "LOC000022763302",
    "tech": "WIRELESS",
    "upgrade": "NULL_NA",
    "gnaf_pid": "GAVIC422001531"
   }
  },
  {
   "type": "Feature",
   "geometry": {
    "type": "Point",
    "coordinates": [
     146.63269766,
     -38.07145639
    ]
   },
   "properties": {
    "name": "83 HENDERSONS ROAD TOONGABBIE 3856",
    "locID": "LOC000057199931",
    "tech": "WIRELESS",
    "upgrade": "NULL_NA",
    "gnaf_pid": "GAVIC422026561"
   }
  },
  {
   "type": "Feature",
   "geometry": {
    "type": "Point",
    "coordinates": [
     146.67725546,
     -38.06820765
    ]
   },
   "properties": {
    "name": "2000 SALE-TOONGABBIE ROAD TOONGABBIE 3856",
    "locID": "LOC000069481166",
    "tech": "SATELLITE",
    "upgrade": "NULL_NA",
    "gnaf_pid": "GAVIC422031498"
   }
  },
  {
   "type": "Feature",
   "geometry": {
    "type": "Point",
    "coordinates": [
     146.65021505,
     -38.0822622
    ]
   },
   "properties": {
    "name": "280 HENDERSONS ROAD TOONGABBIE 3856",
    "locID": "LOC000017059038",
    "tech": "SATELLITE",
    "upgrade": "NULL_NA",
    "gnaf_pid": "GAVIC422032630"
   }
  },
  {
   "type": "Feature",
   "geometry": {
    "type": "Point",
    "coordinates": [
     146.62907041,
     -38.03318594
    ]
   },
   "properties": {
    "name": "237 TOONGABBIE-COWWARR ROAD TOONGABBIE 3856",
    "locID": "LOC000011929707",
    "tech": "WIRELESS",
    "upgrade": "NULL_NA",
    "gnaf_pid": "GAVIC422034582"
   }
  },
  {
   "type": "Feature",
   "geometry": {
    "type": "Point",
    "coordinates": [
     146.6390061,
     -38.02404181
    ]
   },
   "properties": {
    "name": "375 TOONGABBIE-COWWARR ROAD TOONGABBIE 3856",
    "locID": "LOC000069458842",
    "tech": "WIRELESS",
    "upgrade": "NULL_NA",
    "gnaf_pid": "GAVIC422035547"
   }
  },
  {
   "type": "Feature",
   "geometry": {
    "type": "Point",
    "coordinates": [
     146.62900344,
     -38.02161328
    ]
   },
   "properties": {
    "name": "100 FOXS ROAD TOONGABBIE 3856",
    "locID": "ChIJhSF-MrveKGsRpp2h1bw_R4U",
    "tech": "WIRELESS",
    "upgrade": "UNKNOWN",
    "gnaf_pid": "GAVIC422147536"
   }
  },
  {
   "type": "Feature",
   "geometry": {
    "type": "Point",
    "coordinates": [
     146.6284681,
     -38.02158455
    ]
   },
   "properties": {
    "name": "110 FOXS ROAD TOONGABBIE 3856",
    "locID": "LOC000024779988",
    "tech": "WIRELESS",
    "upgrade": "NULL_NA",
    "gnaf_pid": "GAVIC422147537"
   }
  },
  {
   "type": "Feature",
   "geometry": {
    "type": "Point",
    "coordinates": [
     146.63660771,
     -38.02289881
    ]
   },
   "properties": {
    "name": "31 FOXS ROAD TOONGABBIE 3856",
    "locID": "LOC000066123691",
    "tech": "WIRELESS",
    "upgrade": "NULL_NA",
    "gnaf_pid": "GAVIC422147538"
   }
  },
  {
   "type": "Feature",
   "geometry": {
    "type": "Point",
    "coordinates": [
     146.63543489,
     -38.02276
    ]
   },
   "properties": {
    "name": "35 FOXS ROAD TOONGABBIE 3856",
    "locID": "LOC000091520230",
    "tech": "WIRELESS",
    "upgrade": "NULL_NA",
    "gnaf_pid": "GAVIC422147539"
   }
  },
  {
   "type": "Feature",
   "geometry": {
    "type": "Point",
    "coordinates": [
     146.63601705,
     -38.02253648
    ]
   },
   "properties": {
    "name": "36 FOXS ROAD TOONGABBIE 3856",
    "locID": "LOC000057642449",
    "tech": "WIRELESS",
    "upgrade": "NULL_NA",
    "gnaf_pid": "GAVIC422147540"
   }
  },
  {
   "type": "Feature",
   "geometry": {
    "type": "Point",
    "coordinates": [
     146.62842704,
     -38.07052368
    ]
   },
   "properties": {
    "name": "201 GUYATTS ROAD TOONGABBIE 3856",
    "locID": "ChIJUYihomffKGsRLUdzMV241_Q",
    "tech": "WIRELESS",
    "upgrade": "UNKNOWN",
    "gnaf_pid": "GAVIC422152811"
   }
  },
  {
   "type": "Feature",
   "geometry": {
    "type": "Point",
    "coordinates": [
     146.6114982,
     -38.06791849
    ]
   },
   "properties": {
    "name": "215 GUYATTS ROAD TOONGABBIE 3856",
    "locID": "LOC000094766412",
    "tech": "WIRELESS",
    "upgrade": "NULL_NA",
    "gnaf_pid": "GAVIC422152812"
   }
  },
  {
   "type": "Feature",
   "geometry": {
    "type": "Point",
    "coordinates": [
     146.6132982,
     -38.06815875
    ]
   },
   "properties": {
    "name": "229 GUYATTS ROAD TOONGABBIE 3856",
    "locID": "LOC000035188815",
    "tech": "WIRELESS",
    "upgrade": "NULL_NA",
    "gnaf_pid": "GAVIC422152813"
   }
  },
  {
   "type": "Feature",
   "geometry": {
    "type": "Point",
    "coordinates": [
     146.61737655,
     -38.06873089
    ]
   },
   "properties": {
    "name": "265 GUYATTS ROAD TOONGABBIE 3856",
    "locID": "LOC000027825295",
    "tech": "WIRELESS",
    "upgrade": "NULL_NA",
    "gnaf_pid": "GAVIC422152814"
   }
  },
  {
   "type": "Feature",
   "geometry": {
    "type": "Point",
    "coordinates": [
     146.60887516,
     -38.063818
    ]
   },
   "properties": {
    "name": "50 HARRIS LANE TOONGABBIE 3856",
    "locID": "LOC000090964902",
    "tech": "WIRELESS",
    "upgrade": "NULL_NA",
    "gnaf_pid": "GAVIC422153874"
   }
  },
  {
   "type": "Feature",
   "geometry": {
    "type": "Point",
    "coordinates": [
     146.63903501,
     -38.07641509
    ]
   },
   "properties": {
    "name": "162 HENDERSONS ROAD TOONGABBIE 3856",
    "locID": "LOC000029410117",
    "tech": "WIRELESS",
    "upgrade": "NULL_NA",
    "gnaf_pid": "GAVIC422154890"
   }
  },
  {
   "type": "Feature",
   "geometry": {
    "type": "Point",
    "coordinates": [
     146.65651909,
     -38.08382656
    ]
   },
   "properties": {
    "name": "340 HENDERSONS ROAD TOONGABBIE 3856",
    "locID": "LOC000066620019",
    "tech": "SATELLITE",
    "upgrade": "NULL_NA",
    "gnaf_pid": "GAVIC422154891"
   }
  },
  {
   "type": "Feature",
   "geometry": {
    "type": "Point",
    "coordinates": [
     146.66007705,
     -38.08500404
    ]
   },
   "properties": {
    "name": "374 HENDERSONS ROAD TOONGABBIE 3856",
    "locID": "LOC000085270507",
    "tech": "SATELLITE",
    "upgrade": "NULL_NA",
    "gnaf_pid": "GAVIC422154892"
   }
  },
  {
   "type": "Feature",
   "geometry": {
    "type": "Point",
    "coordinates": [
     146.67431309,
     -38.08901006
    ]
   },
   "properties": {
    "name": "507 HENDERSONS ROAD TOONGABBIE 3856",
    "locID": "LOC000105881324",
    "tech": "WIRELESS",
    "upgrade": "NULL_NA",
    "gnaf_pid": "GAVIC422154893"
   }
  },
  {
   "type": "Feature",
   "geometry": {
    "type": "Point",
    "coordinates": [
     146.68821784,
     -38.09083239
    ]
   },
   "properties": {
    "name": "633 HENDERSONS ROAD TOONGABBIE 3856",
    "locID": "LOC000016145617",
    "tech": "SATELLITE",
    "upgrade": "NULL_NA",
    "gnaf_pid": "GAVIC422154894"
   }
  },
  {
   "type": "Feature",
   "geometry": {
    "type": "Point",
    "coordinates": [
     146.69103296,
     -38.09121838
    ]
   },
   "properties": {
    "name": "657 HENDERSONS ROAD TOONGABBIE 3856",
    "locID": "LOC000094191368",
    "tech": "SATELLITE",
    "upgrade": "NULL_NA",
    "gnaf_pid": "GAVIC422154895"
   }
  },
  {
   "type": "Feature",
   "geometry": {
    "type": "Point",
    "coordinates": [
     146.63355823,
     -38.07263975
    ]
   },
   "properties": {
    "name": "98 HENDERSONS ROAD TOONGABBIE 3856",
    "locID": "LOC000060767284",
    "tech": "WIRELESS",
    "upgrade": "NULL_NA",
    "gnaf_pid": "GAVIC422154896"
   }
  },
  {
   "type": "Feature",
   "geometry": {
    "type": "Point",
    "coordinates": [
     146.64120725,
     -38.02125459
    ]
   },
   "properties": {
    "name": "10 HILLIER LANE TOONGABBIE 3856",
    "locID": "LOC000073792635",
    "tech": "WIRELESS",
    "upgrade": "NULL_NA",
    "gnaf_pid": "GAVIC422156286"
   }
  },
  {
   "type": "Feature",
   "geometry": {
    "type": "Point",
    "coordinates": [
     146.63938345,
     -38.02143828
    ]
   },
   "properties": {
    "name": "15 HILLIER LANE TOONGABBIE 3856",
    "locID": "LOC000088898104",
    "tech": "WIRELESS",
    "upgrade": "NULL_NA",
    "gnaf_pid": "GAVIC422156287"
   }
  },
  {
   "type": "Feature",
   "geometry": {
    "type": "Point",
    "coordinates": [
     146.63935154,
     -38.02097851
    ]
   },
   "properties": {
    "name": "20 HILLIER LANE TOONGABBIE 3856",
    "locID": "LOC000021116709",
    "tech": "WIRELESS",
    "upgrade": "NULL_NA",
    "gnaf_pid": "GAVIC422156288"
   }
  },
  {
   "type": "Feature",
   "geometry": {
    "type": "Point",
    "coordinates": [
     146.6390422,
     -38.02132906
    ]
   },
   "properties": {
    "name": "25 HILLIER LANE TOONGABBIE 3856",
    "locID": "LOC000036162494",
    "tech": "WIRELESS",
    "upgrade": "NULL_NA",
    "gnaf_pid": "GAVIC422156289"
   }
  },
  {
   "type": "Feature",
   "geometry": {
    "type": "Point",
    "coordinates": [
     146.6265858,
     -38.03104204
    ]
   },
   "properties": {
    "name": "50 HILSLEY COURT TOONGABBIE 3856",
    "locID": "LOC000045127092",
    "tech": "WIRELESS",
    "upgrade": "NULL_NA",
    "gnaf_pid": "GAVIC422156336"
   }
  },
  {
   "type": "Feature",
   "geometry": {
    "type": "Point",
    "coordinates": [
     146.60488849,
     -38.05261984
    ]
   },
   "properties": {
    "name": "185 HUMPHREY ROAD TOONGABBIE 3856",
    "locID": "LOC000061317897",
    "tech": "WIRELESS",
    "upgrade": "NULL_NA",
    "gnaf_pid": "GAVIC422157823"
   }
  },
  {
   "type": "Feature",
   "geometry": {
    "type": "Point",
    "coordinates": [
     146.59575484,
     -38.05332783
    ]
   },
   "properties": {
    "name": "255 HUMPHREY ROAD TOONGABBIE 3856",
    "locID": "LOC000038332970",
    "tech": "WIRELESS",
    "upgrade": "NULL_NA",
    "gnaf_pid": "GAVIC422157824"
   }
  },
  {
   "type": "Feature",
   "geometry": {
    "type": "Point",
    "coordinates": [
     146.61484811,
     -38.06390983
    ]
   },
   "properties": {
    "name": "15 NICHOLSONS ROAD TOONGABBIE 3856",
    "locID": "LOC000055843057",
    "tech": "WIRELESS",
    "upgrade": "NULL_NA",
    "gnaf_pid": "GAVIC422177203"
   }
  },
  {
   "type": "Feature",
   "geometry": {
    "type": "Point",
    "coordinates": [
     146.6149761,
     -38.06341455
    ]
   },
   "properties": {
    "name": "25 NICHOLSONS ROAD TOONGABBIE 3856",
    "locID": "LOC000084887131",
    "tech": "WIRELESS",
    "upgrade": "NULL_NA",
    "gnaf_pid": "GAVIC422177204"
   }
  },
  {
   "type": "Feature",
   "geometry": {
    "type": "Point",
    "coordinates": [
     146.6152677,
     -38.0621537
    ]
   },
   "properties": {
    "name": "35 NICHOLSONS ROAD TOONGABBIE 3856",
    "locID": "LOC000011935528",
    "tech": "WIRELESS",
    "upgrade": "NULL_NA",
    "gnaf_pid": "GAVIC422177205"
   }
  },
  {
   "type": "Feature",
   "geometry": {
    "type": "Point",
    "coordinates": [
     146.61531556,
     -38.06172125
    ]
   },
   "properties": {
    "name": "45 NICHOLSONS ROAD TOONGABBIE 3856",
    "locID": "LOC000033753641",
    "tech": "WIRELESS",
    "upgrade": "NULL_NA",
    "gnaf_pid": "GAVIC422177206"
   }
  },
  {
   "type": "Feature",
   "geometry": {
    "type": "Point",
    "coordinates": [
     146.61657294,
     -38.04358265
    ]
   },
   "properties": {
    "name": "120 OLD WALHALLA ROAD TOONGABBIE 3856",
    "locID": "LOC000048838626",
    "tech": "WIRELESS",
    "upgrade": "NULL_NA",
    "gnaf_pid": "GAVIC422178917"
   }
  },
  {
   "type": "Feature",
   "geometry": {
    "type": "Point",
    "coordinates": [
     146.61515773,
     -38.0417935
    ]
   },
   "properties": {
    "name": "150 OLD WALHALLA ROAD TOONGABBIE 3856",
    "locID": "LOC000059930579",
    "tech": "WIRELESS",
    "upgrade": "NULL_NA",
    "gnaf_pid": "GAVIC422178918"
   }
  },
  {
   "type": "Feature",
   "geometry": {
    "type": "Point",
    "coordinates": [
     146.65912315,
     -38.06205464
    ]
   },
   "properties": {
    "name": "2174 SALE-TOONGABBIE ROAD TOONGABBIE 3856",
    "locID": "LOC000038721371",
    "tech": "SATELLITE",
    "upgrade": "NULL_NA",
    "gnaf_pid": "GAVIC422187982"
   }
  },
  {
   "type": "Feature",
   "geometry": {
    "type": "Point",
    "coordinates": [
     146.6332021,
     -38.02726846
    ]
   },
   "properties": {
    "name": "20 SHEILA COURT TOONGABBIE 3856",
    "locID": "LOC000101038386",
    "tech": "WIRELESS",
    "upgrade": "NULL_NA",
    "gnaf_pid": "GAVIC422189797"
   }
  },
  {
   "type": "Feature",
   "geometry": {
    "type": "Point",
    "coordinates": [
     146.63129658,
     -38.0278123
    ]
   },
   "properties": {
    "name": "35 SHEILA COURT TOONGABBIE 3856",
    "locID": "LOC000046641779",
    "tech": "WIRELESS",
    "upgrade": "NULL_NA",
    "gnaf_pid": "GAVIC422189798"
   }
  },
  {
   "type": "Feature",
   "geometry": {
    "type": "Point",
    "coordinates": [
     146.6306591,
     -38.02769313
    ]
   },
   "properties": {
    "name": "40 SHEILA COURT TOONGABBIE 3856",
    "locID": "LOC000106471276",
    "tech": "WIRELESS",
    "upgrade": "NULL_NA",
    "gnaf_pid": "GAVIC422189799"
   }
  },
  {
   "type": "Feature",
   "geometry": {
    "type": "Point",
    "coordinates": [
     146.63069206,
     -38.02793658
    ]
   },
   "properties": {
    "name": "45 SHEILA COURT TOONGABBIE 3856",
    "locID": "LOC000029381475",
    "tech": "WIRELESS",
    "upgrade": "NULL_NA",
    "gnaf_pid": "GAVIC422189800"
   }
  },
  {
   "type": "Feature",
   "geometry": {
    "type": "Point",
    "coordinates": [
     146.62886504,
     -38.03323936
    ]
   },
   "properties": {
    "name": "235 TOONGABBIE-COWWARR ROAD TOONGABBIE 3856",
    "locID": "LOC000143055125",
    "tech": "WIRELESS",
    "upgrade": "NULL_NA",
    "gnaf_pid": "GAVIC422197316"
   }
  },
  {
   "type": "Feature",
   "geometry": {
    "type": "Point",
    "coordinates": [
     146.63030513,
     -38.03237868
    ]
   },
   "properties": {
    "name": "255 TOONGABBIE-COWWARR ROAD TOONGABBIE 3856",
    "locID": "LOC000075937809",
    "tech": "WIRELESS",
    "upgrade": "NULL_NA",
    "gnaf_pid": "GAVIC422197317"
   }
  },
  {
   "type": "Feature",
   "geometry": {
    "type": "Point",
    "coordinates": [
     146.63241179,
     -38.03037543
    ]
   },
   "properties": {
    "name": "285 TOONGABBIE-COWWARR ROAD TOONGABBIE 3856",
    "locID": "LOC000092091558",
    "tech": "WIRELESS",
    "upgrade": "NULL_NA",
    "gnaf_pid": "GAVIC422197318"
   }
  },
  {
   "type": "Feature",
   "geometry": {
    "type": "Point",
    "coordinates": [
     146.6332359,
     -38.02962994
    ]
   },
   "properties": {
    "name": "295 TOONGABBIE-COWWARR ROAD TOONGABBIE 3856",
    "locID": "LOC000005137223",
    "tech": "WIRELESS",
    "upgrade": "NULL_NA",
    "gnaf_pid": "GAVIC422197319"
   }
  },
  {
   "type": "Feature",
   "geometry": {
    "type": "Point",
    "coordinates": [
     146.63614435,
     -38.02674585
    ]
   },
   "properties": {
    "name": "335 TOONGABBIE-COWWARR ROAD TOONGABBIE 3856",
    "locID": "LOC000044596754",
    "tech": "WIRELESS",
    "upgrade": "NULL_NA",
    "gnaf_pid": "GAVIC422197320"
   }
  },
  {
   "type": "Feature",
   "geometry": {
    "type": "Point",
    "coordinates": [
     146.63922378,
     -38.02379915
    ]
   },
   "properties": {
    "name": "385 TOONGABBIE-COWWARR ROAD TOONGABBIE 3856",
    "locID": "LOC000021912171",
    "tech": "WIRELESS",
    "upgrade": "NULL_NA",
    "gnaf_pid": "GAVIC422197321"
   }
  },
  {
   "type": "Feature",
   "geometry": {
    "type": "Point",
    "coordinates": [
     146.6516312,
     -38.0117864
    ]
   },
   "properties": {
    "name": "545 TOONGABBIE-COWWARR ROAD TOONGABBIE 3856",
    "locID": "LOC000041341653",
    "tech": "WIRELESS",
    "upgrade": "NULL_NA",
    "gnaf_pid": "GAVIC422197322"
   }
  },
  {
   "type": "Feature",
   "geometry": {
    "type": "Point",
    "coordinates": [
     146.6248035,
     -38.04537571
    ]
   },
   "properties": {
    "name": "93 TOONGABBIE-COWWARR ROAD TOONGABBIE 3856",
    "locID": "LOC000038936589",
    "tech": "WIRELESS",
    "upgrade": "NULL_NA",
    "gnaf_pid": "GAVIC422197323"
   }
  },
  {
   "type": "Feature",
   "geometry": {
    "type": "Point",
    "coordinates": [
     146.64178163,
     -38.06005641
    ]
   },
   "properties": {
    "name": "1880 TRARALGON-MAFFRA ROAD TOONGABBIE 3856",
    "locID": "LOC000026898298",
    "tech": "WIRELESS",
    "upgrade": "NULL_NA",
    "gnaf_pid": "GAVIC422197964"
   }
  },
  {
   "type": "Feature",
   "geometry": {
    "type": "Point",
    "coordinates": [
     146.64773184,
     -38.0600834
    ]
   },
   "properties": {
    "name": "1915 TRARALGON-MAFFRA ROAD TOONGABBIE 3856",
    "locID": "ChIJTbdWczLfKGsRhqSuG27aPmU",
    "tech": "SATELLITE",
    "upgrade": "UNKNOWN",
    "gnaf_pid": "GAVIC422197965"
   }
  },
  {
   "type": "Feature",
   "geometry": {
    "type": "Point",
    "coordinates": [
     146.66741184,
     -38.03411168
    ]
   },
   "properties": {
    "name": "2310 TRARALGON-MAFFRA ROAD TOONGABBIE 3856",
    "locID": "ChIJV-WGnz_ZKGsRutMta1MT9g8",
    "tech": "WIRELESS",
    "upgrade": "UNKNOWN",
    "gnaf_pid": "GAVIC422197966"
   }
  },
  {
   "type": "Feature",
   "geometry": {
    "type": "Point",
    "coordinates": [
     146.62721614,
     -38.02358143
    ]
   },
   "properties": {
    "name": "45 WYKES ROAD TOONGABBIE 3856",
    "locID": "LOC000107955797",
    "tech": "WIRELESS",
    "upgrade": "NULL_NA",
    "gnaf_pid": "GAVIC422205344"
   }
  },
  {
   "type": "Feature",
   "geometry": {
    "type": "Point",
    "coordinates": [
     146.62296374,
     -38.02187345
    ]
   },
   "properties": {
    "name": "85 WYKES ROAD TOONGABBIE 3856",
    "locID": "LOC000056702662",
    "tech": "WIRELESS",
    "upgrade": "NULL_NA",
    "gnaf_pid": "GAVIC422205345"
   }
  },
  {
   "type": "Feature",
   "geometry": {
    "type": "Point",
    "coordinates": [
     146.66942676,
     -38.08770758
    ]
   },
   "properties": {
    "name": "461 HENDERSONS ROAD TOONGABBIE 3856",
    "locID": "LOC000048590269",
    "tech": "WIRELESS",
    "upgrade": "NULL_NA",
    "gnaf_pid": "GAVIC422297470"
   }
  },
  {
   "type": "Feature",
   "geometry": {
    "type": "Point",
    "coordinates": [
     146.6301776,
     -38.03054868
    ]
   },
   "properties": {
    "name": "10 HILSLEY COURT TOONGABBIE 3856",
    "locID": "LOC000057412439",
    "tech": "WIRELESS",
    "upgrade": "NULL_NA",
    "gnaf_pid": "GAVIC422298725"
   }
  },
  {
   "type": "Feature",
   "geometry": {
    "type": "Point",
    "coordinates": [
     146.62907899,
     -38.03057871
    ]
   },
   "properties": {
    "name": "25 HILSLEY COURT TOONGABBIE 3856",
    "locID": "ChIJjZ8PLOjeKGsRd8-vGHK9mgA",
    "tech": "WIRELESS",
    "upgrade": "UNKNOWN",
    "gnaf_pid": "GAVIC422298726"
   }
  },
  {
   "type": "Feature",
   "geometry": {
    "type": "Point",
    "coordinates": [
     146.62680089,
     -38.03132211
    ]
   },
   "properties": {
    "name": "49 HILSLEY COURT TOONGABBIE 3856",
    "locID": "LOC000049827741",
    "tech": "WIRELESS",
    "upgrade": "NULL_NA",
    "gnaf_pid": "GAVIC422298730"
   }
  },
  {
   "type": "Feature",
   "geometry": {
    "type": "Point",
    "coordinates": [
     146.66301399,
     -38.05600036
    ]
   },
   "properties": {
    "name": "2064 TRARALGON-MAFFRA ROAD TOONGABBIE 3856",
    "locID": "LOC000051736409",
    "tech": "WIRELESS",
    "upgrade": "NULL_NA",
    "gnaf_pid": "GAVIC422329791"
   }
  },
  {
   "type": "Feature",
   "geometry": {
    "type": "Point",
    "coordinates": [
     146.6222062,
     -38.05739142
    ]
   },
   "properties": {
    "name": "2 KING STREET TOONGABBIE 3856",
    "locID": "LOC000179174608",
    "tech": "WIRELESS",
    "upgrade": "NULL_NA",
    "gnaf_pid": "GAVIC423104781"
   }
  },
  {
   "type": "Feature",
   "geometry": {
    "type": "Point",
    "coordinates": [
     146.6215653,
     -38.0608074
    ]
   },
   "properties": {
    "name": "7 KING STREET TOONGABBIE 3856",
    "locID": "LOC000034209710",
    "tech": "WIRELESS",
    "upgrade": "NULL_NA",
    "gnaf_pid": "GAVIC423104785"
   }
  },
  {
   "type": "Feature",
   "geometry": {
    "type": "Point",
    "coordinates": [
     146.6214635,
     -38.0605486
    ]
   },
   "properties": {
    "name": "9 KING STREET TOONGABBIE 3856",
    "locID": "LOC000033635401",
    "tech": "WIRELESS",
    "upgrade": "NULL_NA",
    "gnaf_pid": "GAVIC423104786"
   }
  },
  {
   "type": "Feature",
   "geometry": {
    "type": "Point",
    "coordinates": [
     146.62445524,
     -38.06892496
    ]
   },
   "properties": {
    "name": "21 RIVER ROAD TOONGABBIE 3856",
    "locID": "ChIJxZSZo2jfKGsRTHdhdcKo4oM",
    "tech": "WIRELESS",
    "upgrade": "UNKNOWN",
    "gnaf_pid": "GAVIC423107616"
   }
  },
  {
   "type": "Feature",
   "geometry": {
    "type": "Point",
    "coordinates": [
     146.62864163,
     -38.05558456
    ]
   },
   "properties": {
    "name": "47 SPARKS LANE TOONGABBIE 3856",
    "locID": "LOC000021973443",
    "tech": "WIRELESS",
    "upgrade": "NULL_NA",
    "gnaf_pid": "GAVIC423108344"
   }
  },
  {
   "type": "Feature",
   "geometry": {
    "type": "Point",
    "coordinates": [
     146.6283429,
     -38.05973175
    ]
   },
   "properties": {
    "name": "4 SPARKS LANE TOONGABBIE 3856",
    "locID": "LOC000037884826",
    "tech": "WIRELESS",
    "upgrade": "NULL_NA",
    "gnaf_pid": "GAVIC423108345"
   }
  },
  {
   "type": "Feature",
   "geometry": {
    "type": "Point",
    "coordinates": [
     146.62785296,
     -38.05953728
    ]
   },
   "properties": {
    "name": "5 SPARKS LANE TOONGABBIE 3856",
    "locID": "LOC000023486195",
    "tech": "WIRELESS",
    "upgrade": "NULL_NA",
    "gnaf_pid": "GAVIC423108346"
   }
  },
  {
   "type": "Feature",
   "geometry": {
    "type": "Point",
    "coordinates": [
     146.64844973,
     -38.0148413
    ]
   },
   "properties": {
    "name": "513 TOONGABBIE-COWWARR ROAD TOONGABBIE 3856",
    "locID": "LOC000100898268",
    "tech": "WIRELESS",
    "upgrade": "NULL_NA",
    "gnaf_pid": "GAVIC423109010"
   }
  },
  {
   "type": "Feature",
   "geometry": {
    "type": "Point",
    "coordinates": [
     146.62515935,
     -38.05946264
    ]
   },
   "properties": {
    "name": "2 VICTORIA STREET TOONGABBIE 3856",
    "locID": "LOC000026799603",
    "tech": "WIRELESS",
    "upgrade": "NULL_NA",
    "gnaf_pid": "GAVIC423109200"
   }
  },
  {
   "type": "Feature",
   "geometry": {
    "type": "Point",
    "coordinates": [
     146.62469625,
     -38.0591345
    ]
   },
   "properties": {
    "name": "3 VICTORIA STREET TOONGABBIE 3856",
    "locID": "LOC000115048175",
    "tech": "WIRELESS",
    "upgrade": "NULL_NA",
    "gnaf_pid": "GAVIC423109201"
   }
  },
  {
   "type": "Feature",
   "geometry": {
    "type": "Point",
    "coordinates": [
     146.62473075,
     -38.0589569
    ]
   },
   "properties": {
    "name": "5 VICTORIA STREET TOONGABBIE 3856",
    "locID": "LOC000114860591",
    "tech": "WIRELESS",
    "upgrade": "NULL_NA",
    "gnaf_pid": "GAVIC423109202"
   }
  },
  {
   "type": "Feature",
   "geometry": {
    "type": "Point",
    "coordinates": [
     146.62524845,
     -38.05901945
    ]
   },
   "properties": {
    "name": "6 VICTORIA STREET TOONGABBIE 3856",
    "locID": "LOC000089085436",
    "tech": "WIRELESS",
    "upgrade": "NULL_NA",
    "gnaf_pid": "GAVIC423109203"
   }
  },
  {
   "type": "Feature",
   "geometry": {
    "type": "Point",
    "coordinates": [
     146.62476565,
     -38.05877715
    ]
   },
   "properties": {
    "name": "7 VICTORIA STREET TOONGABBIE 3856",
    "locID": "LOC000114846658",
    "tech": "WIRELESS",
    "upgrade": "NULL_NA",
    "gnaf_pid": "GAVIC423109204"
   }
  },
  {
   "type": "Feature",
   "geometry": {
    "type": "Point",
    "coordinates": [
     146.62528475,
     -38.05883889
    ]
   },
   "properties": {
    "name": "8 VICTORIA STREET TOONGABBIE 3856",
    "locID": "LOC000036113711",
    "tech": "WIRELESS",
    "upgrade": "NULL_NA",
    "gnaf_pid": "GAVIC423109205"
   }
  },
  {
   "type": "Feature",
   "geometry": {
    "type": "Point",
    "coordinates": [
     146.63467816,
     -38.02142375
    ]
   },
   "properties": {
    "name": "10 LANG PLACE TOONGABBIE 3856",
    "locID": "LOC000057622245",
    "tech": "WIRELESS",
    "upgrade": "NULL_NA",
    "gnaf_pid": "GAVIC423222057"
   }
  },
  {
   "type": "Feature",
   "geometry": {
    "type": "Point",
    "coordinates": [
     146.63415495,
     -38.02125088
    ]
   },