{
 "type": "FeatureCollection",
 "generated": "2024-07-25T21:09:57.285398",
 "suburb": "TOONGABBIE",
 "features": [
  {
   "type": "Feature",
   "geometry": {
    "type": "Point",
    "coordinates": [
     146.628403,
     -38.05673035
    ]
   },
   "properties": {
    "name": "35 SPARKS LANE TOONGABBIE 3856",
    "locID": "LOC000125310175",
    "tech": "WIRELESS",
    "upgrade": "NULL_NA",
    "gnaf_pid": "GAVIC412469286",
    "tech_change_status": "Not Planned",
    "program_type": "Fixed Wireless and Satellite Upgrade Program",
    "target_eligibility_quarter": "NA"
   }
  },
  {
   "type": "Feature",
   "geometry": {
    "type": "Point",
    "coordinates": [
     146.6105174,
     -38.05293604
    ]
   },
   "properties": {
    "name": "140 HUMPHREY ROAD TOONGABBIE 3856",
    "locID": "LOC000036780309",
    "tech": "WIRELESS",
    "upgrade": "NULL_NA",
    "gnaf_pid": "GAVIC412472699",
    "tech_change_status": "Not Planned",
    "program_type": "Fixed Wireless and Satellite Upgrade Program",
    "target_eligibility_quarter": "NA"
   }
  },
  {
   "type": "Feature",
   "geometry": {
    "type": "Point",
    "coordinates": [
     146.63252473,
     -38.02373334
    ]
   },
   "properties": {
    "name": "20 TRAVOYERS ROAD TOONGABBIE 3856",
    "locID": "LOC000106138045",
    "tech": "WIRELESS",
    "upgrade": "NULL_NA",
    "gnaf_pid": "GAVIC412484883",
    "tech_change_status": "Not Planned",
    "program_type": "Fixed Wireless and Satellite Upgrade Program",
    "target_eligibility_quarter": "NA"
   }
  },
  {
   "type": "Feature",
   "geometry": {
    "type": "Point",
    "coordinates": [
     146.62529965,
     -38.05615775
    ]
   },
   "properties": {
    "name": "31 VICTORIA STREET TOONGABBIE 3856",
    "locID": "LOC000071772688",
    "tech": "WIRELESS",
    "upgrade": "NULL_NA",
    "gnaf_pid": "GAVIC412484885",
    "tech_change_status": "Not Planned",
    "program_type": "Fixed Wireless and Satellite Upgrade Program",
    "target_eligibility_quarter": "NA"
   }
  },
  {
   "type": "Feature",
   "geometry": {
    "type": "Point",
    "coordinates": [
     146.64775113,
     -38.0608135
    ]
   },
   "properties": {
    "name": "1920 TRARALGON-MAFFRA ROAD TOONGABBIE 3856",
    "locID": "LOC000055276151",
    "tech": "WIRELESS",
    "upgrade": "NULL_NA",
    "gnaf_pid": "GAVIC412484889",
    "tech_change_status": "Eligible to Order",
    "program_type": "Fixed Wireless and Satellite Upgrade Program",
    "target_eligibility_quarter": "NA"
   }
  },
  {
   "type": "Feature",
   "geometry": {
    "type": "Point",
    "coordinates": [
     146.61048115,
     -38.05332346
    ]
   },
   "properties": {
    "name": "145 HUMPHREY ROAD TOONGABBIE 3856",
    "locID": "LOC000007027684",
    "tech": "WIRELESS",
    "upgrade": "NULL_NA",
    "gnaf_pid": "GAVIC412485390",
    "tech_change_status": "Not Planned",
    "program_type": "Fixed Wireless and Satellite Upgrade Program",
    "target_eligibility_quarter": "NA"
   }
  },
  {
   "type": "Feature",
   "geometry": {
    "type": "Point",
    "coordinates": [
     146.61500695,
     -38.0684077
    ]
   },
   "properties": {
    "name": "245 GUYATTS ROAD TOONGABBIE 3856",
    "locID": "LOC000079922959",
    "tech": "WIRELESS",
    "upgrade": "NULL_NA",
    "gnaf_pid": "GAVIC412485394",
    "tech_change_status": "Not Planned",
    "program_type": "Fixed Wireless and Satellite Upgrade Program",
    "target_eligibility_quarter": "NA"
   }
  },
  {
   "type": "Feature",
   "geometry": {
    "type": "Point",
    "coordinates": [
     146.6213732,
     -38.05890613
    ]
   },
   "properties": {
    "name": "23 KING STREET TOONGABBIE 3856",
    "locID": "LOC000114888554",
    "tech": "WIRELESS",
    "upgrade": "NULL_NA",
    "gnaf_pid": "GAVIC412485399",
    "tech_change_status": "Not Planned",
    "program_type": "Fixed Wireless and Satellite Upgrade Program",
    "target_eligibility_quarter": "NA"
   }
  },
  {
   "type": "Feature",
   "geometry": {
    "type": "Point",
    "coordinates": [
     146.62238113,
     -38.05385049
    ]
   },
   "properties": {
    "name": "75 KING STREET TOONGABBIE 3856",
    "locID": "LOC000085243882",
    "tech": "WIRELESS",
    "upgrade": "NULL_NA",
    "gnaf_pid": "GAVIC412486822",
    "tech_change_status": "Not Planned",
    "program_type": "Fixed Wireless and Satellite Upgrade Program",
    "target_eligibility_quarter": "NA"
   }
  },
  {
   "type": "Feature",
   "geometry": {
    "type": "Point",
    "coordinates": [
     146.6224905,
     -38.05330954
    ]
   },
   "properties": {
    "name": "81 KING STREET TOONGABBIE 3856",
    "locID": "LOC000023564242",
    "tech": "WIRELESS",
    "upgrade": "NULL_NA",
    "gnaf_pid": "GAVIC412486824",
    "tech_change_status": "Not Planned",
    "program_type": "Fixed Wireless and Satellite Upgrade Program",
    "target_eligibility_quarter": "NA"
   }
  },
  {
   "type": "Feature",
   "geometry": {
    "type": "Point",
    "coordinates": [
     146.6254664,
     -38.04290778
    ]
   },
   "properties": {
    "name": "120 TOONGABBIE-COWWARR ROAD TOONGABBIE 3856",
    "locID": "LOC000017730184",
    "tech": "WIRELESS",
    "upgrade": "NULL_NA",
    "gnaf_pid": "GAVIC412486825",
    "tech_change_status": "Not Planned",
    "program_type": "Fixed Wireless and Satellite Upgrade Program",
    "target_eligibility_quarter": "NA"
   }
  },
  {
   "type": "Feature",
   "geometry": {
    "type": "Point",
    "coordinates": [
     146.62626522,
     -38.03908161
    ]
   },
   "properties": {
    "name": "160 TOONGABBIE-COWWARR ROAD TOONGABBIE 3856",
    "locID": "LOC000094147310",
    "tech": "WIRELESS",
    "upgrade": "NULL_NA",
    "gnaf_pid": "GAVIC412489653",
    "tech_change_status": "Not Planned",
    "program_type": "Fixed Wireless and Satellite Upgrade Program",
    "target_eligibility_quarter": "NA"
   }
  },
  {
   "type": "Feature",
   "geometry": {
    "type": "Point",
    "coordinates": [
     146.61637855,
     -38.06772721
    ]
   },
   "properties": {
    "name": "1595 TRARALGON-MAFFRA ROAD TOONGABBIE 3856",
    "locID": "LOC000060394538",
    "tech": "WIRELESS",
    "upgrade": "NULL_NA",
    "gnaf_pid": "GAVIC412490430",
    "tech_change_status": "Not Planned",
    "program_type": "Fixed Wireless and Satellite Upgrade Program",
    "target_eligibility_quarter": "NA"
   }
  },
  {
   "type": "Feature",
   "geometry": {
    "type": "Point",
    "coordinates": [
     146.62872008,
     -38.06432057
    ]
   },
   "properties": {
    "name": "2 HEYWOOD STREET TOONGABBIE 3856",
    "locID": "LOC000029400989",
    "tech": "WIRELESS",
    "upgrade": "NULL_NA",
    "gnaf_pid": "GAVIC412492994",
    "tech_change_status": "Not Planned",
    "program_type": "Fixed Wireless and Satellite Upgrade Program",
    "target_eligibility_quarter": "NA"
   }
  },
  {
   "type": "Feature",
   "geometry": {
    "type": "Point",
    "coordinates": [
     146.62873222,
     -38.05751729
    ]
   },
   "properties": {
    "name": "20 SPARKS LANE TOONGABBIE 3856",
    "locID": "LOC000007204023",
    "tech": "WIRELESS",
    "upgrade": "NULL_NA",
    "gnaf_pid": "GAVIC412494100",
    "tech_change_status": "Not Planned",
    "program_type": "Fixed Wireless and Satellite Upgrade Program",
    "target_eligibility_quarter": "NA"
   }
  },
  {
   "type": "Feature",
   "geometry": {
    "type": "Point",
    "coordinates": [
     146.63648624,
     -38.05900369
    ]
   },
   "properties": {
    "name": "1815 TRARALGON-MAFFRA ROAD TOONGABBIE 3856",
    "locID": "LOC000101472885",
    "tech": "WIRELESS",
    "upgrade": "NULL_NA",
    "gnaf_pid": "GAVIC412494101",
    "tech_change_status": "Not Planned",
    "program_type": "Fixed Wireless and Satellite Upgrade Program",
    "target_eligibility_quarter": "NA"
   }
  },
  {
   "type": "Feature",
   "geometry": {
    "type": "Point",
    "coordinates": [
     146.62257944,
     -38.05754156
    ]
   },
   "properties": {
    "name": "2 STEWART STREET TOONGABBIE 3856",
    "locID": "LOC000125305826",
    "tech": "WIRELESS",
    "upgrade": "NULL_NA",
    "gnaf_pid": "GAVIC412501399",
    "tech_change_status": "Not Planned",
    "program_type": "Fixed Wireless and Satellite Upgrade Program",
    "target_eligibility_quarter": "NA"
   }
  },
  {
   "type": "Feature",
   "geometry": {
    "type": "Point",
    "coordinates": [
     146.62227174,
     -38.05439153
    ]
   },
   "properties": {
    "name": "69 KING STREET TOONGABBIE 3856",
    "locID": "LOC000106757146",
    "tech": "WIRELESS",
    "upgrade": "NULL_NA",
    "gnaf_pid": "GAVIC412504233",
    "tech_change_status": "Not Planned",
    "program_type": "Fixed Wireless and Satellite Upgrade Program",
    "target_eligibility_quarter": "NA"
   }
  },
  {
   "type": "Feature",
   "geometry": {
    "type": "Point",
    "coordinates": [
     146.62608484,
     -38.05798765
    ]
   },
   "properties": {
    "name": "24 STEWART STREET TOONGABBIE 3856",
    "locID": "LOC000125305890",
    "tech": "WIRELESS",
    "upgrade": "NULL_NA",
    "gnaf_pid": "GAVIC412504237",
    "tech_change_status": "Not Planned",
    "program_type": "Fixed Wireless and Satellite Upgrade Program",
    "target_eligibility_quarter": "NA"
   }
  },
  {
   "type": "Feature",
   "geometry": {
    "type": "Point",
    "coordinates": [
     146.63227406,
     -38.03057328
    ]
   },
   "properties": {
    "name": "275 TOONGABBIE-COWWARR ROAD TOONGABBIE 3856",
    "locID": "LOC000081284804",
    "tech": "WIRELESS",
    "upgrade": "NULL_NA",
    "gnaf_pid": "GAVIC412504238",
    "tech_change_status": "Not Planned",
    "program_type": "Fixed Wireless and Satellite Upgrade Program",
    "target_eligibility_quarter": "NA"
   }
  },
  {
   "type": "Feature",
   "geometry": {
    "type": "Point",
    "coordinates": [
     146.62517695,
     -38.0324796
    ]
   },
   "properties": {
    "name": "70 HILSLEY COURT TOONGABBIE 3856",
    "locID": "LOC000040619608",
    "tech": "WIRELESS",
    "upgrade": "NULL_NA",
    "gnaf_pid": "GAVIC412504240",
    "tech_change_status": "Not Planned",
    "program_type": "Fixed Wireless and Satellite Upgrade Program",
    "target_eligibility_quarter": "NA"
   }
  },
  {
   "type": "Feature",
   "geometry": {
    "type": "Point",
    "coordinates": [
     146.6309339,
     -38.0707839
    ]
   },
   "properties": {
    "name": "66 HENDERSONS ROAD TOONGABBIE 3856",
    "locID": "LOC000185091120",
    "tech": "WIRELESS",
    "upgrade": "NULL_NA",
    "gnaf_pid": "GAVIC412507201",
    "tech_change_status": "Not Planned",
    "program_type": "Fixed Wireless and Satellite Upgrade Program",
    "target_eligibility_quarter": "NA"
   }
  },
  {
   "type": "Feature",
   "geometry": {
    "type": "Point",
    "coordinates": [
     146.63131965,
     -38.03230075
    ]
   },
   "properties": {
    "name": "260 TOONGABBIE-COWWARR ROAD TOONGABBIE 3856",
    "locID": "LOC000012045209",
    "tech": "WIRELESS",
    "upgrade": "NULL_NA",
    "gnaf_pid": "GAVIC412507202",
    "tech_change_status": "Not Planned",
    "program_type": "Fixed Wireless and Satellite Upgrade Program",
    "target_eligibility_quarter": "NA"
   }
  },
  {
   "type": "Feature",
   "geometry": {
    "type": "Point",
    "coordinates": [
     146.63219959,
     -38.0272383
    ]
   },
   "properties": {
    "name": "30 SHEILA COURT TOONGABBIE 3856",
    "locID": "LOC000051735607",
    "tech": "WIRELESS",
    "upgrade": "NULL_NA",
    "gnaf_pid": "GAVIC412507672",
    "tech_change_status": "Not Planned",
    "program_type": "Fixed Wireless and Satellite Upgrade Program",
    "target_eligibility_quarter": "NA"
   }
  },
  {
   "type": "Feature",
   "geometry": {
    "type": "Point",
    "coordinates": [
     146.62739935,
     -38.06293885
    ]
   },
   "properties": {
    "name": "3 RIES STREET TOONGABBIE 3856",
    "locID": "LOC000082519289",
    "tech": "WIRELESS",
    "upgrade": "NULL_NA",
    "gnaf_pid": "GAVIC412507674",
    "tech_change_status": "Not Planned",
    "program_type": "Fixed Wireless and Satellite Upgrade Program",
    "target_eligibility_quarter": "NA"
   }
  },
  {
   "type": "Feature",
   "geometry": {
    "type": "Point",
    "coordinates": [
     146.62521105,
     -38.0347329
    ]
   },
   "properties": {
    "name": "10 RESERVOIR ROAD TOONGABBIE 3856",
    "locID": "LOC000073161109",
    "tech": "WIRELESS",
    "upgrade": "NULL_NA",
    "gnaf_pid": "GAVIC412507892",
    "tech_change_status": "Not Planned",
    "program_type": "Fixed Wireless and Satellite Upgrade Program",
    "target_eligibility_quarter": "NA"
   }
  },
  {
   "type": "Feature",
   "geometry": {
    "type": "Point",
    "coordinates": [
     146.59822768,
     -38.05342643
    ]
   },
   "properties": {
    "name": "245 HUMPHREY ROAD TOONGABBIE 3856",
    "locID": "LOC000081236001",
    "tech": "WIRELESS",
    "upgrade": "NULL_NA",
    "gnaf_pid": "GAVIC412519351",
    "tech_change_status": "Not Planned",
    "program_type": "Fixed Wireless and Satellite Upgrade Program",
    "target_eligibility_quarter": "NA"
   }
  },
  {
   "type": "Feature",
   "geometry": {
    "type": "Point",
    "coordinates": [
     146.61693013,
     -38.06689084
    ]
   },
   "properties": {
    "name": "1605 TRARALGON-MAFFRA ROAD TOONGABBIE 3856",
    "locID": "LOC000058069241",
    "tech": "WIRELESS",
    "upgrade": "NULL_NA",
    "gnaf_pid": "GAVIC412519353",
    "tech_change_status": "Not Planned",
    "program_type": "Fixed Wireless and Satellite Upgrade Program",
    "target_eligibility_quarter": "NA"
   }
  },
  {
   "type": "Feature",
   "geometry": {
    "type": "Point",
    "coordinates": [
     146.62673681,
     -38.0579518
    ]
   },
   "properties": {
    "name": "LOT 1 GOODWIN STREET TOONGABBIE 3856",
    "locID": "LOC000114179617",
    "tech": "WIRELESS",
    "upgrade": "NULL_NA",
    "gnaf_pid": "GAVIC412675274",
    "tech_change_status": "Not Planned",
    "program_type": "Fixed Wireless and Satellite Upgrade Program",
    "target_eligibility_quarter": "NA"
   }
  },
  {
   "type": "Feature",
   "geometry": {
    "type": "Point",
    "coordinates": [
     146.59686757,
     -38.03145605
    ]
   },
   "properties": {
    "name": "LOT 1 OLD WALHALLA ROAD TOONGABBIE 3856",
    "locID": "LOC000048838626",
    "tech": "WIRELESS",
    "upgrade": "NULL_NA",
    "gnaf_pid": "GAVIC412675306",
    "tech_change_status": "Not Planned",
    "program_type": "Fixed Wireless and Satellite Upgrade Program",
    "target_eligibility_quarter": "NA"
   }
  },
  {
   "type": "Feature",
   "geometry": {
    "type": "Point",
    "coordinates": [
     146.62954663,
     -38.05792927
    ]
   },
   "properties": {
    "name": "LOT 6 CAMPBELL STREET TOONGABBIE 3856",
    "locID": "LOC000010227380",
    "tech": "WIRELESS",
    "upgrade": "NULL_NA",
    "gnaf_pid": "GAVIC412677418",
    "tech_change_status": "Not Planned",
    "program_type": "Fixed Wireless and Satellite Upgrade Program",
    "target_eligibility_quarter": "NA"
   }
  },
  {
   "type": "Feature",
   "geometry": {
    "type": "Point",
    "coordinates": [
     146.62611913,
     -38.05348402
    ]
   },
   "properties": {
    "name": "LOT 8 HILL STREET TOONGABBIE 3856",
    "locID": "LOC000003568961",
    "tech": "WIRELESS",
    "upgrade": "NULL_NA",
    "gnaf_pid": "GAVIC412677488",
    "tech_change_status": "Not Planned",
    "program_type": "Fixed Wireless and Satellite Upgrade Program",
    "target_eligibility_quarter": "NA"
   }
  },
  {
   "type": "Feature",
   "geometry": {
    "type": "Point",
    "coordinates": [
     146.62611913,
     -38.05348402
    ]
   },
   "properties": {
    "name": "LOT 2 HILL STREET TOONGABBIE 3856",
    "locID": "LOC000085491137",
    "tech": "WIRELESS",
    "upgrade": "NULL_NA",
    "gnaf_pid": "GAVIC412677535",
    "tech_change_status": "Not Planned",
    "program_type": "Fixed Wireless and Satellite Upgrade Program",
    "target_eligibility_quarter": "NA"
   }
  },
  {
   "type": "Feature",
   "geometry": {
    "type": "Point",
    "coordinates": [
     146.66071906,
     -38.08502422
    ]
   },
   "properties": {
    "name": "LOT 2 HENDERSONS ROAD TOONGABBIE 3856",
    "locID": "LOC000017059038",
    "tech": "WIRELESS",
    "upgrade": "NULL_NA",
    "gnaf_pid": "GAVIC412679757",
    "tech_change_status": "Not Planned",
    "program_type": "Fixed Wireless and Satellite Upgrade Program",
    "target_eligibility_quarter": "NA"
   }
  },
  {
   "type": "Feature",
   "geometry": {
    "type": "Point",
    "coordinates": [
     146.615807,
     -38.06147951
    ]
   },
   "properties": {
    "name": "50 NICHOLSONS ROAD TOONGABBIE 3856",
    "locID": "LOC000081712556",
    "tech": "WIRELESS",
    "upgrade": "NULL_NA",
    "gnaf_pid": "GAVIC419670541",
    "tech_change_status": "Not Planned",
    "program_type": "Fixed Wireless and Satellite Upgrade Program",
    "target_eligibility_quarter": "NA"
   }
  },
  {
   "type": "Feature",
   "geometry": {
    "type": "Point",
    "coordinates": [
     146.62402112,
     -38.06019022
    ]
   },
   "properties": {
    "name": "43 MAIN STREET TOONGABBIE 3856",
    "locID": "LOC000018459430",
    "tech": "WIRELESS",
    "upgrade": "NULL_NA",
    "gnaf_pid": "GAVIC419670543",
    "tech_change_status": "Not Planned",
    "program_type": "Fixed Wireless and Satellite Upgrade Program",
    "target_eligibility_quarter": "NA"
   }
  },
  {
   "type": "Feature",
   "geometry": {
    "type": "Point",
    "coordinates": [
     146.62297696,
     -38.06638036
    ]
   },
   "properties": {
    "name": "9-17 HOWER STREET TOONGABBIE 3856",
    "locID": "LOC000081980373",
    "tech": "WIRELESS",
    "upgrade": "NULL_NA",
    "gnaf_pid": "GAVIC419670546",
    "tech_change_status": "Not Planned",
    "program_type": "Fixed Wireless and Satellite Upgrade Program",
    "target_eligibility_quarter": "NA"
   }
  },
  {
   "type": "Feature",
   "geometry": {
    "type": "Point",
    "coordinates": [
     146.62809491,
     -38.05826054
    ]
   },
   "properties": {
    "name": "19 SPARKS LANE TOONGABBIE 3856",
    "locID": "LOC000086401781",
    "tech": "WIRELESS",
    "upgrade": "NULL_NA",
    "gnaf_pid": "GAVIC419670547",
    "tech_change_status": "Not Planned",
    "program_type": "Fixed Wireless and Satellite Upgrade Program",
    "target_eligibility_quarter": "NA"
   }
  },
  {
   "type": "Feature",
   "geometry": {
    "type": "Point",
    "coordinates": [
     146.62536515,
     -38.0584665
    ]
   },
   "properties": {
    "name": "12 VICTORIA STREET TOONGABBIE 3856",
    "locID": "LOC000073690949",
    "tech": "WIRELESS",
    "upgrade": "NULL_NA",
    "gnaf_pid": "GAVIC419670549",
    "tech_change_status": "Not Planned",
    "program_type": "Fixed Wireless and Satellite Upgrade Program",
    "target_eligibility_quarter": "NA"
   }
  },
  {
   "type": "Feature",
   "geometry": {
    "type": "Point",
    "coordinates": [
     146.62708215,
     -38.05386146
    ]
   },
   "properties": {
    "name": "24-26 HILL STREET TOONGABBIE 3856",
    "locID": "LOC000049316119",
    "tech": "WIRELESS",
    "upgrade": "NULL_NA",
    "gnaf_pid": "GAVIC419670550",
    "tech_change_status": "Not Planned",
    "program_type": "Fixed Wireless and Satellite Upgrade Program",
    "target_eligibility_quarter": "NA"
   }
  },
  {
   "type": "Feature",
   "geometry": {
    "type": "Point",
    "coordinates": [
     146.62850268,
     -38.05890979
    ]
   },
   "properties": {
    "name": "10-12 SPARKS LANE TOONGABBIE 3856",
    "locID": "LOC000125301765",
    "tech": "WIRELESS",
    "upgrade": "NULL_NA",
    "gnaf_pid": "GAVIC419670551",
    "tech_change_status": "Not Planned",
    "program_type": "Fixed Wireless and Satellite Upgrade Program",
    "target_eligibility_quarter": "NA"
   }
  },
  {
   "type": "Feature",
   "geometry": {
    "type": "Point",
    "coordinates": [
     146.62587743,
     -38.05594624
    ]
   },
   "properties": {
    "name": "36-38 VICTORIA STREET TOONGABBIE 3856",
    "locID": "LOC000125310199",
    "tech": "WIRELESS",
    "upgrade": "NULL_NA",
    "gnaf_pid": "GAVIC419670553",
    "tech_change_status": "Not Planned",
    "program_type": "Fixed Wireless and Satellite Upgrade Program",
    "target_eligibility_quarter": "NA"
   }
  },
  {
   "type": "Feature",
   "geometry": {
    "type": "Point",
    "coordinates": [
     146.62836756,
     -38.05690938
    ]
   },
   "properties": {
    "name": "33 SPARKS LANE TOONGABBIE 3856",
    "locID": "LOC000092246978",
    "tech": "WIRELESS",
    "upgrade": "NULL_NA",
    "gnaf_pid": "GAVIC419670554",
    "tech_change_status": "Not Planned",
    "program_type": "Fixed Wireless and Satellite Upgrade Program",
    "target_eligibility_quarter": "NA"
   }
  },
  {
   "type": "Feature",
   "geometry": {
    "type": "Point",
    "coordinates": [
     146.62878421,
     -38.05486305
    ]
   },
   "properties": {
    "name": "55 SPARKS LANE TOONGABBIE 3856",
    "locID": "LOC000013016445",
    "tech": "WIRELESS",
    "upgrade": "NULL_NA",
    "gnaf_pid": "GAVIC419670555",
    "tech_change_status": "Not Planned",
    "program_type": "Fixed Wireless and Satellite Upgrade Program",
    "target_eligibility_quarter": "NA"
   }
  },
  {
   "type": "Feature",
   "geometry": {
    "type": "Point",
    "coordinates": [
     146.62674389,
     -38.05552879
    ]
   },
   "properties": {
    "name": "23-25 HAZEL STREET TOONGABBIE 3856",
    "locID": "LOC000125305861",
    "tech": "WIRELESS",
    "upgrade": "NULL_NA",
    "gnaf_pid": "GAVIC419670587",
    "tech_change_status": "Not Planned",
    "program_type": "Fixed Wireless and Satellite Upgrade Program",
    "target_eligibility_quarter": "NA"
   }
  },
  {
   "type": "Feature",
   "geometry": {
    "type": "Point",
    "coordinates": [
     146.62609708,
     -38.0548657
    ]
   },
   "properties": {
    "name": "46 VICTORIA STREET TOONGABBIE 3856",
    "locID": "LOC000067981742",
    "tech": "WIRELESS",
    "upgrade": "NULL_NA",
    "gnaf_pid": "GAVIC419670588",
    "tech_change_status": "Not Planned",
    "program_type": "Fixed Wireless and Satellite Upgrade Program",
    "target_eligibility_quarter": "NA"
   }
  },
  {
   "type": "Feature",
   "geometry": {
    "type": "Point",
    "coordinates": [
     146.62620696,
     -38.05432539
    ]
   },
   "properties": {
    "name": "52 VICTORIA STREET TOONGABBIE 3856",
    "locID": "LOC000079770634",
    "tech": "WIRELESS",
    "upgrade": "NULL_NA",
    "gnaf_pid": "GAVIC419670589",
    "tech_change_status": "Not Planned",
    "program_type": "Fixed Wireless and Satellite Upgrade Program",
    "target_eligibility_quarter": "NA"
   }
  },
  {
   "type": "Feature",
   "geometry": {
    "type": "Point",
    "coordinates": [
     146.62313184,
     -38.05450239
    ]
   },
   "properties": {
    "name": "54 KING STREET TOONGABBIE 3856",
    "locID": "LOC000062543562",
    "tech": "WIRELESS",
    "upgrade": "NULL_NA",
    "gnaf_pid": "GAVIC419670590",
    "tech_change_status": "Not Planned",
    "program_type": "Fixed Wireless and Satellite Upgrade Program",
    "target_eligibility_quarter": "NA"
   }
  },
  {
   "type": "Feature",
   "geometry": {
    "type": "Point",
    "coordinates": [
     146.62324698,
     -38.05395121
    ]
   },
   "properties": {
    "name": "60 KING STREET TOONGABBIE 3856",
    "locID": "LOC000097136281",
    "tech": "WIRELESS",
    "upgrade": "NULL_NA",
    "gnaf_pid": "GAVIC419671429",
    "tech_change_status": "Not Planned",
    "program_type": "Fixed Wireless and Satellite Upgrade Program",
    "target_eligibility_quarter": "NA"
   }
  },
  {
   "type": "Feature",
   "geometry": {
    "type": "Point",
    "coordinates": [
     146.62909365,
     -38.05576232
    ]
   },
   "properties": {
    "name": "38-54 SPARKS LANE TOONGABBIE 3856",
    "locID": "LOC000080578571",
    "tech": "WIRELESS",
    "upgrade": "NULL_NA",
    "gnaf_pid": "GAVIC419671430",
    "tech_change_status": "Not Planned",
    "program_type": "Fixed Wireless and Satellite Upgrade Program",
    "target_eligibility_quarter": "NA"
   }
  },
  {
   "type": "Feature",
   "geometry": {
    "type": "Point",
    "coordinates": [
     146.63224347,
     -38.05752848
    ]
   },
   "properties": {
    "name": "27-33 CAMPBELL STREET TOONGABBIE 3856",
    "locID": "LOC000057626920",
    "tech": "WIRELESS",
    "upgrade": "NULL_NA",
    "gnaf_pid": "GAVIC419671432",
    "tech_change_status": "Not Planned",
    "program_type": "Fixed Wireless and Satellite Upgrade Program",
    "target_eligibility_quarter": "NA"
   }
  },
  {
   "type": "Feature",
   "geometry": {
    "type": "Point",
    "coordinates": [
     146.60878174,
     -38.06209625
    ]
   },
   "properties": {
    "name": "65 HARRIS LANE TOONGABBIE 3856",
    "locID": "LOC000039183329",
    "tech": "WIRELESS",
    "upgrade": "NULL_NA",
    "gnaf_pid": "GAVIC419677387",
    "tech_change_status": "Not Planned",
    "program_type": "Fixed Wireless and Satellite Upgrade Program",
    "target_eligibility_quarter": "NA"
   }
  },
  {
   "type": "Feature",
   "geometry": {
    "type": "Point",
    "coordinates": [
     146.62522167,
     -38.05918629
    ]
   },
   "properties": {
    "name": "4 VICTORIA STREET TOONGABBIE 3856",
    "locID": "LOC000072044220",
    "tech": "WIRELESS",
    "upgrade": "NULL_NA",
    "gnaf_pid": "GAVIC419756774",
    "tech_change_status": "Not Planned",
    "program_type": "Fixed Wireless and Satellite Upgrade Program",
    "target_eligibility_quarter": "NA"
   }
  },
  {
   "type": "Feature",
   "geometry": {
    "type": "Point",
    "coordinates": [
     146.6180499,
     -38.05947677
    ]
   },
   "properties": {
    "name": "10 PAGE LANE TOONGABBIE 3856",
    "locID": "LOC000038445716",
    "tech": "WIRELESS",
    "upgrade": "NULL_NA",
    "gnaf_pid": "GAVIC419765889",
    "tech_change_status": "Not Planned",
    "program_type": "Fixed Wireless and Satellite Upgrade Program",
    "target_eligibility_quarter": "NA"
   }
  },
  {
   "type": "Feature",
   "geometry": {
    "type": "Point",
    "coordinates": [
     146.62150206,
     -38.06160416
    ]
   },
   "properties": {
    "name": "29 MAIN STREET TOONGABBIE 3856",
    "locID": "LOC000019502278",
    "tech": "WIRELESS",
    "upgrade": "NULL_NA",
    "gnaf_pid": "GAVIC419765891",
    "tech_change_status": "Not Planned",
    "program_type": "Fixed Wireless and Satellite Upgrade Program",
    "target_eligibility_quarter": "NA"
   }
  },
  {
   "type": "Feature",
   "geometry": {
    "type": "Point",
    "coordinates": [
     146.62371202,
     -38.06497152
    ]
   },
   "properties": {
    "name": "11 SEMMENS STREET TOONGABBIE 3856",
    "locID": "LOC000092054032",
    "tech": "WIRELESS",
    "upgrade": "NULL_NA",
    "gnaf_pid": "GAVIC419765892",
    "tech_change_status": "Not Planned",
    "program_type": "Fixed Wireless and Satellite Upgrade Program",
    "target_eligibility_quarter": "NA"
   }
  },
  {
   "type": "Feature",
   "geometry": {
    "type": "Point",
    "coordinates": [
     146.62688165,
     -38.0642359
    ]
   },
   "properties": {
    "name": "13 RIES STREET TOONGABBIE 3856",
    "locID": "LOC000082519289",
    "tech": "WIRELESS",
    "upgrade": "NULL_NA",
    "gnaf_pid": "GAVIC419765893",
    "tech_change_status": "Not Planned",
    "program_type": "Fixed Wireless and Satellite Upgrade Program",
    "target_eligibility_quarter": "NA"
   }
  },
  {
   "type": "Feature",
   "geometry": {
    "type": "Point",
    "coordinates": [
     146.6233405,
     -38.06551538
    ]
   },
   "properties": {
    "name": "7 SEMMENS STREET TOONGABBIE 3856",
    "locID": "LOC000181037908",
    "tech": "WIRELESS",
    "upgrade": "NULL_NA",
    "gnaf_pid": "GAVIC419765895",
    "tech_change_status": "Not Planned",
    "program_type": "Fixed Wireless and Satellite Upgrade Program",
    "target_eligibility_quarter": "NA"
   }
  },
  {
   "type": "Feature",
   "geometry": {
    "type": "Point",
    "coordinates": [
     146.62490253,
     -38.05783791
    ]
   },
   "properties": {
    "name": "18 STEWART STREET TOONGABBIE 3856",
    "locID": "LOC000113249717",
    "tech": "WIRELESS",
    "upgrade": "NULL_NA",
    "gnaf_pid": "GAVIC419765896",
    "tech_change_status": "Not Planned",
    "program_type": "Fixed Wireless and Satellite Upgrade Program",
    "target_eligibility_quarter": "NA"
   }
  },
  {
   "type": "Feature",
   "geometry": {
    "type": "Point",
    "coordinates": [
     146.62430242,
     -38.05621322
    ]
   },
   "properties": {
    "name": "12 SCOTT STREET TOONGABBIE 3856",
    "locID": "LOC000044566453",
    "tech": "WIRELESS",
    "upgrade": "NULL_NA",
    "gnaf_pid": "GAVIC419765897",
    "tech_change_status": "Not Planned",
    "program_type": "Fixed Wireless and Satellite Upgrade Program",
    "target_eligibility_quarter": "NA"
   }
  },
  {
   "type": "Feature",
   "geometry": {
    "type": "Point",
    "coordinates": [
     146.6245367,
     -38.05524608
    ]
   },
   "properties": {
    "name": "11 HAZEL STREET TOONGABBIE 3856",
    "locID": "LOC000083405806",
    "tech": "WIRELESS",
    "upgrade": "NULL_NA",
    "gnaf_pid": "GAVIC419765898",
    "tech_change_status": "Not Planned",
    "program_type": "Fixed Wireless and Satellite Upgrade Program",
    "target_eligibility_quarter": "NA"
   }
  },
  {
   "type": "Feature",
   "geometry": {
    "type": "Point",
    "coordinates": [
     146.62482245,
     -38.05528166
    ]
   },
   "properties": {
    "name": "13 HAZEL STREET TOONGABBIE 3856",
    "locID": "LOC000109807355",
    "tech": "WIRELESS",
    "upgrade": "NULL_NA",
    "gnaf_pid": "GAVIC419765899",
    "tech_change_status": "Not Planned",
    "program_type": "Fixed Wireless and Satellite Upgrade Program",
    "target_eligibility_quarter": "NA"
   }
  },
  {
   "type": "Feature",
   "geometry": {
    "type": "Point",
    "coordinates": [
     146.62517474,
     -38.05362824
    ]
   },
   "properties": {
    "name": "14 HILL STREET TOONGABBIE 3856",
    "locID": "LOC000085491137",
    "tech": "WIRELESS",
    "upgrade": "NULL_NA",
    "gnaf_pid": "GAVIC419776974",
    "tech_change_status": "Not Planned",
    "program_type": "Fixed Wireless and Satellite Upgrade Program",
    "target_eligibility_quarter": "NA"
   }
  },
  {
   "type": "Feature",
   "geometry": {
    "type": "Point",
    "coordinates": [
     146.62802348,
     -38.05862124
    ]
   },
   "properties": {
    "name": "15 SPARKS LANE TOONGABBIE 3856",
    "locID": "LOC000115860666",
    "tech": "WIRELESS",
    "upgrade": "NULL_NA",
    "gnaf_pid": "GAVIC419965271",
    "tech_change_status": "Not Planned",
    "program_type": "Fixed Wireless and Satellite Upgrade Program",
    "target_eligibility_quarter": "NA"
   }
  },
  {
   "type": "Feature",
   "geometry": {
    "type": "Point",
    "coordinates": [
     146.628059,
     -38.05844141
    ]
   },
   "properties": {
    "name": "17 SPARKS LANE TOONGABBIE 3856",
    "locID": "LOC100077376049",
    "tech": "WIRELESS",
    "upgrade": "NULL_NA",
    "gnaf_pid": "GAVIC419965272",
    "tech_change_status": "Not Planned",
    "program_type": "Fixed Wireless and Satellite Upgrade Program",
    "target_eligibility_quarter": "NA"
   }
  },
  {
   "type": "Feature",
   "geometry": {
    "type": "Point",
    "coordinates": [
     146.62237249,
     -38.05827775
    ]
   },
   "properties": {
    "name": "18 KING STREET TOONGABBIE 3856",
    "locID": "LOC000107813148",
    "tech": "WIRELESS",
    "upgrade": "NULL_NA",
    "gnaf_pid": "GAVIC419965274",
    "tech_change_status": "Not Planned",
    "program_type": "Fixed Wireless and Satellite Upgrade Program",
    "target_eligibility_quarter": "NA"
   }
  },
  {
   "type": "Feature",
   "geometry": {
    "type": "Point",
    "coordinates": [
     146.62788581,
     -38.05934187
    ]
   },
   "properties": {
    "name": "7 SPARKS LANE TOONGABBIE 3856",
    "locID": "LOC000021899523",
    "tech": "WIRELESS",
    "upgrade": "NULL_NA",
    "gnaf_pid": "GAVIC419965275",
    "tech_change_status": "Not Planned",
    "program_type": "Fixed Wireless and Satellite Upgrade Program",
    "target_eligibility_quarter": "NA"
   }
  },
  {
   "type": "Feature",
   "geometry": {
    "type": "Point",
    "coordinates": [
     146.62328405,
     -38.05762944
    ]
   },
   "properties": {
    "name": "6-8 STEWART STREET TOONGABBIE 3856",
    "locID": "LOC000102392710",
    "tech": "WIRELESS",
    "upgrade": "NULL_NA",
    "gnaf_pid": "GAVIC419965276",
    "tech_change_status": "Not Planned",
    "program_type": "Fixed Wireless and Satellite Upgrade Program",
    "target_eligibility_quarter": "NA"
   }
  },
  {
   "type": "Feature",
   "geometry": {
    "type": "Point",
    "coordinates": [
     146.6255913,
     -38.05739824
    ]
   },
   "properties": {
    "name": "20-22 VICTORIA STREET TOONGABBIE 3856",
    "locID": "LOC000125305842",
    "tech": "WIRELESS",
    "upgrade": "NULL_NA",
    "gnaf_pid": "GAVIC419965278",
    "tech_change_status": "Not Planned",
    "program_type": "Fixed Wireless and Satellite Upgrade Program",
    "target_eligibility_quarter": "NA"
   }
  },
  {
   "type": "Feature",
   "geometry": {
    "type": "Point",
    "coordinates": [
     146.62847309,
     -38.05637206
    ]
   },
   "properties": {
    "name": "39 SPARKS LANE TOONGABBIE 3856",
    "locID": "LOC000007711844",
    "tech": "WIRELESS",
    "upgrade": "NULL_NA",
    "gnaf_pid": "GAVIC419965280",
    "tech_change_status": "Not Planned",
    "program_type": "Fixed Wireless and Satellite Upgrade Program",
    "target_eligibility_quarter": "NA"
   }
  },
  {
   "type": "Feature",
   "geometry": {
    "type": "Point",
    "coordinates": [
     146.62355395,
     -38.053422
    ]
   },
   "properties": {
    "name": "2-4 HILL STREET TOONGABBIE 3856",
    "locID": "LOC000001962069",
    "tech": "WIRELESS",
    "upgrade": "NULL_NA",
    "gnaf_pid": "GAVIC419965281",
    "tech_change_status": "Not Planned",
    "program_type": "Fixed Wireless and Satellite Upgrade Program",
    "target_eligibility_quarter": "NA"
   }
  },
  {
   "type": "Feature",
   "geometry": {
    "type": "Point",
    "coordinates": [
     146.60002286,
     -38.06285089
    ]
   },
   "properties": {
    "name": "170 CEMETERY ROAD TOONGABBIE 3856",
    "locID": "LOC000035513457",
    "tech": "WIRELESS",
    "upgrade": "NULL_NA",
    "gnaf_pid": "GAVIC419970253",
    "tech_change_status": "Not Planned",
    "program_type": "Fixed Wireless and Satellite Upgrade Program",
    "target_eligibility_quarter": "NA"
   }
  },
  {
   "type": "Feature",
   "geometry": {
    "type": "Point",
    "coordinates": [
     146.60974304,
     -38.0592424
    ]
   },
   "properties": {
    "name": "100 HARRIS LANE TOONGABBIE 3856",
    "locID": "LOC000083542453",
    "tech": "WIRELESS",
    "upgrade": "NULL_NA",
    "gnaf_pid": "GAVIC419970254",
    "tech_change_status": "Not Planned",
    "program_type": "Fixed Wireless and Satellite Upgrade Program",
    "target_eligibility_quarter": "NA"
   }
  },
  {
   "type": "Feature",
   "geometry": {
    "type": "Point",
    "coordinates": [
     146.62127697,
     -38.05933651
    ]
   },
   "properties": {
    "name": "19 KING STREET TOONGABBIE 3856",
    "locID": "LOC000044596207",
    "tech": "WIRELESS",
    "upgrade": "NULL_NA",
    "gnaf_pid": "GAVIC419970257",
    "tech_change_status": "Not Planned",
    "program_type": "Fixed Wireless and Satellite Upgrade Program",
    "target_eligibility_quarter": "NA"
   }
  },
  {
   "type": "Feature",
   "geometry": {
    "type": "Point",
    "coordinates": [
     146.62350016,
     -38.06292264
    ]
   },
   "properties": {
    "name": "38 HOWER STREET TOONGABBIE 3856",
    "locID": "LOC000049091570",
    "tech": "WIRELESS",
    "upgrade": "NULL_NA",
    "gnaf_pid": "GAVIC419970261",
    "tech_change_status": "Not Planned",
    "program_type": "Fixed Wireless and Satellite Upgrade Program",
    "target_eligibility_quarter": "NA"
   }
  },
  {
   "type": "Feature",
   "geometry": {
    "type": "Point",
    "coordinates": [
     146.62144621,
     -38.0585368
    ]
   },
   "properties": {
    "name": "27 KING STREET TOONGABBIE 3856",
    "locID": "LOC000104707780",
    "tech": "WIRELESS",
    "upgrade": "NULL_NA",
    "gnaf_pid": "GAVIC420070363",
    "tech_change_status": "Not Planned",
    "program_type": "Fixed Wireless and Satellite Upgrade Program",
    "target_eligibility_quarter": "NA"
   }
  },
  {
   "type": "Feature",
   "geometry": {
    "type": "Point",
    "coordinates": [
     146.62178642,
     -38.06141278
    ]
   },
   "properties": {
    "name": "1 KING STREET TOONGABBIE 3856",
    "locID": "LOC000040848982",
    "tech": "WIRELESS",
    "upgrade": "NULL_NA",
    "gnaf_pid": "GAVIC420075230",
    "tech_change_status": "Not Planned",
    "program_type": "Fixed Wireless and Satellite Upgrade Program",
    "target_eligibility_quarter": "NA"
   }
  },
  {
   "type": "Feature",
   "geometry": {
    "type": "Point",
    "coordinates": [
     146.62814076,
     -38.02323285
    ]
   },
   "properties": {
    "name": "30 WYKES ROAD TOONGABBIE 3856",
    "locID": "LOC000001980401",
    "tech": "WIRELESS",
    "upgrade": "NULL_NA",
    "gnaf_pid": "GAVIC420081941",
    "tech_change_status": "Not Planned",
    "program_type": "Fixed Wireless and Satellite Upgrade Program",
    "target_eligibility_quarter": "NA"
   }
  },
  {
   "type": "Feature",
   "geometry": {
    "type": "Point",
    "coordinates": [
     146.6317685,
     -38.02230694
    ]
   },
   "properties": {
    "name": "75 FOXS ROAD TOONGABBIE 3856",
    "locID": "LOC000057871578",
    "tech": "WIRELESS",
    "upgrade": "NULL_NA",
    "gnaf_pid": "GAVIC420081942",
    "tech_change_status": "Not Planned",
    "program_type": "Fixed Wireless and Satellite Upgrade Program",
    "target_eligibility_quarter": "NA"
   }
  },
  {
   "type": "Feature",
   "geometry": {
    "type": "Point",
    "coordinates": [
     146.63110505,
     -38.02510785
    ]
   },
   "properties": {
    "name": "40 TRAVOYERS ROAD TOONGABBIE 3856",
    "locID": "LOC000077056611",
    "tech": "WIRELESS",
    "upgrade": "NULL_NA",
    "gnaf_pid": "GAVIC420084448",
    "tech_change_status": "Not Planned",
    "program_type": "Fixed Wireless and Satellite Upgrade Program",
    "target_eligibility_quarter": "NA"
   }
  },
  {
   "type": "Feature",
   "geometry": {
    "type": "Point",
    "coordinates": [
     146.62824773,
     -38.05753852
    ]
   },
   "properties": {
    "name": "25-27 SPARKS LANE TOONGABBIE 3856",
    "locID": "LOC000125305959",
    "tech": "WIRELESS",
    "upgrade": "NULL_NA",
    "gnaf_pid": "GAVIC420136243",
    "tech_change_status": "Not Planned",
    "program_type": "Fixed Wireless and Satellite Upgrade Program",
    "target_eligibility_quarter": "NA"
   }
  },
  {
   "type": "Feature",
   "geometry": {
    "type": "Point",
    "coordinates": [
     146.62438755,
     -38.05576571
    ]
   },
   "properties": {
    "name": "16 SCOTT STREET TOONGABBIE 3856",
    "locID": "LOC000029343920",
    "tech": "WIRELESS",
    "upgrade": "NULL_NA",
    "gnaf_pid": "GAVIC420269581",
    "tech_change_status": "Not Planned",
    "program_type": "Fixed Wireless and Satellite Upgrade Program",
    "target_eligibility_quarter": "NA"
   }
  },
  {
   "type": "Feature",
   "geometry": {
    "type": "Point",
    "coordinates": [
     146.62578544,
     -38.05639788
    ]
   },
   "properties": {
    "name": "32 VICTORIA STREET TOONGABBIE 3856",
    "locID": "LOC000016796889",
    "tech": "WIRELESS",
    "upgrade": "NULL_NA",
    "gnaf_pid": "GAVIC420269582",
    "tech_change_status": "Not Planned",
    "program_type": "Fixed Wireless and Satellite Upgrade Program",
    "target_eligibility_quarter": "NA"
   }
  },
  {
   "type": "Feature",
   "geometry": {
    "type": "Point",
    "coordinates": [
     146.62860745,
     -38.05575745
    ]
   },
   "properties": {
    "name": "45 SPARKS LANE TOONGABBIE 3856",
    "locID": "LOC000060432280",
    "tech": "WIRELESS",
    "upgrade": "NULL_NA",
    "gnaf_pid": "GAVIC420269583",
    "tech_change_status": "Not Planned",
    "program_type": "Fixed Wireless and Satellite Upgrade Program",
    "target_eligibility_quarter": "NA"
   }
  },
  {
   "type": "Feature",
   "geometry": {
    "type": "Point",
    "coordinates": [
     146.62871058,
     -38.05521545
    ]
   },
   "properties": {
    "name": "51 SPARKS LANE TOONGABBIE 3856",
    "locID": "LOC000125310303",
    "tech": "WIRELESS",
    "upgrade": "NULL_NA",
    "gnaf_pid": "GAVIC420269585",
    "tech_change_status": "Not Planned",
    "program_type": "Fixed Wireless and Satellite Upgrade Program",
    "target_eligibility_quarter": "NA"
   }
  },
  {
   "type": "Feature",
   "geometry": {
    "type": "Point",
    "coordinates": [
     146.62328377,
     -38.05377001
    ]
   },
   "properties": {
    "name": "62 KING STREET TOONGABBIE 3856",
    "locID": "LOC000022786282",
    "tech": "WIRELESS",
    "upgrade": "NULL_NA",
    "gnaf_pid": "GAVIC420269586",
    "tech_change_status": "Not Planned",
    "program_type": "Fixed Wireless and Satellite Upgrade Program",
    "target_eligibility_quarter": "NA"
   }
  },
  {
   "type": "Feature",
   "geometry": {
    "type": "Point",
    "coordinates": [
     146.60942621,
     -38.06094476
    ]
   },
   "properties": {
    "name": "80 HARRIS LANE TOONGABBIE 3856",
    "locID": "LOC000044614453",
    "tech": "WIRELESS",
    "upgrade": "NULL_NA",
    "gnaf_pid": "GAVIC420274752",
    "tech_change_status": "Not Planned",
    "program_type": "Fixed Wireless and Satellite Upgrade Program",
    "target_eligibility_quarter": "NA"
   }
  },
  {
   "type": "Feature",
   "geometry": {
    "type": "Point",
    "coordinates": [
     146.60926184,
     -38.0618455
    ]
   },
   "properties": {
    "name": "70 HARRIS LANE TOONGABBIE 3856",
    "locID": "LOC000101505287",
    "tech": "WIRELESS",
    "upgrade": "NULL_NA",
    "gnaf_pid": "GAVIC420274753",
    "tech_change_status": "Not Planned",
    "program_type": "Fixed Wireless and Satellite Upgrade Program",
    "target_eligibility_quarter": "NA"
   }
  },
  {
   "type": "Feature",
   "geometry": {
    "type": "Point",
    "coordinates": [
     146.62134055,
     -38.0590713
    ]
   },
   "properties": {
    "name": "21 KING STREET TOONGABBIE 3856",
    "locID": "LOC000091307136",
    "tech": "WIRELESS",
    "upgrade": "NULL_NA",
    "gnaf_pid": "GAVIC420274754",
    "tech_change_status": "Not Planned",
    "program_type": "Fixed Wireless and Satellite Upgrade Program",
    "target_eligibility_quarter": "NA"
   }
  },
  {
   "type": "Feature",
   "geometry": {
    "type": "Point",
    "coordinates": [
     146.62968426,
     -38.02668964
    ]
   },
   "properties": {
    "name": "60 TRAVOYERS ROAD TOONGABBIE 3856",
    "locID": "LOC000087256122",
    "tech": "WIRELESS",
    "upgrade": "NULL_NA",
    "gnaf_pid": "GAVIC420361775",
    "tech_change_status": "Not Planned",
    "program_type": "Fixed Wireless and Satellite Upgrade Program",
    "target_eligibility_quarter": "NA"
   }
  },
  {
   "type": "Feature",
   "geometry": {
    "type": "Point",
    "coordinates": [
     146.6375179,
     -38.02547028
    ]
   },
   "properties": {
    "name": "355 TOONGABBIE-COWWARR ROAD TOONGABBIE 3856",
    "locID": "LOC000030172547",
    "tech": "WIRELESS",
    "upgrade": "NULL_NA",
    "gnaf_pid": "GAVIC420367182",
    "tech_change_status": "Not Planned",
    "program_type": "Fixed Wireless and Satellite Upgrade Program",
    "target_eligibility_quarter": "NA"
   }
  },
  {
   "type": "Feature",
   "geometry": {
    "type": "Point",
    "coordinates": [
     146.63259134,
     -38.02408504
    ]
   },
   "properties": {
    "name": "25 TRAVOYERS ROAD TOONGABBIE 3856",
    "locID": "LOC000045596972",
    "tech": "WIRELESS",
    "upgrade": "NULL_NA",
    "gnaf_pid": "GAVIC420367184",
    "tech_change_status": "Not Planned",
    "program_type": "Fixed Wireless and Satellite Upgrade Program",
    "target_eligibility_quarter": "NA"
   }
  },
  {
   "type": "Feature",
   "geometry": {
    "type": "Point",
    "coordinates": [
     146.62631195,
     -38.02214551
    ]
   },
   "properties": {
    "name": "50 WYKES ROAD TOONGABBIE 3856",
    "locID": "LOC000053159911",
    "tech": "WIRELESS",
    "upgrade": "NULL_NA",
    "gnaf_pid": "GAVIC420367247",
    "tech_change_status": "Not Planned",
    "program_type": "Fixed Wireless and Satellite Upgrade Program",
    "target_eligibility_quarter": "NA"
   }
  },
  {
   "type": "Feature",
   "geometry": {
    "type": "Point",
    "coordinates": [
     146.62280108,
     -38.06371503
    ]
   },
   "properties": {
    "name": "34 HOWER STREET TOONGABBIE 3856",
    "locID": "LOC000101849537",
    "tech": "WIRELESS",
    "upgrade": "NULL_NA",
    "gnaf_pid": "GAVIC420568300",
    "tech_change_status": "Not Planned",
    "program_type": "Fixed Wireless and Satellite Upgrade Program",
    "target_eligibility_quarter": "NA"
   }
  },
  {
   "type": "Feature",
   "geometry": {
    "type": "Point",
    "coordinates": [
     146.62635576,
     -38.05840736
    ]
   },
   "properties": {
    "name": "13 GOODWIN STREET TOONGABBIE 3856",
    "locID": "LOC000125301806",
    "tech": "WIRELESS",
    "upgrade": "NULL_NA",
    "gnaf_pid": "GAVIC420568302",
    "tech_change_status": "Not Planned",
    "program_type": "Fixed Wireless and Satellite Upgrade Program",
    "target_eligibility_quarter": "NA"
   }
  },
  {
   "type": "Feature",
   "geometry": {
    "type": "Point",
    "coordinates": [
     146.62241044,
     -38.05808725
    ]
   },
   "properties": {
    "name": "20 KING STREET TOONGABBIE 3856",
    "locID": "LOC000107805293",
    "tech": "WIRELESS",
    "upgrade": "NULL_NA",
    "gnaf_pid": "GAVIC420568303",
    "tech_change_status": "Not Planned",
    "program_type": "Fixed Wireless and Satellite Upgrade Program",
    "target_eligibility_quarter": "NA"
   }
  },
  {
   "type": "Feature",
   "geometry": {
    "type": "Point",
    "coordinates": [
     146.62840706,
     -38.05935686
    ]
   },
   "properties": {
    "name": "6-8 SPARKS LANE TOONGABBIE 3856",
    "locID": "LOC000098527083",
    "tech": "WIRELESS",
    "upgrade": "NULL_NA",
    "gnaf_pid": "GAVIC420568304",
    "tech_change_status": "Not Planned",
    "program_type": "Fixed Wireless and Satellite Upgrade Program",
    "target_eligibility_quarter": "NA"
   }
  },
  {
   "type": "Feature",
   "geometry": {
    "type": "Point",
    "coordinates": [
     146.63023702,
     -38.05971021
    ]
   },
   "properties": {
    "name": "69 MAIN STREET TOONGABBIE 3856",
    "locID": "LOC000063994793",
    "tech": "WIRELESS",
    "upgrade": "NULL_NA",
    "gnaf_pid": "GAVIC420568305",
    "tech_change_status": "Not Planned",
    "program_type": "Fixed Wireless and Satellite Upgrade Program",
    "target_eligibility_quarter": "NA"
   }
  },
  {
   "type": "Feature",
   "geometry": {
    "type": "Point",
    "coordinates": [
     146.63059211,
     -38.0596798
    ]
   },
   "properties": {
    "name": "71-73 MAIN STREET TOONGABBIE 3856",
    "locID": "LOC000125310405",
    "tech": "WIRELESS",
    "upgrade": "NULL_NA",
    "gnaf_pid": "GAVIC420568306",
    "tech_change_status": "Not Planned",
    "program_type": "Fixed Wireless and Satellite Upgrade Program",
    "target_eligibility_quarter": "NA"
   }
  },
  {
   "type": "Feature",
   "geometry": {
    "type": "Point",
    "coordinates": [
     146.6180453,
     -38.0585126
    ]
   },
   "properties": {
    "name": "24-30 HUMPHREY ROAD TOONGABBIE 3856",
    "locID": "LOC000125305928",
    "tech": "WIRELESS",
    "upgrade": "NULL_NA",
    "gnaf_pid": "GAVIC420568308",
    "tech_change_status": "Not Planned",
    "program_type": "Fixed Wireless and Satellite Upgrade Program",
    "target_eligibility_quarter": "NA"
   }
  },
  {
   "type": "Feature",
   "geometry": {
    "type": "Point",
    "coordinates": [
     146.62522634,
     -38.05651644
    ]
   },
   "properties": {
    "name": "27 VICTORIA STREET TOONGABBIE 3856",
    "locID": "LOC000086179729",
    "tech": "WIRELESS",
    "upgrade": "NULL_NA",
    "gnaf_pid": "GAVIC420568309",
    "tech_change_status": "Not Planned",
    "program_type": "Fixed Wireless and Satellite Upgrade Program",
    "target_eligibility_quarter": "NA"
   }
  },
  {
   "type": "Feature",
   "geometry": {
    "type": "Point",
    "coordinates": [
     146.62829932,
     -38.05726834
    ]
   },
   "properties": {
    "name": "29 SPARKS LANE TOONGABBIE 3856",
    "locID": "LOC000007997879",
    "tech": "WIRELESS",
    "upgrade": "NULL_NA",
    "gnaf_pid": "GAVIC420568310",
    "tech_change_status": "Not Planned",
    "program_type": "Fixed Wireless and Satellite Upgrade Program",
    "target_eligibility_quarter": "NA"
   }
  },
  {
   "type": "Feature",
   "geometry": {
    "type": "Point",
    "coordinates": [
     146.61617264,
     -38.06568065
    ]
   },
   "properties": {
    "name": "15 CEMETERY ROAD TOONGABBIE 3856",
    "locID": "LOC000059509149",
    "tech": "WIRELESS",
    "upgrade": "NULL_NA",
    "gnaf_pid": "GAVIC420571815",
    "tech_change_status": "Not Planned",
    "program_type": "Fixed Wireless and Satellite Upgrade Program",
    "target_eligibility_quarter": "NA"
   }
  },
  {
   "type": "Feature",
   "geometry": {
    "type": "Point",
    "coordinates": [
     146.62475212,
     -38.06210762
    ]
   },
   "properties": {
    "name": "46-48 HOWER STREET TOONGABBIE 3856",
    "locID": "LOC000152793090",
    "tech": "WIRELESS",
    "upgrade": "NULL_NA",
    "gnaf_pid": "GAVIC420571817",
    "tech_change_status": "Not Planned",
    "program_type": "Fixed Wireless and Satellite Upgrade Program",
    "target_eligibility_quarter": "NA"
   }
  },
  {
   "type": "Feature",
   "geometry": {
    "type": "Point",
    "coordinates": [
     146.62378288,
     -38.05515215
    ]
   },
   "properties": {
    "name": "5-7 HAZEL STREET TOONGABBIE 3856",
    "locID": "LOC000088641413",
    "tech": "WIRELESS",
    "upgrade": "NULL_NA",
    "gnaf_pid": "GAVIC420573757",
    "tech_change_status": "Not Planned",
    "program_type": "Fixed Wireless and Satellite Upgrade Program",
    "target_eligibility_quarter": "NA"
   }
  },
  {
   "type": "Feature",
   "geometry": {
    "type": "Point",
    "coordinates": [
     146.62881945,
     -38.0546847
    ]
   },
   "properties": {
    "name": "57 SPARKS LANE TOONGABBIE 3856",
    "locID": "LOC000006905051",
    "tech": "WIRELESS",
    "upgrade": "NULL_NA",
    "gnaf_pid": "GAVIC420592681",
    "tech_change_status": "Not Planned",
    "program_type": "Fixed Wireless and Satellite Upgrade Program",
    "target_eligibility_quarter": "NA"
   }
  },
  {
   "type": "Feature",
   "geometry": {
    "type": "Point",
    "coordinates": [
     146.62617032,
     -38.05450391
    ]
   },
   "properties": {
    "name": "50 VICTORIA STREET TOONGABBIE 3856",
    "locID": "LOC000050162277",
    "tech": "WIRELESS",
    "upgrade": "NULL_NA",
    "gnaf_pid": "GAVIC420592682",
    "tech_change_status": "Not Planned",
    "program_type": "Fixed Wireless and Satellite Upgrade Program",
    "target_eligibility_quarter": "NA"
   }
  },
  {
   "type": "Feature",
   "geometry": {
    "type": "Point",
    "coordinates": [
     146.6256125,
     -38.05463678
    ]
   },
   "properties": {
    "name": "45 VICTORIA STREET TOONGABBIE 3856",
    "locID": "LOC000052042417",
    "tech": "WIRELESS",
    "upgrade": "NULL_NA",
    "gnaf_pid": "GAVIC420592683",
    "tech_change_status": "Not Planned",
    "program_type": "Fixed Wireless and Satellite Upgrade Program",
    "target_eligibility_quarter": "NA"
   }
  },
  {
   "type": "Feature",
   "geometry": {
    "type": "Point",
    "coordinates": [
     146.62377885,
     -38.05296351
    ]
   },
   "properties": {
    "name": "1-3 HILL STREET TOONGABBIE 3856",
    "locID": "LOC000085491137",
    "tech": "WIRELESS",
    "upgrade": "NULL_NA",
    "gnaf_pid": "GAVIC420646369",
    "tech_change_status": "Not Planned",
    "program_type": "Fixed Wireless and Satellite Upgrade Program",
    "target_eligibility_quarter": "NA"
   }
  },
  {
   "type": "Feature",
   "geometry": {
    "type": "Point",
    "coordinates": [
     146.62608739,
     -38.05937789
    ]
   },
   "properties": {
    "name": "1-5 GOODWIN STREET TOONGABBIE 3856",
    "locID": "LOC000114179617",
    "tech": "WIRELESS",
    "upgrade": "NULL_NA",
    "gnaf_pid": "GAVIC420648360",
    "tech_change_status": "Not Planned",
    "program_type": "Fixed Wireless and Satellite Upgrade Program",
    "target_eligibility_quarter": "NA"
   }
  },
  {
   "type": "Feature",
   "geometry": {
    "type": "Point",
    "coordinates": [
     146.6229022,
     -38.06579793
    ]
   },
   "properties": {
    "name": "16 HOWER STREET TOONGABBIE 3856",
    "locID": "LOC000015572520",
    "tech": "WIRELESS",
    "upgrade": "NULL_NA",
    "gnaf_pid": "GAVIC420690070",
    "tech_change_status": "Not Planned",
    "program_type": "Fixed Wireless and Satellite Upgrade Program",
    "target_eligibility_quarter": "NA"
   }
  },
  {
   "type": "Feature",
   "geometry": {
    "type": "Point",
    "coordinates": [
     146.62725203,
     -38.05983774
    ]
   },
   "properties": {
    "name": "53 MAIN STREET TOONGABBIE 3856",
    "locID": "LOC000024350251",
    "tech": "WIRELESS",
    "upgrade": "NULL_NA",
    "gnaf_pid": "GAVIC420690071",
    "tech_change_status": "Not Planned",
    "program_type": "Fixed Wireless and Satellite Upgrade Program",
    "target_eligibility_quarter": "NA"
   }
  },
  {
   "type": "Feature",
   "geometry": {
    "type": "Point",
    "coordinates": [
     146.62829145,
     -38.05989211
    ]
   },
   "properties": {
    "name": "2 SPARKS LANE TOONGABBIE 3856",
    "locID": "LOC000068260398",
    "tech": "WIRELESS",
    "upgrade": "NULL_NA",
    "gnaf_pid": "GAVIC420690072",
    "tech_change_status": "Not Planned",
    "program_type": "Fixed Wireless and Satellite Upgrade Program",
    "target_eligibility_quarter": "NA"
   }
  },
  {
   "type": "Feature",
   "geometry": {
    "type": "Point",
    "coordinates": [
     146.62462157,
     -38.05780238
    ]
   },
   "properties": {
    "name": "16 STEWART STREET TOONGABBIE 3856",
    "locID": "LOC000125301852",
    "tech": "WIRELESS",
    "upgrade": "NULL_NA",
    "gnaf_pid": "GAVIC420690073",
    "tech_change_status": "Not Planned",
    "program_type": "Fixed Wireless and Satellite Upgrade Program",
    "target_eligibility_quarter": "NA"
   }
  },
  {
   "type": "Feature",
   "geometry": {
    "type": "Point",
    "coordinates": [
     146.62526308,
     -38.05633667
    ]
   },
   "properties": {
    "name": "29 VICTORIA STREET TOONGABBIE 3856",
    "locID": "LOC000003882603",
    "tech": "WIRELESS",
    "upgrade": "NULL_NA",
    "gnaf_pid": "GAVIC420690074",
    "tech_change_status": "Not Planned",
    "program_type": "Fixed Wireless and Satellite Upgrade Program",
    "target_eligibility_quarter": "NA"
   }
  },
  {
   "type": "Feature",
   "geometry": {
    "type": "Point",
    "coordinates": [
     146.62886664,
     -38.05985841
    ]
   },
   "properties": {
    "name": "57 MAIN STREET TOONGABBIE 3856",
    "locID": "LOC000053090036",
    "tech": "WIRELESS",
    "upgrade": "NULL_NA",
    "gnaf_pid": "GAVIC420868219",
    "tech_change_status": "Not Planned",
    "program_type": "Fixed Wireless and Satellite Upgrade Program",
    "target_eligibility_quarter": "NA"
   }
  },
  {
   "type": "Feature",
   "geometry": {
    "type": "Point",
    "coordinates": [
     146.63001763,
     -38.05974514
    ]
   },
   "properties": {
    "name": "67 MAIN STREET TOONGABBIE 3856",
    "locID": "LOC000092769589",
    "tech": "WIRELESS",
    "upgrade": "NULL_NA",
    "gnaf_pid": "GAVIC420868220",
    "tech_change_status": "Not Planned",
    "program_type": "Fixed Wireless and Satellite Upgrade Program",
    "target_eligibility_quarter": "NA"
   }
  },
  {
   "type": "Feature",
   "geometry": {
    "type": "Point",
    "coordinates": [
     146.62605329,
     -38.05508421
    ]
   },
   "properties": {
    "name": "44 VICTORIA STREET TOONGABBIE 3856",
    "locID": "LOC000125310240",
    "tech": "WIRELESS",
    "upgrade": "NULL_NA",
    "gnaf_pid": "GAVIC420868222",
    "tech_change_status": "Not Planned",
    "program_type": "Fixed Wireless and Satellite Upgrade Program",
    "target_eligibility_quarter": "NA"
   }
  },
  {
   "type": "Feature",
   "geometry": {
    "type": "Point",
    "coordinates": [
     146.62412275,
     -38.05349439
    ]
   },
   "properties": {
    "name": "6-8 HILL STREET TOONGABBIE 3856",
    "locID": "LOC000003568961",
    "tech": "WIRELESS",
    "upgrade": "NULL_NA",
    "gnaf_pid": "GAVIC420868223",
    "tech_change_status": "Not Planned",
    "program_type": "Fixed Wireless and Satellite Upgrade Program",
    "target_eligibility_quarter": "NA"
   }
  },
  {
   "type": "Feature",
   "geometry": {
    "type": "Point",
    "coordinates": [
     146.62148145,
     -38.05835859
    ]
   },
   "properties": {
    "name": "29 KING STREET TOONGABBIE 3856",
    "locID": "LOC000081205389",
    "tech": "WIRELESS",
    "upgrade": "NULL_NA",
    "gnaf_pid": "GAVIC420875705",
    "tech_change_status": "Not Planned",
    "program_type": "Fixed Wireless and Satellite Upgrade Program",
    "target_eligibility_quarter": "NA"
   }
  },
  {
   "type": "Feature",
   "geometry": {
    "type": "Point",
    "coordinates": [
     146.62798809,
     -38.05880151
    ]
   },
   "properties": {
    "name": "13 SPARKS LANE TOONGABBIE 3856",
    "locID": "LOC000125301823",
    "tech": "WIRELESS",
    "upgrade": "NULL_NA",
    "gnaf_pid": "GAVIC420875708",
    "tech_change_status": "Not Planned",
    "program_type": "Fixed Wireless and Satellite Upgrade Program",
    "target_eligibility_quarter": "NA"
   }
  },
  {
   "type": "Feature",
   "geometry": {
    "type": "Point",
    "coordinates": [
     146.62695515,
     -38.06387497
    ]
   },
   "properties": {
    "name": "17 RIES STREET TOONGABBIE 3856",
    "locID": "LOC000095296576",
    "tech": "WIRELESS",
    "upgrade": "NULL_NA",
    "gnaf_pid": "GAVIC420961429",
    "tech_change_status": "Not Planned",
    "program_type": "Fixed Wireless and Satellite Upgrade Program",
    "target_eligibility_quarter": "NA"
   }
  },
  {
   "type": "Feature",
   "geometry": {
    "type": "Point",
    "coordinates": [
     146.62691852,
     -38.06405498
    ]
   },
   "properties": {
    "name": "15 RIES STREET TOONGABBIE 3856",
    "locID": "LOC000125301847",
    "tech": "WIRELESS",
    "upgrade": "NULL_NA",
    "gnaf_pid": "GAVIC420961430",
    "tech_change_status": "Not Planned",
    "program_type": "Fixed Wireless and Satellite Upgrade Program",
    "target_eligibility_quarter": "NA"
   }
  },
  {
   "type": "Feature",
   "geometry": {
    "type": "Point",
    "coordinates": [
     146.62433891,
     -38.05603453
    ]
   },
   "properties": {
    "name": "14 SCOTT STREET TOONGABBIE 3856",
    "locID": "LOC000021153007",
    "tech": "WIRELESS",
    "upgrade": "NULL_NA",
    "gnaf_pid": "GAVIC420961431",
    "tech_change_status": "Not Planned",
    "program_type": "Fixed Wireless and Satellite Upgrade Program",
    "target_eligibility_quarter": "NA"
   }
  },
  {
   "type": "Feature",
   "geometry": {
    "type": "Point",
    "coordinates": [
     146.62730973,
     -38.06473766
    ]
   },
   "properties": {
    "name": "21 HEYWOOD STREET TOONGABBIE 3856",
    "locID": "LOC000029400989",
    "tech": "WIRELESS",
    "upgrade": "NULL_NA",
    "gnaf_pid": "GAVIC420984311",
    "tech_change_status": "Not Planned",
    "program_type": "Fixed Wireless and Satellite Upgrade Program",
    "target_eligibility_quarter": "NA"
   }
  },
  {
   "type": "Feature",
   "geometry": {
    "type": "Point",
    "coordinates": [
     146.62738685,
     -38.02361803
    ]
   },
   "properties": {
    "name": "35 WYKES ROAD TOONGABBIE 3856",
    "locID": "LOC000061935458",
    "tech": "WIRELESS",
    "upgrade": "NULL_NA",
    "gnaf_pid": "GAVIC420985098",
    "tech_change_status": "Not Planned",
    "program_type": "Fixed Wireless and Satellite Upgrade Program",
    "target_eligibility_quarter": "NA"
   }
  },
  {
   "type": "Feature",
   "geometry": {
    "type": "Point",
    "coordinates": [
     146.59270362,
     -38.06221557
    ]
   },
   "properties": {
    "name": "235 CEMETERY ROAD TOONGABBIE 3856",
    "locID": "LOC000029389925",
    "tech": "SATELLITE",
    "upgrade": "NULL_NA",
    "gnaf_pid": "GAVIC420993075",
    "tech_change_status": "Not Planned"
   }
  },
  {
   "type": "Feature",
   "geometry": {
    "type": "Point",
    "coordinates": [
     146.62321529,
     -38.05508141
    ]
   },
   "properties": {
    "name": "1-3 HAZEL STREET TOONGABBIE 3856",
    "locID": "LOC000125301708",
    "tech": "WIRELESS",
    "upgrade": "NULL_NA",
    "gnaf_pid": "GAVIC421153340",
    "tech_change_status": "Not Planned",
    "program_type": "Fixed Wireless and Satellite Upgrade Program",
    "target_eligibility_quarter": "NA"
   }
  },
  {
   "type": "Feature",
   "geometry": {
    "type": "Point",
    "coordinates": [
     146.66071906,
     -38.08502422
    ]
   },
   "properties": {
    "name": "LOT 9 HENDERSONS ROAD TOONGABBIE 3856",
    "locID": "LOC000060767284",
    "tech": "WIRELESS",
    "upgrade": "NULL_NA",
    "gnaf_pid": "GAVIC421164116",
    "tech_change_status": "Not Planned",
    "program_type": "Fixed Wireless and Satellite Upgrade Program",
    "target_eligibility_quarter": "NA"
   }
  },
  {
   "type": "Feature",
   "geometry": {
    "type": "Point",
    "coordinates": [
     146.63180836,
     -38.05953923
    ]
   },
   "properties": {
    "name": "79 MAIN STREET TOONGABBIE 3856",
    "locID": "LOC000170661022",
    "tech": "WIRELESS",
    "upgrade": "NULL_NA",
    "gnaf_pid": "GAVIC421164119",
    "tech_change_status": "Not Planned",
    "program_type": "Fixed Wireless and Satellite Upgrade Program",
    "target_eligibility_quarter": "NA"
   }
  },
  {
   "type": "Feature",
   "geometry": {
    "type": "Point",
    "coordinates": [
     146.62244632,
     -38.05790864
    ]
   },
   "properties": {
    "name": "22 KING STREET TOONGABBIE 3856",
    "locID": "LOC000065755573",
    "tech": "WIRELESS",
    "upgrade": "NULL_NA",
    "gnaf_pid": "GAVIC421164121",
    "tech_change_status": "Not Planned",
    "program_type": "Fixed Wireless and Satellite Upgrade Program",
    "target_eligibility_quarter": "NA"
   }
  },
  {
   "type": "Feature",
   "geometry": {
    "type": "Point",
    "coordinates": [
     146.62582311,
     -38.0562167
    ]
   },
   "properties": {
    "name": "34 VICTORIA STREET TOONGABBIE 3856",
    "locID": "LOC000179115306",
    "tech": "WIRELESS",
    "upgrade": "NULL_NA",
    "gnaf_pid": "GAVIC421164122",
    "tech_change_status": "Not Planned",
    "program_type": "Fixed Wireless and Satellite Upgrade Program",
    "target_eligibility_quarter": "NA"
   }
  },
  {
   "type": "Feature",
   "geometry": {
    "type": "Point",
    "coordinates": [
     146.62833272,
     -38.05708891
    ]
   },
   "properties": {
    "name": "31 SPARKS LANE TOONGABBIE 3856",
    "locID": "LOC000058362217",
    "tech": "WIRELESS",
    "upgrade": "NULL_NA",
    "gnaf_pid": "GAVIC421164123",
    "tech_change_status": "Not Planned",
    "program_type": "Fixed Wireless and Satellite Upgrade Program",
    "target_eligibility_quarter": "NA"
   }
  },
  {
   "type": "Feature",
   "geometry": {
    "type": "Point",
    "coordinates": [
     146.62850705,
     -38.05619279
    ]
   },
   "properties": {
    "name": "41 SPARKS LANE TOONGABBIE 3856",
    "locID": "LOC000048836662",
    "tech": "WIRELESS",
    "upgrade": "NULL_NA",
    "gnaf_pid": "GAVIC421164124",
    "tech_change_status": "Not Planned",
    "program_type": "Fixed Wireless and Satellite Upgrade Program",
    "target_eligibility_quarter": "NA"
   }
  },
  {
   "type": "Feature",
   "geometry": {
    "type": "Point",
    "coordinates": [
     146.62867512,
     -38.05539535
    ]
   },
   "properties": {
    "name": "49 SPARKS LANE TOONGABBIE 3856",
    "locID": "LOC000083334760",
    "tech": "WIRELESS",
    "upgrade": "NULL_NA",
    "gnaf_pid": "GAVIC421164125",
    "tech_change_status": "Not Planned",
    "program_type": "Fixed Wireless and Satellite Upgrade Program",
    "target_eligibility_quarter": "NA"
   }
  },
  {
   "type": "Feature",
   "geometry": {
    "type": "Point",
    "coordinates": [
     146.62861779,
     -38.05407591
    ]
   },
   "properties": {
    "name": "34 HILL STREET TOONGABBIE 3856",
    "locID": "LOC000094907680",
    "tech": "WIRELESS",
    "upgrade": "NULL_NA",
    "gnaf_pid": "GAVIC421164126",
    "tech_change_status": "Not Planned",
    "program_type": "Fixed Wireless and Satellite Upgrade Program",
    "target_eligibility_quarter": "NA"
   }
  },
  {
   "type": "Feature",
   "geometry": {
    "type": "Point",
    "coordinates": [
     146.6262982,
     -38.05387474
    ]
   },
   "properties": {
    "name": "56 VICTORIA STREET TOONGABBIE 3856",
    "locID": "LOC000103295446",
    "tech": "WIRELESS",
    "upgrade": "NULL_NA",
    "gnaf_pid": "GAVIC421164127",
    "tech_change_status": "Not Planned",
    "program_type": "Fixed Wireless and Satellite Upgrade Program",
    "target_eligibility_quarter": "NA"
   }
  },
  {
   "type": "Feature",
   "geometry": {
    "type": "Point",
    "coordinates": [
     146.62321035,
     -38.05413165
    ]
   },
   "properties": {
    "name": "58 KING STREET TOONGABBIE 3856",
    "locID": "LOC000099969387",
    "tech": "WIRELESS",
    "upgrade": "NULL_NA",
    "gnaf_pid": "GAVIC421164128",
    "tech_change_status": "Not Planned",
    "program_type": "Fixed Wireless and Satellite Upgrade Program",
    "target_eligibility_quarter": "NA"
   }
  },
  {
   "type": "Feature",
   "geometry": {
    "type": "Point",
    "coordinates": [
     146.62284176,
     -38.05997533
    ]
   },
   "properties": {
    "name": "4 COWEN STREET TOONGABBIE 3856",
    "locID": "LOC000011099476",
    "tech": "WIRELESS",
    "upgrade": "NULL_NA",
    "gnaf_pid": "GAVIC421181451",
    "tech_change_status": "Not Planned",
    "program_type": "Fixed Wireless and Satellite Upgrade Program",
    "target_eligibility_quarter": "NA"
   }
  },
  {
   "type": "Feature",
   "geometry": {
    "type": "Point",
    "coordinates": [
     146.62472251,
     -38.06357339
    ]
   },
   "properties": {
    "name": "12-14 TIMMINS STREET TOONGABBIE 3856",
    "locID": "LOC000058572271",
    "tech": "WIRELESS",
    "upgrade": "NULL_NA",
    "gnaf_pid": "GAVIC421181454",
    "tech_change_status": "Not Planned",
    "program_type": "Fixed Wireless and Satellite Upgrade Program",
    "target_eligibility_quarter": "NA"
   }
  },
  {
   "type": "Feature",
   "geometry": {
    "type": "Point",
    "coordinates": [
     146.58965433,
     -38.05786715
    ]
   },
   "properties": {
    "name": "697 GLENGARRY NORTH ROAD TOONGABBIE 3856",
    "locID": "LOC000104807792",
    "tech": "WIRELESS",
    "upgrade": "NULL_NA",
    "gnaf_pid": "GAVIC421199349",
    "tech_change_status": "Not Planned",
    "program_type": "Fixed Wireless and Satellite Upgrade Program",
    "target_eligibility_quarter": "NA"
   }
  },
  {
   "type": "Feature",
   "geometry": {
    "type": "Point",
    "coordinates": [
     146.63178996,
     -38.02484863
    ]
   },
   "properties": {
    "name": "35 TRAVOYERS ROAD TOONGABBIE 3856",
    "locID": "LOC000073379268",
    "tech": "WIRELESS",
    "upgrade": "NULL_NA",
    "gnaf_pid": "GAVIC421251997",
    "tech_change_status": "Not Planned",
    "program_type": "Fixed Wireless and Satellite Upgrade Program",
    "target_eligibility_quarter": "NA"
   }
  },
  {
   "type": "Feature",
   "geometry": {
    "type": "Point",
    "coordinates": [
     146.63204418,
     -38.0241374
    ]
   },
   "properties": {
    "name": "30 TRAVOYERS ROAD TOONGABBIE 3856",
    "locID": "LOC000035996949",
    "tech": "WIRELESS",
    "upgrade": "NULL_NA",
    "gnaf_pid": "GAVIC421251998",
    "tech_change_status": "Not Planned",
    "program_type": "Fixed Wireless and Satellite Upgrade Program",
    "target_eligibility_quarter": "NA"
   }
  },
  {
   "type": "Feature",
   "geometry": {
    "type": "Point",
    "coordinates": [
     146.6288726,
     -38.05441573
    ]
   },
   "properties": {
    "name": "59-61 SPARKS LANE TOONGABBIE 3856",
    "locID": "LOC000034282549",
    "tech": "WIRELESS",
    "upgrade": "NULL_NA",
    "gnaf_pid": "GAVIC421252004",
    "tech_change_status": "Not Planned",
    "program_type": "Fixed Wireless and Satellite Upgrade Program",
    "target_eligibility_quarter": "NA"
   }
  },
  {
   "type": "Feature",
   "geometry": {
    "type": "Point",
    "coordinates": [
     146.62121637,
     -38.05994512
    ]
   },
   "properties": {
    "name": "17 KING STREET TOONGABBIE 3856",
    "locID": "LOC000074467582",
    "tech": "WIRELESS",
    "upgrade": "NULL_NA",
    "gnaf_pid": "GAVIC421284875",
    "tech_change_status": "Not Planned",
    "program_type": "Fixed Wireless and Satellite Upgrade Program",
    "target_eligibility_quarter": "NA"
   }
  },
  {
   "type": "Feature",
   "geometry": {
    "type": "Point",
    "coordinates": [
     146.62128218,
     -38.06011882
    ]
   },
   "properties": {
    "name": "15 KING STREET TOONGABBIE 3856",
    "locID": "LOC000092798805",
    "tech": "WIRELESS",
    "upgrade": "NULL_NA",
    "gnaf_pid": "GAVIC421284876",
    "tech_change_status": "Not Planned",
    "program_type": "Fixed Wireless and Satellite Upgrade Program",
    "target_eligibility_quarter": "NA"
   }
  },
  {
   "type": "Feature",
   "geometry": {
    "type": "Point",
    "coordinates": [
     146.62690969,
     -38.05979428
    ]
   },
   "properties": {
    "name": "51 MAIN STREET TOONGABBIE 3856",
    "locID": "LOC000071133521",
    "tech": "WIRELESS",
    "upgrade": "NULL_NA",
    "gnaf_pid": "GAVIC421284878",
    "tech_change_status": "Not Planned",
    "program_type": "Fixed Wireless and Satellite Upgrade Program",
    "target_eligibility_quarter": "NA"
   }
  },
  {
   "type": "Feature",
   "geometry": {
    "type": "Point",
    "coordinates": [
     146.6278154,
     -38.05970253
    ]
   },
   "properties": {
    "name": "3 SPARKS LANE TOONGABBIE 3856",
    "locID": "LOC000068223516",
    "tech": "WIRELESS",
    "upgrade": "NULL_NA",
    "gnaf_pid": "GAVIC421284879",
    "tech_change_status": "Not Planned",
    "program_type": "Fixed Wireless and Satellite Upgrade Program",
    "target_eligibility_quarter": "NA"
   }
  },
  {
   "type": "Feature",
   "geometry": {
    "type": "Point",
    "coordinates": [
     146.62566475,
     -38.05703984
    ]
   },
   "properties": {
    "name": "24-26 VICTORIA STREET TOONGABBIE 3856",
    "locID": "LOC000125305890",
    "tech": "WIRELESS",
    "upgrade": "NULL_NA",
    "gnaf_pid": "GAVIC421284880",
    "tech_change_status": "Not Planned",
    "program_type": "Fixed Wireless and Satellite Upgrade Program",
    "target_eligibility_quarter": "NA"
   }
  },
  {
   "type": "Feature",
   "geometry": {
    "type": "Point",
    "coordinates": [
     146.62599475,
     -38.05541458
    ]
   },
   "properties": {
    "name": "40 VICTORIA STREET TOONGABBIE 3856",
    "locID": "LOC000068321806",
    "tech": "WIRELESS",
    "upgrade": "NULL_NA",
    "gnaf_pid": "GAVIC421440997",
    "tech_change_status": "Not Planned",
    "program_type": "Fixed Wireless and Satellite Upgrade Program",
    "target_eligibility_quarter": "NA"
   }
  },
  {
   "type": "Feature",
   "geometry": {
    "type": "Point",
    "coordinates": [
     146.62309595,
     -38.054681
    ]
   },
   "properties": {
    "name": "52 KING STREET TOONGABBIE 3856",
    "locID": "LOC000102629181",
    "tech": "WIRELESS",
    "upgrade": "NULL_NA",
    "gnaf_pid": "GAVIC421440998",
    "tech_change_status": "Not Planned",
    "program_type": "Fixed Wireless and Satellite Upgrade Program",
    "target_eligibility_quarter": "NA"
   }
  },
  {
   "type": "Feature",
   "geometry": {
    "type": "Point",
    "coordinates": [
     146.62317389,
     -38.05431235
    ]
   },
   "properties": {
    "name": "56 KING STREET TOONGABBIE 3856",
    "locID": "LOC000103295446",
    "tech": "WIRELESS",
    "upgrade": "NULL_NA",
    "gnaf_pid": "GAVIC421440999",
    "tech_change_status": "Not Planned",
    "program_type": "Fixed Wireless and Satellite Upgrade Program",
    "target_eligibility_quarter": "NA"
   }
  },
  {
   "type": "Feature",
   "geometry": {
    "type": "Point",
    "coordinates": [
     146.60914368,
     -38.0626292
    ]
   },
   "properties": {
    "name": "60 HARRIS LANE TOONGABBIE 3856",
    "locID": "LOC000044280711",
    "tech": "WIRELESS",
    "upgrade": "NULL_NA",
    "gnaf_pid": "GAVIC421444621",
    "tech_change_status": "Not Planned",
    "program_type": "Fixed Wireless and Satellite Upgrade Program",
    "target_eligibility_quarter": "NA"
   }
  },
  {
   "type": "Feature",
   "geometry": {
    "type": "Point",
    "coordinates": [
     146.60950769,
     -38.06062959
    ]
   },
   "properties": {
    "name": "90 HARRIS LANE TOONGABBIE 3856",
    "locID": "LOC000070543857",
    "tech": "WIRELESS",
    "upgrade": "NULL_NA",
    "gnaf_pid": "GAVIC421451760",
    "tech_change_status": "Not Planned",
    "program_type": "Fixed Wireless and Satellite Upgrade Program",
    "target_eligibility_quarter": "NA"
   }
  },
  {
   "type": "Feature",
   "geometry": {
    "type": "Point",
    "coordinates": [
     146.6170773,
     -38.0583382
    ]
   },
   "properties": {
    "name": "27-33 HUMPHREY ROAD TOONGABBIE 3856",
    "locID": "LOC000048730658",
    "tech": "WIRELESS",
    "upgrade": "NULL_NA",
    "gnaf_pid": "GAVIC421502878",
    "tech_change_status": "Not Planned",
    "program_type": "Fixed Wireless and Satellite Upgrade Program",
    "target_eligibility_quarter": "NA"
   }
  },
  {
   "type": "Feature",
   "geometry": {
    "type": "Point",
    "coordinates": [
     146.62047135,
     -38.06009965
    ]
   },
   "properties": {
    "name": "3-5 HUMPHREY ROAD TOONGABBIE 3856",
    "locID": "LOC000125305971",
    "tech": "WIRELESS",
    "upgrade": "NULL_NA",
    "gnaf_pid": "GAVIC421502880",
    "tech_change_status": "Not Planned",
    "program_type": "Fixed Wireless and Satellite Upgrade Program",
    "target_eligibility_quarter": "NA"
   }
  },
  {
   "type": "Feature",
   "geometry": {
    "type": "Point",
    "coordinates": [
     146.62285443,
     -38.06344604
    ]
   },
   "properties": {
    "name": "36 HOWER STREET TOONGABBIE 3856",
    "locID": "LOC000062181563",
    "tech": "WIRELESS",
    "upgrade": "NULL_NA",
    "gnaf_pid": "GAVIC421528847",
    "tech_change_status": "Not Planned",
    "program_type": "Fixed Wireless and Satellite Upgrade Program",
    "target_eligibility_quarter": "NA"
   }
  },
  {
   "type": "Feature",
   "geometry": {
    "type": "Point",
    "coordinates": [
     146.63140431,
     -38.05958438
    ]
   },
   "properties": {
    "name": "77 MAIN STREET TOONGABBIE 3856",
    "locID": "LOC000035976872",
    "tech": "WIRELESS",
    "upgrade": "NULL_NA",
    "gnaf_pid": "GAVIC421528850",
    "tech_change_status": "Not Planned",
    "program_type": "Fixed Wireless and Satellite Upgrade Program",
    "target_eligibility_quarter": "NA"
   }
  },
  {
   "type": "Feature",
   "geometry": {
    "type": "Point",
    "coordinates": [
     146.62666706,
     -38.05593714
    ]
   },
   "properties": {
    "name": "22-24 HAZEL STREET TOONGABBIE 3856",
    "locID": "LOC000014328365",
    "tech": "WIRELESS",
    "upgrade": "NULL_NA",
    "gnaf_pid": "GAVIC421528853",
    "tech_change_status": "Not Planned",
    "program_type": "Fixed Wireless and Satellite Upgrade Program",
    "target_eligibility_quarter": "NA"
   }
  },
  {
   "type": "Feature",
   "geometry": {
    "type": "Point",
    "coordinates": [
     146.62874881,
     -38.05504215
    ]
   },
   "properties": {
    "name": "53 SPARKS LANE TOONGABBIE 3856",
    "locID": "LOC000022138745",
    "tech": "WIRELESS",
    "upgrade": "NULL_NA",
    "gnaf_pid": "GAVIC421528854",
    "tech_change_status": "Not Planned",
    "program_type": "Fixed Wireless and Satellite Upgrade Program",
    "target_eligibility_quarter": "NA"
   }
  },
  {
   "type": "Feature",
   "geometry": {
    "type": "Point",
    "coordinates": [
     146.63089095,
     -38.03144319
    ]
   },
   "properties": {
    "name": "5 HILSLEY COURT TOONGABBIE 3856",
    "locID": "LOC000065894737",
    "tech": "WIRELESS",
    "upgrade": "NULL_NA",
    "gnaf_pid": "GAVIC421541409",
    "tech_change_status": "Not Planned",
    "program_type": "Fixed Wireless and Satellite Upgrade Program",
    "target_eligibility_quarter": "NA"
   }
  },
  {
   "type": "Feature",
   "geometry": {
    "type": "Point",
    "coordinates": [
     146.62859616,
     -38.05846125
    ]
   },
   "properties": {
    "name": "14-16 SPARKS LANE TOONGABBIE 3856",
    "locID": "LOC000081766021",
    "tech": "WIRELESS",
    "upgrade": "NULL_NA",
    "gnaf_pid": "GAVIC421574589",
    "tech_change_status": "Not Planned",
    "program_type": "Fixed Wireless and Satellite Upgrade Program",
    "target_eligibility_quarter": "NA"
   }
  },
  {
   "type": "Feature",
   "geometry": {
    "type": "Point",
    "coordinates": [
     146.6288594,
     -38.05365787
    ]
   },
   "properties": {
    "name": "29 HILL STREET TOONGABBIE 3856",
    "locID": "LOC000125305963",
    "tech": "WIRELESS",
    "upgrade": "NULL_NA",
    "gnaf_pid": "GAVIC421574591",
    "tech_change_status": "Not Planned",
    "program_type": "Fixed Wireless and Satellite Upgrade Program",
    "target_eligibility_quarter": "NA"
   }
  },
  {
   "type": "Feature",
   "geometry": {
    "type": "Point",
    "coordinates": [
     146.62570152,
     -38.05681082
    ]
   },
   "properties": {
    "name": "28 VICTORIA STREET TOONGABBIE 3856",
    "locID": "LOC000032731598",
    "tech": "WIRELESS",
    "upgrade": "NULL_NA",
    "gnaf_pid": "GAVIC421574592",
    "tech_change_status": "Not Planned",
    "program_type": "Fixed Wireless and Satellite Upgrade Program",
    "target_eligibility_quarter": "NA"
   }
  },
  {
   "type": "Feature",
   "geometry": {
    "type": "Point",
    "coordinates": [
     146.63779286,
     -38.02516469
    ]
   },
   "properties": {
    "name": "365 TOONGABBIE-COWWARR ROAD TOONGABBIE 3856",
    "locID": "LOC000013007217",
    "tech": "WIRELESS",
    "upgrade": "NULL_NA",
    "gnaf_pid": "GAVIC421588402",
    "tech_change_status": "Not Planned",
    "program_type": "Fixed Wireless and Satellite Upgrade Program",
    "target_eligibility_quarter": "NA"
   }
  },
  {
   "type": "Feature",
   "geometry": {
    "type": "Point",
    "coordinates": [
     146.63679148,
     -38.02260195
    ]
   },
   "properties": {
    "name": "30 FOXS ROAD TOONGABBIE 3856",
    "locID": "LOC000014638282",
    "tech": "WIRELESS",
    "upgrade": "NULL_NA",
    "gnaf_pid": "GAVIC421588404",
    "tech_change_status": "Not Planned",
    "program_type": "Fixed Wireless and Satellite Upgrade Program",
    "target_eligibility_quarter": "NA"
   }
  },
  {
   "type": "Feature",
   "geometry": {
    "type": "Point",
    "coordinates": [
     146.6151897,
     -38.0574578
    ]
   },
   "properties": {
    "name": "35-39 HUMPHREY ROAD TOONGABBIE 3856",
    "locID": "LOC000125310181",
    "tech": "WIRELESS",
    "upgrade": "NULL_NA",
    "gnaf_pid": "GAVIC421819222",
    "tech_change_status": "Not Planned",
    "program_type": "Fixed Wireless and Satellite Upgrade Program",
    "target_eligibility_quarter": "NA"
   }
  },
  {
   "type": "Feature",
   "geometry": {
    "type": "Point",
    "coordinates": [
     146.61550168,
     -38.06100985
    ]
   },
   "properties": {
    "name": "55 NICHOLSONS ROAD TOONGABBIE 3856",
    "locID": "LOC000075491005",
    "tech": "WIRELESS",
    "upgrade": "NULL_NA",
    "gnaf_pid": "GAVIC421819223",
    "tech_change_status": "Not Planned",
    "program_type": "Fixed Wireless and Satellite Upgrade Program",
    "target_eligibility_quarter": "NA"
   }
  },
  {
   "type": "Feature",
   "geometry": {
    "type": "Point",
    "coordinates": [
     146.61551348,
     -38.06529095
    ]
   },
   "properties": {
    "name": "30 CEMETERY ROAD TOONGABBIE 3856",
    "locID": "LOC000081662560",
    "tech": "WIRELESS",
    "upgrade": "NULL_NA",
    "gnaf_pid": "GAVIC421819224",
    "tech_change_status": "Not Planned",
    "program_type": "Fixed Wireless and Satellite Upgrade Program",
    "target_eligibility_quarter": "NA"
   }
  },
  {
   "type": "Feature",
   "geometry": {
    "type": "Point",
    "coordinates": [
     146.62967076,
     -38.05978457
    ]
   },
   "properties": {
    "name": "61 MAIN STREET TOONGABBIE 3856",
    "locID": "LOC000079121429",
    "tech": "WIRELESS",
    "upgrade": "NULL_NA",
    "gnaf_pid": "GAVIC421819226",
    "tech_change_status": "Not Planned",
    "program_type": "Fixed Wireless and Satellite Upgrade Program",
    "target_eligibility_quarter": "NA"
   }
  },
  {
   "type": "Feature",
   "geometry": {
    "type": "Point",
    "coordinates": [
     146.62574813,
     -38.05657873
    ]
   },
   "properties": {
    "name": "30 VICTORIA STREET TOONGABBIE 3856",
    "locID": "LOC000012730384",
    "tech": "WIRELESS",
    "upgrade": "NULL_NA",
    "gnaf_pid": "GAVIC421819228",
    "tech_change_status": "Not Planned",
    "program_type": "Fixed Wireless and Satellite Upgrade Program",
    "target_eligibility_quarter": "NA"
   }
  },
  {
   "type": "Feature",
   "geometry": {
    "type": "Point",
    "coordinates": [
     146.62819431,
     -38.05780764
    ]
   },
   "properties": {
    "name": "23 SPARKS LANE TOONGABBIE 3856",
    "locID": "LOC000013875515",
    "tech": "WIRELESS",
    "upgrade": "NULL_NA",
    "gnaf_pid": "GAVIC421819229",
    "tech_change_status": "Not Planned",
    "program_type": "Fixed Wireless and Satellite Upgrade Program",
    "target_eligibility_quarter": "NA"
   }
  },
  {
   "type": "Feature",
   "geometry": {
    "type": "Point",
    "coordinates": [
     146.62613352,
     -38.05468568
    ]
   },
   "properties": {
    "name": "48 VICTORIA STREET TOONGABBIE 3856",
    "locID": "LOC000125310272",
    "tech": "WIRELESS",
    "upgrade": "NULL_NA",
    "gnaf_pid": "GAVIC421819230",
    "tech_change_status": "Not Planned",
    "program_type": "Fixed Wireless and Satellite Upgrade Program",
    "target_eligibility_quarter": "NA"
   }
  },
  {
   "type": "Feature",
   "geometry": {
    "type": "Point",
    "coordinates": [
     146.62564973,
     -38.05444228
    ]
   },
   "properties": {
    "name": "47 VICTORIA STREET TOONGABBIE 3856",
    "locID": "LOC000006107775",
    "tech": "WIRELESS",
    "upgrade": "NULL_NA",
    "gnaf_pid": "GAVIC421819232",
    "tech_change_status": "Not Planned",
    "program_type": "Fixed Wireless and Satellite Upgrade Program",
    "target_eligibility_quarter": "NA"
   }
  },
  {
   "type": "Feature",
   "geometry": {
    "type": "Point",
    "coordinates": [
     146.62568664,
     -38.05426008
    ]
   },
   "properties": {
    "name": "49 VICTORIA STREET TOONGABBIE 3856",
    "locID": "LOC000092869916",
    "tech": "WIRELESS",
    "upgrade": "NULL_NA",
    "gnaf_pid": "GAVIC421819233",
    "tech_change_status": "Not Planned",
    "program_type": "Fixed Wireless and Satellite Upgrade Program",
    "target_eligibility_quarter": "NA"
   }
  },
  {
   "type": "Feature",
   "geometry": {
    "type": "Point",
    "coordinates": [
     146.62572346,
     -38.05407832
    ]
   },
   "properties": {
    "name": "51 VICTORIA STREET TOONGABBIE 3856",
    "locID": "LOC000019363392",
    "tech": "WIRELESS",
    "upgrade": "NULL_NA",
    "gnaf_pid": "GAVIC421819234",
    "tech_change_status": "Not Planned",
    "program_type": "Fixed Wireless and Satellite Upgrade Program",
    "target_eligibility_quarter": "NA"
   }
  },
  {
   "type": "Feature",
   "geometry": {
    "type": "Point",
    "coordinates": [
     146.62577726,
     -38.05381218
    ]
   },
   "properties": {
    "name": "53-55 VICTORIA STREET TOONGABBIE 3856",
    "locID": "LOC000183037993",
    "tech": "WIRELESS",
    "upgrade": "NULL_NA",
    "gnaf_pid": "GAVIC421822852",
    "tech_change_status": "Not Planned",
    "program_type": "Fixed Wireless and Satellite Upgrade Program",
    "target_eligibility_quarter": "NA"
   }
  },
  {
   "type": "Feature",
   "geometry": {
    "type": "Point",
    "coordinates": [
     146.62684453,
     -38.06441723
    ]
   },
   "properties": {
    "name": "11 RIES STREET TOONGABBIE 3856",
    "locID": "LOC000114780873",
    "tech": "WIRELESS",
    "upgrade": "NULL_NA",
    "gnaf_pid": "GAVIC421838999",
    "tech_change_status": "Not Planned",
    "program_type": "Fixed Wireless and Satellite Upgrade Program",
    "target_eligibility_quarter": "NA"
   }
  },
  {
   "type": "Feature",
   "geometry": {
    "type": "Point",
    "coordinates": [
     146.62909563,
     -38.05983825
    ]
   },
   "properties": {
    "name": "59 MAIN STREET TOONGABBIE 3856",
    "locID": "LOC000087143974",
    "tech": "WIRELESS",
    "upgrade": "NULL_NA",
    "gnaf_pid": "GAVIC421870977",
    "tech_change_status": "Not Planned",
    "program_type": "Fixed Wireless and Satellite Upgrade Program",
    "target_eligibility_quarter": "NA"
   }
  },
  {
   "type": "Feature",
   "geometry": {
    "type": "Point",
    "coordinates": [
     146.62762926,
     -38.05988563
    ]
   },
   "properties": {
    "name": "55 MAIN STREET TOONGABBIE 3856",
    "locID": "LOC000093917974",
    "tech": "WIRELESS",
    "upgrade": "NULL_NA",
    "gnaf_pid": "GAVIC421882544",
    "tech_change_status": "Not Planned",
    "program_type": "Fixed Wireless and Satellite Upgrade Program",
    "target_eligibility_quarter": "NA"
   }
  },
  {
   "type": "Feature",
   "geometry": {
    "type": "Point",
    "coordinates": [
     146.6273736,
     -38.05346224
    ]
   },
   "properties": {
    "name": "23-25 HILL STREET TOONGABBIE 3856",
    "locID": "LOC000125305874",
    "tech": "WIRELESS",
    "upgrade": "NULL_NA",
    "gnaf_pid": "GAVIC421887133",
    "tech_change_status": "Not Planned",
    "program_type": "Fixed Wireless and Satellite Upgrade Program",
    "target_eligibility_quarter": "NA"
   }
  },
  {
   "type": "Feature",
   "geometry": {
    "type": "Point",
    "coordinates": [
     146.6424404,
     -38.02069955
    ]
   },
   "properties": {
    "name": "425 TOONGABBIE-COWWARR ROAD TOONGABBIE 3856",
    "locID": "LOC000015304077",
    "tech": "WIRELESS",
    "upgrade": "NULL_NA",
    "gnaf_pid": "GAVIC422000064",
    "tech_change_status": "Not Planned",
    "program_type": "Fixed Wireless and Satellite Upgrade Program",
    "target_eligibility_quarter": "NA"
   }
  },
  {
   "type": "Feature",
   "geometry": {
    "type": "Point",
    "coordinates": [
     146.61474823,
     -38.05687054
    ]
   },
   "properties": {
    "name": "41 HUMPHREY ROAD TOONGABBIE 3856",
    "locID": "LOC000027630639",
    "tech": "WIRELESS",
    "upgrade": "NULL_NA",
    "gnaf_pid": "GAVIC422000065",
    "tech_change_status": "Not Planned",
    "program_type": "Fixed Wireless and Satellite Upgrade Program",
    "target_eligibility_quarter": "NA"
   }
  },
  {
   "type": "Feature",
   "geometry": {
    "type": "Point",
    "coordinates": [
     146.63438106,
     -38.02847985
    ]
   },
   "properties": {
    "name": "305 TOONGABBIE-COWWARR ROAD TOONGABBIE 3856",
    "locID": "LOC000022763302",
    "tech": "WIRELESS",
    "upgrade": "NULL_NA",
    "gnaf_pid": "GAVIC422001531",
    "tech_change_status": "Not Planned",
    "program_type": "Fixed Wireless and Satellite Upgrade Program",
    "target_eligibility_quarter": "NA"
   }
  },
  {
   "type": "Feature",
   "geometry": {
    "type": "Point",
    "coordinates": [
     146.63269766,
     -38.07145639
    ]
   },
   "properties": {
    "name": "83 HENDERSONS ROAD TOONGABBIE 3856",
    "locID": "LOC000057199931",
    "tech": "WIRELESS",
    "upgrade": "NULL_NA",
    "gnaf_pid": "GAVIC422026561",
    "tech_change_status": "Not Planned",
    "program_type": "Fixed Wireless and Satellite Upgrade Program",
    "target_eligibility_quarter": "NA"
   }
  },
  {
   "type": "Feature",
   "geometry": {
    "type": "Point",
    "coordinates": [
     146.67725546,
     -38.06820765
    ]
   },
   "properties": {
    "name": "2000 SALE-TOONGABBIE ROAD TOONGABBIE 3856",
    "locID": "LOC000069481166",
    "tech": "SATELLITE",
    "upgrade": "NULL_NA",
    "gnaf_pid": "GAVIC422031498",
    "tech_change_status": "Not Planned"
   }
  },
  {
   "type": "Feature",
   "geometry": {
    "type": "Point",
    "coordinates": [
     146.65021505,
     -38.0822622
    ]
   },
   "properties": {
    "name": "280 HENDERSONS ROAD TOONGABBIE 3856",
    "locID": "LOC000017059038",
    "tech": "WIRELESS",
    "upgrade": "NULL_NA",
    "gnaf_pid": "GAVIC422032630",
    "tech_change_status": "Not Planned",
    "program_type": "Fixed Wireless and Satellite Upgrade Program",
    "target_eligibility_quarter": "NA"
   }
  },
  {
   "type": "Feature",
   "geometry": {
    "type": "Point",
    "coordinates": [
     146.62907041,
     -38.03318594
    ]
   },
   "properties": {
    "name": "237 TOONGABBIE-COWWARR ROAD TOONGABBIE 3856",
    "locID": "LOC000011929707",
    "tech": "WIRELESS",
    "upgrade": "NULL_NA",
    "gnaf_pid": "GAVIC422034582",
    "tech_change_status": "Not Planned",
    "program_type": "Fixed Wireless and Satellite Upgrade Program",
    "target_eligibility_quarter": "NA"
   }
  },
  {
   "type": "Feature",
   "geometry": {
    "type": "Point",
    "coordinates": [
     146.6390061,
     -38.02404181
    ]
   },
   "properties": {
    "name": "375 TOONGABBIE-COWWARR ROAD TOONGABBIE 3856",
    "locID": "LOC000069458842",
    "tech": "WIRELESS",
    "upgrade": "NULL_NA",
    "gnaf_pid": "GAVIC422035547",
    "tech_change_status": "Not Planned",
    "program_type": "Fixed Wireless and Satellite Upgrade Program",
    "target_eligibility_quarter": "NA"
   }
  },
  {
   "type": "Feature",
   "geometry": {
    "type": "Point",
    "coordinates": [
     146.6284681,
     -38.02158455
    ]
   },
   "properties": {
    "name": "110 FOXS ROAD TOONGABBIE 3856",
    "locID": "LOC000024779988",
    "tech": "WIRELESS",
    "upgrade": "NULL_NA",
    "gnaf_pid": "GAVIC422147537",
    "tech_change_status": "Not Planned",
    "program_type": "Fixed Wireless and Satellite Upgrade Program",
    "target_eligibility_quarter": "NA"
   }
  },
  {
   "type": "Feature",
   "geometry": {
    "type": "Point",
    "coordinates": [
     146.63660771,
     -38.02289881
    ]
   },
   "properties": {
    "name": "31 FOXS ROAD TOONGABBIE 3856",
    "locID": "LOC000066123691",
    "tech": "WIRELESS",
    "upgrade": "NULL_NA",
    "gnaf_pid": "GAVIC422147538",
    "tech_change_status": "Not Planned",
    "program_type": "Fixed Wireless and Satellite Upgrade Program",
    "target_eligibility_quarter": "NA"
   }
  },
  {
   "type": "Feature",
   "geometry": {
    "type": "Point",
    "coordinates": [
     146.63543489,
     -38.02276
    ]
   },
   "properties": {
    "name": "35 FOXS ROAD TOONGABBIE 3856",
    "locID": "LOC000091520230",
    "tech": "WIRELESS",
    "upgrade": "NULL_NA",
    "gnaf_pid": "GAVIC422147539",
    "tech_change_status": "Not Planned",
    "program_type": "Fixed Wireless and Satellite Upgrade Program",
    "target_eligibility_quarter": "NA"
   }
  },
  {
   "type": "Feature",
   "geometry": {
    "type": "Point",
    "coordinates": [
     146.63601705,
     -38.02253648
    ]
   },
   "properties": {
    "name": "36 FOXS ROAD TOONGABBIE 3856",
    "locID": "LOC000057642449",
    "tech": "WIRELESS",
    "upgrade": "NULL_NA",
    "gnaf_pid": "GAVIC422147540",
    "tech_change_status": "Not Planned",
    "program_type": "Fixed Wireless and Satellite Upgrade Program",
    "target_eligibility_quarter": "NA"
   }
  },
  {
   "type": "Feature",
   "geometry": {
    "type": "Point",
    "coordinates": [
     146.6114982,
     -38.06791849
    ]
   },
   "properties": {
    "name": "215 GUYATTS ROAD TOONGABBIE 3856",
    "locID": "LOC000094766412",
    "tech": "WIRELESS",
    "upgrade": "NULL_NA",
    "gnaf_pid": "GAVIC422152812",
    "tech_change_status": "Not Planned",
    "program_type": "Fixed Wireless and Satellite Upgrade Program",
    "target_eligibility_quarter": "NA"
   }
  },
  {
   "type": "Feature",
   "geometry": {
    "type": "Point",
    "coordinates": [
     146.6132982,
     -38.06815875
    ]
   },
   "properties": {
    "name": "229 GUYATTS ROAD TOONGABBIE 3856",
    "locID": "LOC000035188815",
    "tech": "WIRELESS",
    "upgrade": "NULL_NA",
    "gnaf_pid": "GAVIC422152813",
    "tech_change_status": "Not Planned",
    "program_type": "Fixed Wireless and Satellite Upgrade Program",
    "target_eligibility_quarter": "NA"
   }
  },
  {
   "type": "Feature",
   "geometry": {
    "type": "Point",
    "coordinates": [
     146.61737655,
     -38.06873089
    ]
   },
   "properties": {
    "name": "265 GUYATTS ROAD TOONGABBIE 3856",
    "locID": "LOC000027825295",
    "tech": "WIRELESS",
    "upgrade": "NULL_NA",
    "gnaf_pid": "GAVIC422152814",
    "tech_change_status": "Not Planned",
    "program_type": "Fixed Wireless and Satellite Upgrade Program",
    "target_eligibility_quarter": "NA"
   }
  },
  {
   "type": "Feature",
   "geometry": {
    "type": "Point",
    "coordinates": [
     146.60887516,
     -38.063818
    ]
   },
   "properties": {
    "name": "50 HARRIS LANE TOONGABBIE 3856",
    "locID": "LOC000090964902",
    "tech": "WIRELESS",
    "upgrade": "NULL_NA",
    "gnaf_pid": "GAVIC422153874",
    "tech_change_status": "Not Planned",
    "program_type": "Fixed Wireless and Satellite Upgrade Program",
    "target_eligibility_quarter": "NA"
   }
  },
  {
   "type": "Feature",
   "geometry": {
    "type": "Point",
    "coordinates": [
     146.63903501,
     -38.07641509
    ]
   },
   "properties": {
    "name": "162 HENDERSONS ROAD TOONGABBIE 3856",
    "locID": "LOC000029410117",
    "tech": "WIRELESS",
    "upgrade": "NULL_NA",
    "gnaf_pid": "GAVIC422154890",
    "tech_change_status": "Not Planned",
    "program_type": "Fixed Wireless and Satellite Upgrade Program",
    "target_eligibility_quarter": "NA"
   }
  },
  {
   "type": "Feature",
   "geometry": {
    "type": "Point",
    "coordinates": [
     146.65651909,
     -38.08382656
    ]
   },
   "properties": {
    "name": "340 HENDERSONS ROAD TOONGABBIE 3856",
    "locID": "LOC000066620019",
    "tech": "SATELLITE",
    "upgrade": "NULL_NA",
    "gnaf_pid": "GAVIC422154891",
    "tech_change_status": "Not Planned"
   }
  },
  {
   "type": "Feature",
   "geometry": {
    "type": "Point",
    "coordinates": [
     146.66007705,
     -38.08500404
    ]
   },
   "properties": {
    "name": "374 HENDERSONS ROAD TOONGABBIE 3856",
    "locID": "LOC000085270507",
    "tech": "SATELLITE",
    "upgrade": "NULL_NA",
    "gnaf_pid": "GAVIC422154892",
    "tech_change_status": "Not Planned"
   }
  },
  {
   "type": "Feature",
   "geometry": {
    "type": "Point",
    "coordinates": [
     146.67431309,
     -38.08901006
    ]
   },
   "properties": {
    "name": "507 HENDERSONS ROAD TOONGABBIE 3856",
    "locID": "LOC000105881324",
    "tech": "WIRELESS",
    "upgrade": "NULL_NA",
    "gnaf_pid": "GAVIC422154893",
    "tech_change_status": "Not Planned",
    "program_type": "Fixed Wireless and Satellite Upgrade Program",
    "target_eligibility_quarter": "NA"
   }
  },
  {
   "type": "Feature",
   "geometry": {
    "type": "Point",
    "coordinates": [
     146.68821784,
     -38.09083239
    ]
   },
   "properties": {
    "name": "633 HENDERSONS ROAD TOONGABBIE 3856",
    "locID": "LOC000016145617",
    "tech": "SATELLITE",
    "upgrade": "NULL_NA",
    "gnaf_pid": "GAVIC422154894",
    "tech_change_status": "Not Planned"
   }
  },
  {
   "type": "Feature",
   "geometry": {
    "type": "Point",
    "coordinates": [
     146.69103296,
     -38.09121838
    ]
   },
   "properties": {
    "name": "657 HENDERSONS ROAD TOONGABBIE 3856",
    "locID": "LOC000094191368",
    "tech": "SATELLITE",
    "upgrade": "NULL_NA",
    "gnaf_pid": "GAVIC422154895",
    "tech_change_status": "Not Planned"
   }
  },
  {
   "type": "Feature",
   "geometry": {
    "type": "Point",
    "coordinates": [
     146.63355823,
     -38.07263975
    ]
   },
   "properties": {
    "name": "98 HENDERSONS ROAD TOONGABBIE 3856",
    "locID": "LOC000060767284",
    "tech": "WIRELESS",
    "upgrade": "NULL_NA",
    "gnaf_pid": "GAVIC422154896",
    "tech_change_status": "Not Planned",
    "program_type": "Fixed Wireless and Satellite Upgrade Program",
    "target_eligibility_quarter": "NA"
   }
  },
  {
   "type": "Feature",
   "geometry": {
    "type": "Point",
    "coordinates": [
     146.64120725,
     -38.02125459
    ]
   },
   "properties": {
    "name": "10 HILLIER LANE TOONGABBIE 3856",
    "locID": "LOC000073792635",
    "tech": "WIRELESS",
    "upgrade": "NULL_NA",
    "gnaf_pid": "GAVIC422156286",
    "tech_change_status": "Not Planned",
    "program_type": "Fixed Wireless and Satellite Upgrade Program",
    "target_eligibility_quarter": "NA"
   }
  },
  {
   "type": "Feature",
   "geometry": {
    "type": "Point",
    "coordinates": [
     146.63938345,
     -38.02143828
    ]
   },
   "properties": {
    "name": "15 HILLIER LANE TOONGABBIE 3856",
    "locID": "LOC000088898104",
    "tech": "WIRELESS",
    "upgrade": "NULL_NA",
    "gnaf_pid": "GAVIC422156287",
    "tech_change_status": "Not Planned",
    "program_type": "Fixed Wireless and Satellite Upgrade Program",
    "target_eligibility_quarter": "NA"
   }
  },
  {
   "type": "Feature",
   "geometry": {
    "type": "Point",
    "coordinates": [
     146.63935154,
     -38.02097851
    ]
   },
   "properties": {
    "name": "20 HILLIER LANE TOONGABBIE 3856",
    "locID": "LOC000021116709",
    "tech": "WIRELESS",
    "upgrade": "NULL_NA",
    "gnaf_pid": "GAVIC422156288",
    "tech_change_status": "Not Planned",
    "program_type": "Fixed Wireless and Satellite Upgrade Program",
    "target_eligibility_quarter": "NA"
   }
  },
  {
   "type": "Feature",
   "geometry": {
    "type": "Point",
    "coordinates": [
     146.6390422,
     -38.02132906
    ]
   },
   "properties": {
    "name": "25 HILLIER LANE TOONGABBIE 3856",
    "locID": "LOC000036162494",
    "tech": "WIRELESS",
    "upgrade": "NULL_NA",
    "gnaf_pid": "GAVIC422156289",
    "tech_change_status": "Not Planned",
    "program_type": "Fixed Wireless and Satellite Upgrade Program",
    "target_eligibility_quarter": "NA"
   }
  },
  {
   "type": "Feature",
   "geometry": {
    "type": "Point",
    "coordinates": [
     146.6265858,
     -38.03104204
    ]
   },
   "properties": {
    "name": "50 HILSLEY COURT TOONGABBIE 3856",
    "locID": "LOC000045127092",
    "tech": "WIRELESS",
    "upgrade": "NULL_NA",
    "gnaf_pid": "GAVIC422156336",
    "tech_change_status": "Not Planned",
    "program_type": "Fixed Wireless and Satellite Upgrade Program",
    "target_eligibility_quarter": "NA"
   }
  },
  {
   "type": "Feature",
   "geometry": {
    "type": "Point",
    "coordinates": [
     146.60488849,
     -38.05261984
    ]
   },
   "properties": {
    "name": "185 HUMPHREY ROAD TOONGABBIE 3856",
    "locID": "LOC000061317897",
    "tech": "WIRELESS",
    "upgrade": "NULL_NA",
    "gnaf_pid": "GAVIC422157823",
    "tech_change_status": "Not Planned",
    "program_type": "Fixed Wireless and Satellite Upgrade Program",
    "target_eligibility_quarter": "NA"
   }
  },
  {
   "type": "Feature",
   "geometry": {
    "type": "Point",
    "coordinates": [
     146.59575484,
     -38.05332783
    ]
   },
   "properties": {
    "name": "255 HUMPHREY ROAD TOONGABBIE 3856",
    "locID": "LOC000038332970",
    "tech": "WIRELESS",
    "upgrade": "NULL_NA",
    "gnaf_pid": "GAVIC422157824",
    "tech_change_status": "Not Planned",
    "program_type": "Fixed Wireless and Satellite Upgrade Program",
    "target_eligibility_quarter": "NA"
   }
  },
  {
   "type": "Feature",
   "geometry": {
    "type": "Point",
    "coordinates": [
     146.61484811,
     -38.06390983
    ]
   },