{
 "type": "FeatureCollection",
 "generated": "2023-09-22T12:47:33.775296",
 "suburb": "VERMONT SOUTH",
 "features": [
  {
   "type": "Feature",
   "geometry": {
    "type": "Point",
    "coordinates": [
     145.17502855,
     -37.8530104
    ]
   },
   "properties": {
    "name": "7 BOLYN COURT VERMONT SOUTH 3133",
    "locID": "LOC000086324412",
    "tech": "HFC",
    "upgrade": "NULL_NA",
    "gnaf_pid": "GAVIC412504659"
   }
  },
  {
   "type": "Feature",
   "geometry": {
    "type": "Point",
    "coordinates": [
     145.19732607,
     -37.85339916
    ]
   },
   "properties": {
    "name": "6 WENDOUREE COURT VERMONT SOUTH 3133",
    "locID": "LOC000021130178",
    "tech": "HFC",
    "upgrade": "NULL_NA",
    "gnaf_pid": "GAVIC412508604"
   }
  },
  {
   "type": "Feature",
   "geometry": {
    "type": "Point",
    "coordinates": [
     145.19052,
     -37.853276
    ]
   },
   "properties": {
    "name": "27A MELISSA GROVE VERMONT SOUTH 3133",
    "locID": "LOC000169294729",
    "tech": "HFC",
    "upgrade": "NULL_NA",
    "gnaf_pid": "GAVIC412508621"
   }
  },
  {
   "type": "Feature",
   "geometry": {
    "type": "Point",
    "coordinates": [
     145.2021384,
     -37.84853425
    ]
   },
   "properties": {
    "name": "11 KALTARA CLOSE VERMONT SOUTH 3133",
    "locID": "LOC000114903345",
    "tech": "HFC",
    "upgrade": "NULL_NA",
    "gnaf_pid": "GAVIC412508975"
   }
  },
  {
   "type": "Feature",
   "geometry": {
    "type": "Point",
    "coordinates": [
     145.17722994,
     -37.84958256
    ]
   },
   "properties": {
    "name": "UNIT 1, 218 HAWTHORN ROAD VERMONT SOUTH 3133",
    "locID": "LOC000077210985",
    "tech": "HFC",
    "upgrade": "NULL_NA",
    "gnaf_pid": "GAVIC412509762"
   }
  },
  {
   "type": "Feature",
   "geometry": {
    "type": "Point",
    "coordinates": [
     145.19346548,
     -37.85774365
    ]
   },
   "properties": {
    "name": "24 BAROSSA AVENUE VERMONT SOUTH 3133",
    "locID": "LOC000086412298",
    "tech": "HFC",
    "upgrade": "NULL_NA",
    "gnaf_pid": "GAVIC412510734"
   }
  },
  {
   "type": "Feature",
   "geometry": {
    "type": "Point",
    "coordinates": [
     145.172332,
     -37.862115
    ]
   },
   "properties": {
    "name": "749 HIGHBURY ROAD VERMONT SOUTH 3133",
    "locID": "LOC000109246039",
    "tech": "HFC",
    "upgrade": "NULL_NA",
    "gnaf_pid": "GAVIC412512365"
   }
  },
  {
   "type": "Feature",
   "geometry": {
    "type": "Point",
    "coordinates": [
     145.182445,
     -37.846564
    ]
   },
   "properties": {
    "name": "13 WALBROOK DRIVE VERMONT SOUTH 3133",
    "locID": "LOC000071149030",
    "tech": "HFC",
    "upgrade": "NULL_NA",
    "gnaf_pid": "GAVIC412513117"
   }
  },
  {
   "type": "Feature",
   "geometry": {
    "type": "Point",
    "coordinates": [
     145.19910249,
     -37.85279553
    ]
   },
   "properties": {
    "name": "17 COONAWARRA DRIVE VERMONT SOUTH 3133",
    "locID": "LOC000100684521",
    "tech": "HFC",
    "upgrade": "NULL_NA",
    "gnaf_pid": "GAVIC412514012"
   }
  },
  {
   "type": "Feature",
   "geometry": {
    "type": "Point",
    "coordinates": [
     145.19197974,
     -37.85175213
    ]
   },
   "properties": {
    "name": "UNIT 1, 20 GEORGE ROAD VERMONT SOUTH 3133",
    "locID": "LOC000104257013",
    "tech": "HFC",
    "upgrade": "NULL_NA",
    "gnaf_pid": "GAVIC412514072"
   }
  },
  {
   "type": "Feature",
   "geometry": {
    "type": "Point",
    "coordinates": [
     145.19197974,
     -37.85175213
    ]
   },
   "properties": {
    "name": "UNIT 2, 20 GEORGE ROAD VERMONT SOUTH 3133",
    "locID": "LOC000104257013",
    "tech": "HFC",
    "upgrade": "NULL_NA",
    "gnaf_pid": "GAVIC412514074"
   }
  },
  {
   "type": "Feature",
   "geometry": {
    "type": "Point",
    "coordinates": [
     145.198969,
     -37.847286
    ]
   },
   "properties": {
    "name": "95 MORACK ROAD VERMONT SOUTH 3133",
    "locID": "LOC000082785235",
    "tech": "HFC",
    "upgrade": "NULL_NA",
    "gnaf_pid": "GAVIC412515875"
   }
  },
  {
   "type": "Feature",
   "geometry": {
    "type": "Point",
    "coordinates": [
     145.18838341,
     -37.8496504
    ]
   },
   "properties": {
    "name": "116 TERRARA ROAD VERMONT SOUTH 3133",
    "locID": "LOC100074590487",
    "tech": "HFC",
    "upgrade": "NULL_NA",
    "gnaf_pid": "GAVIC412515908"
   }
  },
  {
   "type": "Feature",
   "geometry": {
    "type": "Point",
    "coordinates": [
     145.180443,
     -37.848471
    ]
   },
   "properties": {
    "name": "261 HAWTHORN ROAD VERMONT SOUTH 3133",
    "locID": "LOC000092068601",
    "tech": "HFC",
    "upgrade": "NULL_NA",
    "gnaf_pid": "GAVIC412516869"
   }
  },
  {
   "type": "Feature",
   "geometry": {
    "type": "Point",
    "coordinates": [
     145.197765,
     -37.858113
    ]
   },
   "properties": {
    "name": "272 MORACK ROAD VERMONT SOUTH 3133",
    "locID": "LOC000169294888",
    "tech": "HFC",
    "upgrade": "NULL_NA",
    "gnaf_pid": "GAVIC412516950"
   }
  },
  {
   "type": "Feature",
   "geometry": {
    "type": "Point",
    "coordinates": [
     145.19801164,
     -37.85170201
    ]
   },
   "properties": {
    "name": "9 RUTHERGLEN ROAD VERMONT SOUTH 3133",
    "locID": "LOC000008688275",
    "tech": "HFC",
    "upgrade": "NULL_NA",
    "gnaf_pid": "GAVIC412517325"
   }
  },
  {
   "type": "Feature",
   "geometry": {
    "type": "Point",
    "coordinates": [
     145.17077,
     -37.86204
    ]
   },
   "properties": {
    "name": "737 HIGHBURY ROAD VERMONT SOUTH 3133",
    "locID": "LOC000169900731",
    "tech": "HFC",
    "upgrade": "NULL_NA",
    "gnaf_pid": "GAVIC412519387"
   }
  },
  {
   "type": "Feature",
   "geometry": {
    "type": "Point",
    "coordinates": [
     145.188713,
     -37.856997
    ]
   },
   "properties": {
    "name": "UNIT 1, 559 BURWOOD HIGHWAY VERMONT SOUTH 3133",
    "locID": "LOC000003484099",
    "tech": "HFC",
    "upgrade": "NULL_NA",
    "gnaf_pid": "GAVIC412520247"
   }
  },
  {
   "type": "Feature",
   "geometry": {
    "type": "Point",
    "coordinates": [
     145.18437266,
     -37.8471996
    ]
   },
   "properties": {
    "name": "UNIT 1, 293 HAWTHORN ROAD VERMONT SOUTH 3133",
    "locID": "LOC000085345972",
    "tech": "HFC",
    "upgrade": "NULL_NA",
    "gnaf_pid": "GAVIC412520287"
   }
  },
  {
   "type": "Feature",
   "geometry": {
    "type": "Point",
    "coordinates": [
     145.17722994,
     -37.84958256
    ]
   },
   "properties": {
    "name": "UNIT 2, 218 HAWTHORN ROAD VERMONT SOUTH 3133",
    "locID": "LOC000077210985",
    "tech": "HFC",
    "upgrade": "NULL_NA",
    "gnaf_pid": "GAVIC412520358"
   }
  },
  {
   "type": "Feature",
   "geometry": {
    "type": "Point",
    "coordinates": [
     145.174647,
     -37.851688
    ]
   },
   "properties": {
    "name": "20A SCARBOROUGH ROAD VERMONT SOUTH 3133",
    "locID": "LOC000005215000",
    "tech": "HFC",
    "upgrade": "NULL_NA",
    "gnaf_pid": "GAVIC412520437"
   }
  },
  {
   "type": "Feature",
   "geometry": {
    "type": "Point",
    "coordinates": [
     145.183519,
     -37.8510859
    ]
   },
   "properties": {
    "name": "17 BARRADINE CRESCENT VERMONT SOUTH 3133",
    "locID": "ChIJucrMQ-A-1moRMM0wQhepSXM",
    "tech": "HFC",
    "upgrade": "UNKNOWN",
    "gnaf_pid": "GAVIC412521065"
   }
  },
  {
   "type": "Feature",
   "geometry": {
    "type": "Point",
    "coordinates": [
     145.19138064,
     -37.85244195
    ]
   },
   "properties": {
    "name": "28 GEORGE ROAD VERMONT SOUTH 3133",
    "locID": "LOC000106034130",
    "tech": "HFC",
    "upgrade": "NULL_NA",
    "gnaf_pid": "GAVIC412523057"
   }
  },
  {
   "type": "Feature",
   "geometry": {
    "type": "Point",
    "coordinates": [
     145.17590406,
     -37.84663774
    ]
   },
   "properties": {
    "name": "4 HENLEY AVENUE VERMONT SOUTH 3133",
    "locID": "LOC000032640875",
    "tech": "FTTN",
    "upgrade": "FTTP_SA",
    "gnaf_pid": "GAVIC412523101"
   }
  },
  {
   "type": "Feature",
   "geometry": {
    "type": "Point",
    "coordinates": [
     145.18239313,
     -37.85054696
    ]
   },
   "properties": {
    "name": "11 ALRENE COURT VERMONT SOUTH 3133",
    "locID": "LOC000113050485",
    "tech": "HFC",
    "upgrade": "NULL_NA",
    "gnaf_pid": "GAVIC412523361"
   }
  },
  {
   "type": "Feature",
   "geometry": {
    "type": "Point",
    "coordinates": [
     145.19776271,
     -37.8582306
    ]
   },
   "properties": {
    "name": "274 MORACK ROAD VERMONT SOUTH 3133",
    "locID": "ChIJKeP7XOk-1moRlxQui65cN_s",
    "tech": "HFC",
    "upgrade": "UNKNOWN",
    "gnaf_pid": "GAVIC412524987"
   }
  },
  {
   "type": "Feature",
   "geometry": {
    "type": "Point",
    "coordinates": [
     145.178249,
     -37.857259
    ]
   },
   "properties": {
    "name": "10A CAVILL COURT VERMONT SOUTH 3133",
    "locID": "ChIJS_pnzRw_1moRe5YZeECcJNI",
    "tech": "HFC",
    "upgrade": "UNKNOWN",
    "gnaf_pid": "GAVIC412526329"
   }
  },
  {
   "type": "Feature",
   "geometry": {
    "type": "Point",
    "coordinates": [
     145.198263,
     -37.852701
    ]
   },
   "properties": {
    "name": "UNIT 1, 9 COONAWARRA DRIVE VERMONT SOUTH 3133",
    "locID": "LOC000102182463",
    "tech": "HFC",
    "upgrade": "NULL_NA",
    "gnaf_pid": "GAVIC412527046"
   }
  },
  {
   "type": "Feature",
   "geometry": {
    "type": "Point",
    "coordinates": [
     145.18941914,
     -37.85176565
    ]
   },
   "properties": {
    "name": "121 TERRARA ROAD VERMONT SOUTH 3133",
    "locID": "LOC000048781815",
    "tech": "HFC",
    "upgrade": "NULL_NA",
    "gnaf_pid": "GAVIC412527098"
   }
  },
  {
   "type": "Feature",
   "geometry": {
    "type": "Point",
    "coordinates": [
     145.187043,
     -37.848627
    ]
   },
   "properties": {
    "name": "14 GWYN RISE VERMONT SOUTH 3133",
    "locID": "LOC000044533816",
    "tech": "HFC",
    "upgrade": "NULL_NA",
    "gnaf_pid": "GAVIC412530592"
   }
  },
  {
   "type": "Feature",
   "geometry": {
    "type": "Point",
    "coordinates": [
     145.17096638,
     -37.85210027
    ]
   },
   "properties": {
    "name": "UNIT 2, 6 CAMBARA COURT VERMONT SOUTH 3133",
    "locID": "LOC000012165200",
    "tech": "HFC",
    "upgrade": "NULL_NA",
    "gnaf_pid": "GAVIC412534435"
   }
  },
  {
   "type": "Feature",
   "geometry": {
    "type": "Point",
    "coordinates": [
     145.18025325,
     -37.8549668
    ]
   },
   "properties": {
    "name": "39 LIVINGSTONE ROAD VERMONT SOUTH 3133",
    "locID": "LOC100072130414",
    "tech": "HFC",
    "upgrade": "NULL_NA",
    "gnaf_pid": "GAVIC412536146"
   }
  },
  {
   "type": "Feature",
   "geometry": {
    "type": "Point",
    "coordinates": [
     145.18474373,
     -37.84744018
    ]
   },
   "properties": {
    "name": "UNIT 2, 1 FELGATE PARADE VERMONT SOUTH 3133",
    "locID": "LOC000074410456",
    "tech": "HFC",
    "upgrade": "NULL_NA",
    "gnaf_pid": "GAVIC412536148"
   }
  },
  {
   "type": "Feature",
   "geometry": {
    "type": "Point",
    "coordinates": [
     145.19017661,
     -37.86434651
    ]
   },
   "properties": {
    "name": "UNIT 1, 895 HIGHBURY ROAD VERMONT SOUTH 3133",
    "locID": "LOC000169849454",
    "tech": "HFC",
    "upgrade": "NULL_NA",
    "gnaf_pid": "GAVIC412537938"
   }
  },
  {
   "type": "Feature",
   "geometry": {
    "type": "Point",
    "coordinates": [
     145.19032078,
     -37.85569674
    ]
   },
   "properties": {
    "name": "146 TERRARA ROAD VERMONT SOUTH 3133",
    "locID": "LOC000053851952",
    "tech": "HFC",
    "upgrade": "NULL_NA",
    "gnaf_pid": "GAVIC412538895"
   }
  },
  {
   "type": "Feature",
   "geometry": {
    "type": "Point",
    "coordinates": [
     145.19063727,
     -37.86431808
    ]
   },
   "properties": {
    "name": "31 DONBIRN WAY VERMONT SOUTH 3133",
    "locID": "LOC000053980870",
    "tech": "HFC",
    "upgrade": "NULL_NA",
    "gnaf_pid": "GAVIC412539750"
   }
  },
  {
   "type": "Feature",
   "geometry": {
    "type": "Point",
    "coordinates": [
     145.17077,
     -37.86204
    ]
   },
   "properties": {
    "name": "737A HIGHBURY ROAD VERMONT SOUTH 3133",
    "locID": "ChIJn-uU1Qc_1moRBwJOKnjm8Q4",
    "tech": "HFC",
    "upgrade": "UNKNOWN",
    "gnaf_pid": "GAVIC412541426"
   }
  },
  {
   "type": "Feature",
   "geometry": {
    "type": "Point",
    "coordinates": [
     145.19080365,
     -37.86334912
    ]
   },
   "properties": {
    "name": "5 CLENDON COURT VERMONT SOUTH 3133",
    "locID": "ChIJ6YIh8Po-1moR8Ld_pm4ix6E",
    "tech": "HFC",
    "upgrade": "UNKNOWN",
    "gnaf_pid": "GAVIC412544417"
   }
  },
  {
   "type": "Feature",
   "geometry": {
    "type": "Point",
    "coordinates": [
     145.1797415,
     -37.85551021
    ]
   },
   "properties": {
    "name": "56 LIVINGSTONE ROAD VERMONT SOUTH 3133",
    "locID": "LOC000036113101",
    "tech": "HFC",
    "upgrade": "NULL_NA",
    "gnaf_pid": "GAVIC412545143"
   }
  },
  {
   "type": "Feature",
   "geometry": {
    "type": "Point",
    "coordinates": [
     145.18426475,
     -37.84701973
    ]
   },
   "properties": {
    "name": "UNIT 2, 293 HAWTHORN ROAD VERMONT SOUTH 3133",
    "locID": "LOC000085413848",
    "tech": "HFC",
    "upgrade": "NULL_NA",
    "gnaf_pid": "GAVIC412546515"
   }
  },
  {
   "type": "Feature",
   "geometry": {
    "type": "Point",
    "coordinates": [
     145.20044298,
     -37.85424013
    ]
   },
   "properties": {
    "name": "236 MORACK ROAD VERMONT SOUTH 3133",
    "locID": "LOC000169297330",
    "tech": "HFC",
    "upgrade": "NULL_NA",
    "gnaf_pid": "GAVIC412546521"
   }
  },
  {
   "type": "Feature",
   "geometry": {
    "type": "Point",
    "coordinates": [
     145.188713,
     -37.856997
    ]
   },
   "properties": {
    "name": "UNIT 2, 559 BURWOOD HIGHWAY VERMONT SOUTH 3133",
    "locID": "LOC000003484099",
    "tech": "HFC",
    "upgrade": "NULL_NA",
    "gnaf_pid": "GAVIC412546801"
   }
  },
  {
   "type": "Feature",
   "geometry": {
    "type": "Point",
    "coordinates": [
     145.17336315,
     -37.85409778
    ]
   },
   "properties": {
    "name": "7B CONSORT AVENUE VERMONT SOUTH 3133",
    "locID": "LOC000075411362",
    "tech": "HFC",
    "upgrade": "NULL_NA",
    "gnaf_pid": "GAVIC412546803"
   }
  },
  {
   "type": "Feature",
   "geometry": {
    "type": "Point",
    "coordinates": [
     145.18792209,
     -37.85682345
    ]
   },
   "properties": {
    "name": "553 BURWOOD HIGHWAY VERMONT SOUTH 3133",
    "locID": "LOC000102336641",
    "tech": "HFC",
    "upgrade": "NULL_NA",
    "gnaf_pid": "GAVIC412547738"
   }
  },
  {
   "type": "Feature",
   "geometry": {
    "type": "Point",
    "coordinates": [
     145.1976517,
     -37.84762177
    ]
   },
   "properties": {
    "name": "111 MORACK ROAD VERMONT SOUTH 3133",
    "locID": "LOC000094264904",
    "tech": "HFC",
    "upgrade": "NULL_NA",
    "gnaf_pid": "GAVIC412550323"
   }
  },
  {
   "type": "Feature",
   "geometry": {
    "type": "Point",
    "coordinates": [
     145.1821155,
     -37.857414
    ]
   },
   "properties": {
    "name": "19 CITRUS STREET VERMONT SOUTH 3133",
    "locID": "ChIJdUIkmeI-1moR1IK6Rk0AtLU",
    "tech": "HFC",
    "upgrade": "UNKNOWN",
    "gnaf_pid": "GAVIC413444152"
   }
  },
  {
   "type": "Feature",
   "geometry": {
    "type": "Point",
    "coordinates": [
     145.197765,
     -37.858113
    ]
   },
   "properties": {
    "name": "272A MORACK ROAD VERMONT SOUTH 3133",
    "locID": "ChIJKa-HZ-k-1moRusl6Jt3QjIM",
    "tech": "HFC",
    "upgrade": "UNKNOWN",
    "gnaf_pid": "GAVIC413449102"
   }
  },
  {
   "type": "Feature",
   "geometry": {
    "type": "Point",
    "coordinates": [
     145.197765,
     -37.858113
    ]
   },
   "properties": {
    "name": "272B MORACK ROAD VERMONT SOUTH 3133",
    "locID": "ChIJ2zVxXek-1moRlo0JSOr9pVM",
    "tech": "HFC",
    "upgrade": "UNKNOWN",
    "gnaf_pid": "GAVIC413458489"
   }
  },
  {
   "type": "Feature",
   "geometry": {
    "type": "Point",
    "coordinates": [
     145.177799,
     -37.859114
    ]
   },
   "properties": {
    "name": "41-51 WEEDEN DRIVE VERMONT SOUTH 3133",
    "locID": "LOC000107571168",
    "tech": "HFC",
    "upgrade": "NULL_NA",
    "gnaf_pid": "GAVIC413462477"
   }
  },
  {
   "type": "Feature",
   "geometry": {
    "type": "Point",
    "coordinates": [
     145.17020529,
     -37.85206211
    ]
   },
   "properties": {
    "name": "547 SPRINGVALE ROAD VERMONT SOUTH 3133",
    "locID": "LOC000100894191",
    "tech": "HFC",
    "upgrade": "NULL_NA",
    "gnaf_pid": "GAVIC413470756"
   }
  },
  {
   "type": "Feature",
   "geometry": {
    "type": "Point",
    "coordinates": [
     145.197765,
     -37.858113
    ]
   },
   "properties": {
    "name": "272C MORACK ROAD VERMONT SOUTH 3133",
    "locID": "ChIJ2zVxXek-1moRrugAQy_NAUI",
    "tech": "HFC",
    "upgrade": "UNKNOWN",
    "gnaf_pid": "GAVIC413472034"
   }
  },
  {
   "type": "Feature",
   "geometry": {
    "type": "Point",
    "coordinates": [
     145.18227723,
     -37.85533176
    ]
   },
   "properties": {
    "name": "SHOP 12, 495 BURWOOD HIGHWAY VERMONT SOUTH 3133",
    "locID": "LOC000183120685",
    "tech": "FTTP",
    "upgrade": "FTTB_CT",
    "gnaf_pid": "GAVIC413473806"
   }
  },
  {
   "type": "Feature",
   "geometry": {
    "type": "Point",
    "coordinates": [
     145.18227723,
     -37.85533176
    ]
   },
   "properties": {
    "name": "SHOP 14, 495 BURWOOD HIGHWAY VERMONT SOUTH 3133",
    "locID": "LOC000183120685",
    "tech": "FTTP",
    "upgrade": "FTTB_CT",
    "gnaf_pid": "GAVIC413473808"
   }
  },
  {
   "type": "Feature",
   "geometry": {
    "type": "Point",
    "coordinates": [
     145.18021916,
     -37.85555623
    ]
   },
   "properties": {
    "name": "475 BURWOOD HIGHWAY VERMONT SOUTH 3133",
    "locID": "LOC000070090206",
    "tech": "HFC",
    "upgrade": "NULL_NA",
    "gnaf_pid": "GAVIC413473809"
   }
  },
  {
   "type": "Feature",
   "geometry": {
    "type": "Point",
    "coordinates": [
     145.18227723,
     -37.85533176
    ]
   },
   "properties": {
    "name": "SHOP 18, 495 BURWOOD HIGHWAY VERMONT SOUTH 3133",
    "locID": "LOC000183120685",
    "tech": "FTTP",
    "upgrade": "FTTB_CT",
    "gnaf_pid": "GAVIC413473823"
   }
  },
  {
   "type": "Feature",
   "geometry": {
    "type": "Point",
    "coordinates": [
     145.18227723,
     -37.85533176
    ]
   },
   "properties": {
    "name": "SHOP 19, 495 BURWOOD HIGHWAY VERMONT SOUTH 3133",
    "locID": "LOC000183120685",
    "tech": "FTTP",
    "upgrade": "FTTB_CT",
    "gnaf_pid": "GAVIC413473824"
   }
  },
  {
   "type": "Feature",
   "geometry": {
    "type": "Point",
    "coordinates": [
     145.18227723,
     -37.85533176
    ]
   },
   "properties": {
    "name": "SHOP 20, 495 BURWOOD HIGHWAY VERMONT SOUTH 3133",
    "locID": "LOC000183120685",
    "tech": "FTTP",
    "upgrade": "FTTB_CT",
    "gnaf_pid": "GAVIC413473825"
   }
  },
  {
   "type": "Feature",
   "geometry": {
    "type": "Point",
    "coordinates": [
     145.18227723,
     -37.85533176
    ]
   },
   "properties": {
    "name": "SHOP 23, 495 BURWOOD HIGHWAY VERMONT SOUTH 3133",
    "locID": "LOC000183120685",
    "tech": "FTTP",
    "upgrade": "FTTB_CT",
    "gnaf_pid": "GAVIC413473826"
   }
  },
  {
   "type": "Feature",
   "geometry": {
    "type": "Point",
    "coordinates": [
     145.17502191,
     -37.85049181
    ]
   },
   "properties": {
    "name": "10 SCARBOROUGH ROAD VERMONT SOUTH 3133",
    "locID": "LOC000066573596",
    "tech": "HFC",
    "upgrade": "NULL_NA",
    "gnaf_pid": "GAVIC413475335"
   }
  },
  {
   "type": "Feature",
   "geometry": {
    "type": "Point",
    "coordinates": [
     145.19911428,
     -37.84657011
    ]
   },
   "properties": {
    "name": "83 MORACK ROAD VERMONT SOUTH 3133",
    "locID": "ChIJaZf4PcY-1moRZmvy3KcBJwE",
    "tech": "HFC",
    "upgrade": "UNKNOWN",
    "gnaf_pid": "GAVIC413476523"
   }
  },
  {
   "type": "Feature",
   "geometry": {
    "type": "Point",
    "coordinates": [
     145.20118372,
     -37.85415409
    ]
   },
   "properties": {
    "name": "337 MORACK ROAD VERMONT SOUTH 3133",
    "locID": "LOC000101540773",
    "tech": "HFC",
    "upgrade": "NULL_NA",
    "gnaf_pid": "GAVIC413476582"
   }
  },
  {
   "type": "Feature",
   "geometry": {
    "type": "Point",
    "coordinates": [
     145.18321156,
     -37.8559497
    ]
   },
   "properties": {
    "name": "511A BURWOOD HIGHWAY VERMONT SOUTH 3133",
    "locID": "ChIJYcH0QuI-1moRb4JqP9hrAsE",
    "tech": "HFC",
    "upgrade": "UNKNOWN",
    "gnaf_pid": "GAVIC413478337"
   }
  },
  {
   "type": "Feature",
   "geometry": {
    "type": "Point",
    "coordinates": [
     145.18066945,
     -37.85576293
    ]
   },
   "properties": {
    "name": "SHOP 10, 477-479 BURWOOD HIGHWAY VERMONT SOUTH 3133",
    "locID": "LOC000087613653",
    "tech": "HFC",
    "upgrade": "NULL_NA",
    "gnaf_pid": "GAVIC413478341"
   }
  },
  {
   "type": "Feature",
   "geometry": {
    "type": "Point",
    "coordinates": [
     145.1804976,
     -37.85574133
    ]
   },
   "properties": {
    "name": "SHOP 7, 477-479 BURWOOD HIGHWAY VERMONT SOUTH 3133",
    "locID": "LOC000087613653",
    "tech": "HFC",
    "upgrade": "NULL_NA",
    "gnaf_pid": "GAVIC413483543"
   }
  },
  {
   "type": "Feature",
   "geometry": {
    "type": "Point",
    "coordinates": [
     145.1805542,
     -37.85574844
    ]
   },
   "properties": {
    "name": "SHOP 8, 477-479 BURWOOD HIGHWAY VERMONT SOUTH 3133",
    "locID": "LOC000087613653",
    "tech": "HFC",
    "upgrade": "NULL_NA",
    "gnaf_pid": "GAVIC413483544"
   }
  },
  {
   "type": "Feature",
   "geometry": {
    "type": "Point",
    "coordinates": [
     145.1806072,
     -37.8557551
    ]
   },
   "properties": {
    "name": "SHOP 9, 477-479 BURWOOD HIGHWAY VERMONT SOUTH 3133",
    "locID": "LOC000087613653",
    "tech": "HFC",
    "upgrade": "NULL_NA",
    "gnaf_pid": "GAVIC413483545"
   }
  },
  {
   "type": "Feature",
   "geometry": {
    "type": "Point",
    "coordinates": [
     145.18298451,
     -37.85618495
    ]
   },
   "properties": {
    "name": "495 BURWOOD HIGHWAY VERMONT SOUTH 3133",
    "locID": "LOC000183120685",
    "tech": "FTTP",
    "upgrade": "FTTB_CT",
    "gnaf_pid": "GAVIC413483548"
   }
  },
  {
   "type": "Feature",
   "geometry": {
    "type": "Point",
    "coordinates": [
     145.18315805,
     -37.85620941
    ]
   },
   "properties": {
    "name": "497 BURWOOD HIGHWAY VERMONT SOUTH 3133",
    "locID": "ChIJ83J4XeI-1moRyj9ywErA744",
    "tech": "HFC",
    "upgrade": "UNKNOWN",
    "gnaf_pid": "GAVIC413483554"
   }
  },
  {
   "type": "Feature",
   "geometry": {
    "type": "Point",
    "coordinates": [
     145.1833846,
     -37.85620669
    ]
   },
   "properties": {
    "name": "503 BURWOOD HIGHWAY VERMONT SOUTH 3133",
    "locID": "LOC000083074476",
    "tech": "HFC",
    "upgrade": "NULL_NA",
    "gnaf_pid": "GAVIC413483555"
   }
  },
  {
   "type": "Feature",
   "geometry": {
    "type": "Point",
    "coordinates": [
     145.18299193,
     -37.85473125
    ]
   },
   "properties": {
    "name": "SHOP 41A, 495 BURWOOD HIGHWAY VERMONT SOUTH 3133",
    "locID": "LOC000183120685",
    "tech": "FTTP",
    "upgrade": "FTTB_CT",
    "gnaf_pid": "GAVIC413483581"
   }
  },
  {
   "type": "Feature",
   "geometry": {
    "type": "Point",
    "coordinates": [
     145.18227723,
     -37.85533176
    ]
   },
   "properties": {
    "name": "SHOP 42, 495 BURWOOD HIGHWAY VERMONT SOUTH 3133",
    "locID": "LOC000182798224",
    "tech": "FTTB",
    "upgrade": "NULL_NA",
    "gnaf_pid": "GAVIC413483582"
   }
  },
  {
   "type": "Feature",
   "geometry": {
    "type": "Point",
    "coordinates": [
     145.18325921,
     -37.85598156
    ]
   },
   "properties": {
    "name": "511 BURWOOD HIGHWAY VERMONT SOUTH 3133",
    "locID": "LOC000081568152",
    "tech": "HFC",
    "upgrade": "NULL_NA",
    "gnaf_pid": "GAVIC413483595"
   }
  },
  {
   "type": "Feature",
   "geometry": {
    "type": "Point",
    "coordinates": [
     145.18038775,
     -37.85428175
    ]
   },
   "properties": {
    "name": "1 KAROBRAN DRIVE VERMONT SOUTH 3133",
    "locID": "LOC000024367328",
    "tech": "HFC",
    "upgrade": "NULL_NA",
    "gnaf_pid": "GAVIC413483783"
   }
  },
  {
   "type": "Feature",
   "geometry": {
    "type": "Point",
    "coordinates": [
     145.18056992,
     -37.85451201
    ]
   },
   "properties": {
    "name": "3 PAVEY PLACE VERMONT SOUTH 3133",
    "locID": "LOC000098508221",
    "tech": "HFC",
    "upgrade": "NULL_NA",
    "gnaf_pid": "GAVIC413483784"
   }
  },
  {
   "type": "Feature",
   "geometry": {
    "type": "Point",
    "coordinates": [
     145.18056992,
     -37.85451201
    ]
   },
   "properties": {
    "name": "5 PAVEY PLACE VERMONT SOUTH 3133",
    "locID": "ChIJ61cF6x0_1moR55cD6nNIdPM",
    "tech": "HFC",
    "upgrade": "UNKNOWN",
    "gnaf_pid": "GAVIC413483785"
   }
  },
  {
   "type": "Feature",
   "geometry": {
    "type": "Point",
    "coordinates": [
     145.18606479,
     -37.85246859
    ]
   },
   "properties": {
    "name": "31 WILPENA PLACE VERMONT SOUTH 3133",
    "locID": "LOC000033641964",
    "tech": "HFC",
    "upgrade": "NULL_NA",
    "gnaf_pid": "GAVIC413486491"
   }
  },
  {
   "type": "Feature",
   "geometry": {
    "type": "Point",
    "coordinates": [
     145.18021916,
     -37.85555623
    ]
   },
   "properties": {
    "name": "SHOP 2, 473 BURWOOD HIGHWAY VERMONT SOUTH 3133",
    "locID": "ChIJuz9fCh0_1moRsyBr8V_cmnY",
    "tech": "HFC",
    "upgrade": "UNKNOWN",
    "gnaf_pid": "GAVIC413492454"
   }
  },
  {
   "type": "Feature",
   "geometry": {
    "type": "Point",
    "coordinates": [
     145.18319673,
     -37.8561799
    ]
   },
   "properties": {
    "name": "499 BURWOOD HIGHWAY VERMONT SOUTH 3133",
    "locID": "LOC000017806471",
    "tech": "HFC",
    "upgrade": "NULL_NA",
    "gnaf_pid": "GAVIC413492457"
   }
  },
  {
   "type": "Feature",
   "geometry": {
    "type": "Point",
    "coordinates": [
     145.18327879,
     -37.85619779
    ]
   },
   "properties": {
    "name": "501 BURWOOD HIGHWAY VERMONT SOUTH 3133",
    "locID": "ChIJ1yYcXeI-1moRh50oTbQotn4",
    "tech": "HFC",
    "upgrade": "UNKNOWN",
    "gnaf_pid": "GAVIC413492458"
   }
  },
  {
   "type": "Feature",
   "geometry": {
    "type": "Point",
    "coordinates": [
     145.18394075,
     -37.85588856
    ]
   },
   "properties": {
    "name": "1A HANOVER ROAD VERMONT SOUTH 3133",
    "locID": "LOC000043930045",
    "tech": "HFC",
    "upgrade": "NULL_NA",
    "gnaf_pid": "GAVIC413496968"
   }
  },
  {
   "type": "Feature",
   "geometry": {
    "type": "Point",
    "coordinates": [
     145.174422,
     -37.849746
    ]
   },
   "properties": {
    "name": "13 JUSTINA CLOSE VERMONT SOUTH 3133",
    "locID": "LOC000026081437",
    "tech": "HFC",
    "upgrade": "NULL_NA",
    "gnaf_pid": "GAVIC419549580"
   }
  },
  {
   "type": "Feature",
   "geometry": {
    "type": "Point",
    "coordinates": [
     145.176037,
     -37.85091
    ]
   },
   "properties": {
    "name": "40 STANLEY ROAD VERMONT SOUTH 3133",
    "locID": "LOC000107385460",
    "tech": "HFC",
    "upgrade": "NULL_NA",
    "gnaf_pid": "GAVIC419550196"
   }
  },
  {
   "type": "Feature",
   "geometry": {
    "type": "Point",
    "coordinates": [
     145.17611,
     -37.850507
    ]
   },
   "properties": {
    "name": "46 STANLEY ROAD VERMONT SOUTH 3133",
    "locID": "LOC000083526440",
    "tech": "HFC",
    "upgrade": "NULL_NA",
    "gnaf_pid": "GAVIC419550203"
   }
  },
  {
   "type": "Feature",
   "geometry": {
    "type": "Point",
    "coordinates": [
     145.176135,
     -37.85037
    ]
   },
   "properties": {
    "name": "48 STANLEY ROAD VERMONT SOUTH 3133",
    "locID": "LOC000048887485",
    "tech": "HFC",
    "upgrade": "NULL_NA",
    "gnaf_pid": "GAVIC419550363"
   }
  },
  {
   "type": "Feature",
   "geometry": {
    "type": "Point",
    "coordinates": [
     145.17419,
     -37.850865
    ]
   },
   "properties": {
    "name": "10 ADRIAN AVENUE VERMONT SOUTH 3133",
    "locID": "LOC000039993435",
    "tech": "HFC",
    "upgrade": "NULL_NA",
    "gnaf_pid": "GAVIC419550889"
   }
  },
  {
   "type": "Feature",
   "geometry": {
    "type": "Point",
    "coordinates": [
     145.17356,
     -37.850439
    ]
   },
   "properties": {
    "name": "1 ADRIAN AVENUE VERMONT SOUTH 3133",
    "locID": "LOC000104459717",
    "tech": "HFC",
    "upgrade": "NULL_NA",
    "gnaf_pid": "GAVIC419551737"
   }
  },
  {
   "type": "Feature",
   "geometry": {
    "type": "Point",
    "coordinates": [
     145.175988,
     -37.851177
    ]
   },
   "properties": {
    "name": "36 STANLEY ROAD VERMONT SOUTH 3133",
    "locID": "LOC000031931589",
    "tech": "HFC",
    "upgrade": "NULL_NA",
    "gnaf_pid": "GAVIC419552376"
   }
  },
  {
   "type": "Feature",
   "geometry": {
    "type": "Point",
    "coordinates": [
     145.173727,
     -37.850482
    ]
   },
   "properties": {
    "name": "3 ADRIAN AVENUE VERMONT SOUTH 3133",
    "locID": "LOC000097092721",
    "tech": "HFC",
    "upgrade": "NULL_NA",
    "gnaf_pid": "GAVIC419553366"
   }
  },
  {
   "type": "Feature",
   "geometry": {
    "type": "Point",
    "coordinates": [
     145.1753,
     -37.850809
    ]
   },
   "properties": {
    "name": "15 SCARBOROUGH ROAD VERMONT SOUTH 3133",
    "locID": "LOC000086272614",
    "tech": "HFC",
    "upgrade": "NULL_NA",
    "gnaf_pid": "GAVIC419553935"
   }
  },
  {
   "type": "Feature",
   "geometry": {
    "type": "Point",
    "coordinates": [
     145.175491,
     -37.85015
    ]
   },
   "properties": {
    "name": "5 SCARBOROUGH ROAD VERMONT SOUTH 3133",
    "locID": "LOC000054345942",
    "tech": "HFC",
    "upgrade": "NULL_NA",
    "gnaf_pid": "GAVIC419553991"
   }
  },
  {
   "type": "Feature",
   "geometry": {
    "type": "Point",
    "coordinates": [
     145.173375,
     -37.849947
    ]
   },
   "properties": {
    "name": "16 ELONARA ROAD VERMONT SOUTH 3133",
    "locID": "LOC000019343222",
    "tech": "HFC",
    "upgrade": "NULL_NA",
    "gnaf_pid": "GAVIC419555078"
   }
  },
  {
   "type": "Feature",
   "geometry": {
    "type": "Point",
    "coordinates": [
     145.182654,
     -37.857499
    ]
   },
   "properties": {
    "name": "4 HARTLAND ROAD VERMONT SOUTH 3133",
    "locID": "LOC000058463348",
    "tech": "HFC",
    "upgrade": "NULL_NA",
    "gnaf_pid": "GAVIC419565712"
   }
  },
  {
   "type": "Feature",
   "geometry": {
    "type": "Point",
    "coordinates": [
     145.183033,
     -37.857784
    ]
   },
   "properties": {
    "name": "7 HARTLAND ROAD VERMONT SOUTH 3133",
    "locID": "LOC000039269206",
    "tech": "HFC",
    "upgrade": "NULL_NA",
    "gnaf_pid": "GAVIC419565713"
   }
  },
  {
   "type": "Feature",
   "geometry": {
    "type": "Point",
    "coordinates": [
     145.192116,
     -37.855437
    ]
   },
   "properties": {
    "name": "13 BAROSSA AVENUE VERMONT SOUTH 3133",
    "locID": "LOC000045318326",
    "tech": "HFC",
    "upgrade": "NULL_NA",
    "gnaf_pid": "GAVIC419566366"
   }
  },
  {
   "type": "Feature",
   "geometry": {
    "type": "Point",
    "coordinates": [
     145.19255,
     -37.855813
    ]
   },
   "properties": {
    "name": "16 BAROSSA AVENUE VERMONT SOUTH 3133",
    "locID": "LOC000074011902",
    "tech": "HFC",
    "upgrade": "NULL_NA",
    "gnaf_pid": "GAVIC419566367"
   }
  },
  {
   "type": "Feature",
   "geometry": {
    "type": "Point",
    "coordinates": [
     145.195159,
     -37.856015
    ]
   },
   "properties": {
    "name": "32 BAROSSA AVENUE VERMONT SOUTH 3133",
    "locID": "LOC000037901211",
    "tech": "HFC",
    "upgrade": "NULL_NA",
    "gnaf_pid": "GAVIC419566368"
   }
  },
  {
   "type": "Feature",
   "geometry": {
    "type": "Point",
    "coordinates": [
     145.19461,
     -37.855673
    ]
   },
   "properties": {
    "name": "35 BAROSSA AVENUE VERMONT SOUTH 3133",
    "locID": "LOC000103648004",
    "tech": "HFC",
    "upgrade": "NULL_NA",
    "gnaf_pid": "GAVIC419566369"
   }
  },
  {
   "type": "Feature",
   "geometry": {
    "type": "Point",
    "coordinates": [
     145.195998,
     -37.856118
    ]
   },
   "properties": {
    "name": "44 BAROSSA AVENUE VERMONT SOUTH 3133",
    "locID": "LOC000039049136",
    "tech": "HFC",
    "upgrade": "NULL_NA",
    "gnaf_pid": "GAVIC419566370"
   }
  },
  {
   "type": "Feature",
   "geometry": {
    "type": "Point",
    "coordinates": [
     145.196439,
     -37.856188
    ]
   },
   "properties": {
    "name": "46 BAROSSA AVENUE VERMONT SOUTH 3133",
    "locID": "LOC000108897873",
    "tech": "HFC",
    "upgrade": "NULL_NA",
    "gnaf_pid": "GAVIC419566371"
   }
  },
  {
   "type": "Feature",
   "geometry": {
    "type": "Point",
    "coordinates": [
     145.195847,
     -37.855782
    ]
   },
   "properties": {
    "name": "47 BAROSSA AVENUE VERMONT SOUTH 3133",
    "locID": "LOC000034439108",
    "tech": "HFC",
    "upgrade": "NULL_NA",
    "gnaf_pid": "GAVIC419566372"
   }
  },
  {
   "type": "Feature",
   "geometry": {
    "type": "Point",
    "coordinates": [
     145.191277,
     -37.855325
    ]
   },
   "properties": {
    "name": "5 BAROSSA AVENUE VERMONT SOUTH 3133",
    "locID": "LOC000038797492",
    "tech": "HFC",
    "upgrade": "NULL_NA",
    "gnaf_pid": "GAVIC419566527"
   }
  },
  {
   "type": "Feature",
   "geometry": {
    "type": "Point",
    "coordinates": [
     145.177235,
     -37.850458
    ]
   },
   "properties": {
    "name": "8 ALPINE COURT VERMONT SOUTH 3133",
    "locID": "LOC000101863606",
    "tech": "HFC",
    "upgrade": "NULL_NA",
    "gnaf_pid": "GAVIC419566545"
   }
  },
  {
   "type": "Feature",
   "geometry": {
    "type": "Point",
    "coordinates": [
     145.18050638,
     -37.85677981
    ]
   },
   "properties": {
    "name": "1 CHARLNET DRIVE VERMONT SOUTH 3133",
    "locID": "LOC000179321199",
    "tech": "FTTP",
    "upgrade": "NULL_NA",
    "gnaf_pid": "GAVIC419566554"
   }
  },
  {
   "type": "Feature",
   "geometry": {
    "type": "Point",
    "coordinates": [
     145.195606,
     -37.851209
    ]
   },
   "properties": {
    "name": "9 GELEA CRESCENT VERMONT SOUTH 3133",
    "locID": "LOC000078361211",
    "tech": "HFC",
    "upgrade": "NULL_NA",
    "gnaf_pid": "GAVIC419566573"
   }
  },
  {
   "type": "Feature",
   "geometry": {
    "type": "Point",
    "coordinates": [
     145.195367,
     -37.85217
    ]
   },
   "properties": {
    "name": "23 GELEA CRESCENT VERMONT SOUTH 3133",
    "locID": "LOC000052285754",
    "tech": "HFC",
    "upgrade": "NULL_NA",
    "gnaf_pid": "GAVIC419566574"
   }
  },
  {
   "type": "Feature",
   "geometry": {
    "type": "Point",
    "coordinates": [
     145.195227,
     -37.84996
    ]
   },
   "properties": {
    "name": "5 GEORGE ROAD VERMONT SOUTH 3133",
    "locID": "LOC000021978760",
    "tech": "HFC",
    "upgrade": "NULL_NA",
    "gnaf_pid": "GAVIC419566575"
   }
  },
  {
   "type": "Feature",
   "geometry": {
    "type": "Point",
    "coordinates": [
     145.193303,
     -37.850561
    ]
   },
   "properties": {
    "name": "23-25 GEORGE ROAD VERMONT SOUTH 3133",
    "locID": "LOC000084994575",
    "tech": "HFC",
    "upgrade": "NULL_NA",
    "gnaf_pid": "GAVIC419566576"
   }
  },
  {
   "type": "Feature",
   "geometry": {
    "type": "Point",
    "coordinates": [
     145.191471,
     -37.852065
    ]
   },
   "properties": {
    "name": "24 GEORGE ROAD VERMONT SOUTH 3133",
    "locID": "LOC000066188167",
    "tech": "HFC",
    "upgrade": "NULL_NA",
    "gnaf_pid": "GAVIC419566577"
   }
  },
  {
   "type": "Feature",
   "geometry": {
    "type": "Point",
    "coordinates": [
     145.17382,
     -37.851603
    ]
   },
   "properties": {
    "name": "6 CLARINDA COURT VERMONT SOUTH 3133",
    "locID": "LOC000067845304",
    "tech": "HFC",
    "upgrade": "NULL_NA",
    "gnaf_pid": "GAVIC419566592"
   }
  },
  {
   "type": "Feature",
   "geometry": {
    "type": "Point",
    "coordinates": [
     145.173736,
     -37.851296
    ]
   },
   "properties": {
    "name": "7 CLARINDA COURT VERMONT SOUTH 3133",
    "locID": "LOC000025086922",
    "tech": "HFC",
    "upgrade": "NULL_NA",
    "gnaf_pid": "GAVIC419566593"
   }
  },
  {
   "type": "Feature",
   "geometry": {
    "type": "Point",
    "coordinates": [
     145.190303,
     -37.862618
    ]
   },
   "properties": {
    "name": "4 DONBIRN WAY VERMONT SOUTH 3133",
    "locID": "LOC000028811321",
    "tech": "HFC",
    "upgrade": "NULL_NA",
    "gnaf_pid": "GAVIC419566599"
   }
  },
  {
   "type": "Feature",
   "geometry": {
    "type": "Point",
    "coordinates": [
     145.19096,
     -37.86225
    ]
   },
   "properties": {
    "name": "9 DONBIRN WAY VERMONT SOUTH 3133",
    "locID": "LOC000100433125",
    "tech": "HFC",
    "upgrade": "NULL_NA",
    "gnaf_pid": "GAVIC419566600"
   }
  },
  {
   "type": "Feature",
   "geometry": {
    "type": "Point",
    "coordinates": [
     145.191685,
     -37.862369
    ]
   },
   "properties": {
    "name": "13 DONBIRN WAY VERMONT SOUTH 3133",
    "locID": "LOC000101668747",
    "tech": "HFC",
    "upgrade": "NULL_NA",
    "gnaf_pid": "GAVIC419566601"
   }
  },
  {
   "type": "Feature",
   "geometry": {
    "type": "Point",
    "coordinates": [
     145.190434,
     -37.863774
    ]
   },
   "properties": {
    "name": "26 DONBIRN WAY VERMONT SOUTH 3133",
    "locID": "LOC000041244442",
    "tech": "HFC",
    "upgrade": "NULL_NA",
    "gnaf_pid": "GAVIC419566602"
   }
  },
  {
   "type": "Feature",
   "geometry": {
    "type": "Point",
    "coordinates": [
     145.17821,
     -37.846841
    ]
   },
   "properties": {
    "name": "20 DORENE COURT VERMONT SOUTH 3133",
    "locID": "LOC000010243095",
    "tech": "HFC",
    "upgrade": "NULL_NA",
    "gnaf_pid": "GAVIC419566604"
   }
  },
  {
   "type": "Feature",
   "geometry": {
    "type": "Point",
    "coordinates": [
     145.177755,
     -37.853332
    ]
   },
   "properties": {
    "name": "4 JUDITH COURT VERMONT SOUTH 3133",
    "locID": "LOC000048618464",
    "tech": "HFC",
    "upgrade": "NULL_NA",
    "gnaf_pid": "GAVIC419566608"
   }
  },
  {
   "type": "Feature",
   "geometry": {
    "type": "Point",
    "coordinates": [
     145.194316,
     -37.853316
    ]
   },
   "properties": {
    "name": "8 MITCHELTON COURT VERMONT SOUTH 3133",
    "locID": "LOC000006100220",
    "tech": "HFC",
    "upgrade": "NULL_NA",
    "gnaf_pid": "GAVIC419566632"
   }
  },
  {
   "type": "Feature",
   "geometry": {
    "type": "Point",
    "coordinates": [
     145.195279,
     -37.852944
    ]
   },
   "properties": {
    "name": "15 MITCHELTON COURT VERMONT SOUTH 3133",
    "locID": "LOC000091400977",
    "tech": "HFC",
    "upgrade": "NULL_NA",
    "gnaf_pid": "GAVIC419566633"
   }
  },
  {
   "type": "Feature",
   "geometry": {
    "type": "Point",
    "coordinates": [
     145.187582,
     -37.856322
    ]
   },
   "properties": {
    "name": "2 HEMEL COURT VERMONT SOUTH 3133",
    "locID": "LOC000095296860",
    "tech": "HFC",
    "upgrade": "NULL_NA",
    "gnaf_pid": "GAVIC419566643"
   }
  },
  {
   "type": "Feature",
   "geometry": {
    "type": "Point",
    "coordinates": [
     145.188576,
     -37.855616
    ]
   },
   "properties": {
    "name": "9 HEMPSTEAD AVENUE VERMONT SOUTH 3133",
    "locID": "LOC000083330692",
    "tech": "HFC",
    "upgrade": "NULL_NA",
    "gnaf_pid": "GAVIC419566644"
   }
  },
  {
   "type": "Feature",
   "geometry": {
    "type": "Point",
    "coordinates": [
     145.176076,
     -37.857334
    ]
   },
   "properties": {
    "name": "3 PARKLEIGH COURT VERMONT SOUTH 3133",
    "locID": "LOC000044322919",
    "tech": "HFC",
    "upgrade": "NULL_NA",
    "gnaf_pid": "GAVIC419566671"
   }
  },
  {
   "type": "Feature",
   "geometry": {
    "type": "Point",
    "coordinates": [
     145.173561,
     -37.846886
    ]
   },
   "properties": {
    "name": "32 PRESTBURY DRIVE VERMONT SOUTH 3133",
    "locID": "LOC000073893276",
    "tech": "FTTN",
    "upgrade": "FTTP_SA",
    "gnaf_pid": "GAVIC419566685"
   }
  },
  {
   "type": "Feature",
   "geometry": {
    "type": "Point",
    "coordinates": [
     145.17307,
     -37.846536
    ]
   },
   "properties": {
    "name": "29 PRESTBURY DRIVE VERMONT SOUTH 3133",
    "locID": "LOC000050649164",
    "tech": "FTTN",
    "upgrade": "FTTP_SA",
    "gnaf_pid": "GAVIC419566686"
   }
  },
  {
   "type": "Feature",
   "geometry": {
    "type": "Point",
    "coordinates": [
     145.176196,
     -37.846945
    ]
   },
   "properties": {
    "name": "7 PRESTBURY DRIVE VERMONT SOUTH 3133",
    "locID": "LOC000091919865",
    "tech": "FTTN",
    "upgrade": "FTTP_SA",
    "gnaf_pid": "GAVIC419566687"
   }
  },
  {
   "type": "Feature",
   "geometry": {
    "type": "Point",
    "coordinates": [
     145.175782,
     -37.847173
    ]
   },
   "properties": {
    "name": "8 PRESTBURY DRIVE VERMONT SOUTH 3133",
    "locID": "LOC000008441200",
    "tech": "FTTN",
    "upgrade": "FTTP_SA",
    "gnaf_pid": "GAVIC419566688"
   }
  },
  {
   "type": "Feature",
   "geometry": {
    "type": "Point",
    "coordinates": [
     145.174841,
     -37.84705
    ]
   },
   "properties": {
    "name": "18 PRESTBURY DRIVE VERMONT SOUTH 3133",
    "locID": "LOC000050348194",
    "tech": "FTTN",
    "upgrade": "FTTP_SA",
    "gnaf_pid": "GAVIC419566689"
   }
  },
  {
   "type": "Feature",
   "geometry": {
    "type": "Point",
    "coordinates": [
     145.19245,
     -37.860813
    ]
   },
   "properties": {
    "name": "8 SEWART CLOSE VERMONT SOUTH 3133",
    "locID": "LOC000014355727",
    "tech": "HFC",
    "upgrade": "NULL_NA",
    "gnaf_pid": "GAVIC419566704"
   }
  },
  {
   "type": "Feature",
   "geometry": {
    "type": "Point",
    "coordinates": [
     145.192083,
     -37.86051
    ]
   },
   "properties": {
    "name": "9 SEWART CLOSE VERMONT SOUTH 3133",
    "locID": "LOC000054497323",
    "tech": "HFC",
    "upgrade": "NULL_NA",
    "gnaf_pid": "GAVIC419566705"
   }
  },
  {
   "type": "Feature",
   "geometry": {
    "type": "Point",
    "coordinates": [
     145.179844,
     -37.857573
    ]
   },
   "properties": {
    "name": "4 CHARLNET DRIVE VERMONT SOUTH 3133",
    "locID": "LOC000077167729",
    "tech": "HFC",
    "upgrade": "NULL_NA",
    "gnaf_pid": "GAVIC419566712"
   }
  },
  {
   "type": "Feature",
   "geometry": {
    "type": "Point",
    "coordinates": [
     145.18086,
     -37.862473
    ]
   },
   "properties": {
    "name": "17 TORWOOD DRIVE VERMONT SOUTH 3133",
    "locID": "LOC000029357444",
    "tech": "HFC",
    "upgrade": "NULL_NA",
    "gnaf_pid": "GAVIC419566728"
   }
  },
  {
   "type": "Feature",
   "geometry": {
    "type": "Point",
    "coordinates": [
     145.180626,
     -37.857224
    ]
   },
   "properties": {
    "name": "3 CITRUS STREET VERMONT SOUTH 3133",
    "locID": "LOC000065577691",
    "tech": "HFC",
    "upgrade": "NULL_NA",
    "gnaf_pid": "GAVIC419569987"
   }
  },
  {
   "type": "Feature",
   "geometry": {
    "type": "Point",
    "coordinates": [
     145.18194,
     -37.857389
    ]
   },
   "properties": {
    "name": "17 CITRUS STREET VERMONT SOUTH 3133",
    "locID": "LOC000056535167",
    "tech": "HFC",
    "upgrade": "NULL_NA",
    "gnaf_pid": "GAVIC419569988"
   }
  },
  {
   "type": "Feature",
   "geometry": {
    "type": "Point",
    "coordinates": [
     145.181888,
     -37.857667
    ]
   },
   "properties": {
    "name": "18 CITRUS STREET VERMONT SOUTH 3133",
    "locID": "LOC000044554129",
    "tech": "HFC",
    "upgrade": "NULL_NA",
    "gnaf_pid": "GAVIC419569989"
   }
  },
  {
   "type": "Feature",
   "geometry": {
    "type": "Point",
    "coordinates": [
     145.170821,
     -37.851079
    ]
   },
   "properties": {
    "name": "1 MULLENS ROAD VERMONT SOUTH 3133",
    "locID": "LOC000033630293",
    "tech": "HFC",
    "upgrade": "NULL_NA",
    "gnaf_pid": "GAVIC419570832"
   }
  },
  {
   "type": "Feature",
   "geometry": {
    "type": "Point",
    "coordinates": [
     145.171147,
     -37.851192
    ]
   },
   "properties": {
    "name": "5 MULLENS ROAD VERMONT SOUTH 3133",
    "locID": "LOC000017676710",
    "tech": "HFC",
    "upgrade": "NULL_NA",
    "gnaf_pid": "GAVIC419570833"
   }
  },
  {
   "type": "Feature",
   "geometry": {
    "type": "Point",
    "coordinates": [
     145.171595,
     -37.85147
    ]
   },
   "properties": {
    "name": "11 MULLENS ROAD VERMONT SOUTH 3133",
    "locID": "LOC000030956723",
    "tech": "HFC",
    "upgrade": "NULL_NA",
    "gnaf_pid": "GAVIC419570834"
   }
  },
  {
   "type": "Feature",
   "geometry": {
    "type": "Point",
    "coordinates": [
     145.171843,
     -37.852032
    ]
   },
   "properties": {
    "name": "12 MULLENS ROAD VERMONT SOUTH 3133",
    "locID": "LOC000042582203",
    "tech": "HFC",
    "upgrade": "NULL_NA",
    "gnaf_pid": "GAVIC419570835"
   }
  },
  {
   "type": "Feature",
   "geometry": {
    "type": "Point",
    "coordinates": [
     145.174929,
     -37.852233
    ]
   },
   "properties": {
    "name": "37 MULLENS ROAD VERMONT SOUTH 3133",
    "locID": "LOC000039031640",
    "tech": "HFC",
    "upgrade": "NULL_NA",
    "gnaf_pid": "GAVIC419570836"
   }
  },
  {
   "type": "Feature",
   "geometry": {
    "type": "Point",
    "coordinates": [
     145.176983,
     -37.852824
    ]
   },
   "properties": {
    "name": "56 MULLENS ROAD VERMONT SOUTH 3133",
    "locID": "LOC000058053127",
    "tech": "HFC",
    "upgrade": "NULL_NA",
    "gnaf_pid": "GAVIC419570837"
   }
  },
  {
   "type": "Feature",
   "geometry": {
    "type": "Point",
    "coordinates": [
     145.17772,
     -37.852916
    ]
   },
   "properties": {
    "name": "64 MULLENS ROAD VERMONT SOUTH 3133",
    "locID": "LOC000021043467",
    "tech": "HFC",
    "upgrade": "NULL_NA",
    "gnaf_pid": "GAVIC419570838"
   }
  },
  {
   "type": "Feature",
   "geometry": {
    "type": "Point",
    "coordinates": [
     145.178683,
     -37.853022
    ]
   },
   "properties": {
    "name": "74 MULLENS ROAD VERMONT SOUTH 3133",
    "locID": "LOC000026066446",
    "tech": "HFC",
    "upgrade": "NULL_NA",
    "gnaf_pid": "GAVIC419570839"
   }
  },
  {
   "type": "Feature",
   "geometry": {
    "type": "Point",
    "coordinates": [
     145.179964,
     -37.853185
    ]
   },
   "properties": {
    "name": "84 MULLENS ROAD VERMONT SOUTH 3133",
    "locID": "LOC000020275262",
    "tech": "HFC",
    "upgrade": "NULL_NA",
    "gnaf_pid": "GAVIC419570840"
   }
  },
  {
   "type": "Feature",
   "geometry": {
    "type": "Point",
    "coordinates": [
     145.188156,
     -37.860711
    ]
   },
   "properties": {
    "name": "2 MUSTER COURT VERMONT SOUTH 3133",
    "locID": "LOC000079640843",
    "tech": "HFC",
    "upgrade": "NULL_NA",
    "gnaf_pid": "GAVIC419570845"
   }
  },
  {
   "type": "Feature",
   "geometry": {
    "type": "Point",
    "coordinates": [
     145.188268,
     -37.859847
    ]
   },
   "properties": {
    "name": "11 MUSTER COURT VERMONT SOUTH 3133",
    "locID": "LOC000033456521",
    "tech": "HFC",
    "upgrade": "NULL_NA",
    "gnaf_pid": "GAVIC419570846"
   }
  },
  {
   "type": "Feature",
   "geometry": {
    "type": "Point",
    "coordinates": [
     145.185083,
     -37.853454
    ]
   },
   "properties": {
    "name": "4 MYRIONG AVENUE VERMONT SOUTH 3133",
    "locID": "LOC000086543360",
    "tech": "HFC",
    "upgrade": "NULL_NA",
    "gnaf_pid": "GAVIC419570883"
   }
  },
  {
   "type": "Feature",
   "geometry": {
    "type": "Point",
    "coordinates": [
     145.187235,
     -37.852847
    ]
   },
   "properties": {
    "name": "25 MYRIONG AVENUE VERMONT SOUTH 3133",
    "locID": "LOC000029208799",
    "tech": "HFC",
    "upgrade": "NULL_NA",
    "gnaf_pid": "GAVIC419570884"
   }
  },
  {
   "type": "Feature",
   "geometry": {
    "type": "Point",
    "coordinates": [
     145.18381873,
     -37.84697425
    ]
   },
   "properties": {
    "name": "2 NAIRANA COURT VERMONT SOUTH 3133",
    "locID": "LOC000052359644",
    "tech": "HFC",
    "upgrade": "NULL_NA",
    "gnaf_pid": "GAVIC419571736"
   }
  },
  {
   "type": "Feature",
   "geometry": {
    "type": "Point",
    "coordinates": [
     145.179446,
     -37.853448
    ]
   },
   "properties": {
    "name": "27 BEACON STREET VERMONT SOUTH 3133",
    "locID": "LOC000092149798",
    "tech": "HFC",
    "upgrade": "NULL_NA",
    "gnaf_pid": "GAVIC419571761"
   }
  },
  {
   "type": "Feature",
   "geometry": {
    "type": "Point",
    "coordinates": [
     145.195864,
     -37.846671
    ]
   },
   "properties": {
    "name": "6A CANOWINDRA CLOSE VERMONT SOUTH 3133",
    "locID": "ChIJoxCLq8U-1moRtJ1kNl7ysKM",
    "tech": "HFC",
    "upgrade": "UNKNOWN",
    "gnaf_pid": "GAVIC419572824"
   }
  },
  {
   "type": "Feature",
   "geometry": {
    "type": "Point",
    "coordinates": [
     145.172319,
     -37.850237
    ]
   },
   "properties": {
    "name": "4 CANTALA COURT VERMONT SOUTH 3133",
    "locID": "LOC000009313230",
    "tech": "HFC",
    "upgrade": "NULL_NA",
    "gnaf_pid": "GAVIC419572825"
   }
  },
  {
   "type": "Feature",
   "geometry": {
    "type": "Point",
    "coordinates": [
     145.19703391,
     -37.84761296
    ]
   },
   "properties": {
    "name": "115 MORACK ROAD VERMONT SOUTH 3133",
    "locID": "LOC000048723918",
    "tech": "HFC",
    "upgrade": "NULL_NA",
    "gnaf_pid": "GAVIC419573556"
   }
  },
  {
   "type": "Feature",
   "geometry": {
    "type": "Point",
    "coordinates": [
     145.196766,
     -37.848839
    ]
   },
   "properties": {
    "name": "127 MORACK ROAD VERMONT SOUTH 3133",
    "locID": "LOC000028017436",
    "tech": "HFC",
    "upgrade": "NULL_NA",
    "gnaf_pid": "GAVIC419573557"
   }
  },
  {
   "type": "Feature",
   "geometry": {
    "type": "Point",
    "coordinates": [
     145.171996,
     -37.855937
    ]
   },
   "properties": {
    "name": "5 COPPABELLA WAY VERMONT SOUTH 3133",
    "locID": "LOC000102278184",
    "tech": "HFC",
    "upgrade": "NULL_NA",
    "gnaf_pid": "GAVIC419573677"
   }
  },
  {
   "type": "Feature",
   "geometry": {
    "type": "Point",
    "coordinates": [
     145.172693,
     -37.859931
    ]
   },
   "properties": {
    "name": "4 CORAL COURT VERMONT SOUTH 3133",
    "locID": "LOC000107828239",
    "tech": "HFC",
    "upgrade": "NULL_NA",
    "gnaf_pid": "GAVIC419573680"
   }
  },
  {
   "type": "Feature",
   "geometry": {
    "type": "Point",
    "coordinates": [
     145.185979,
     -37.855865
    ]
   },
   "properties": {
    "name": "35 CORNUTA WALK VERMONT SOUTH 3133",
    "locID": "LOC000080629072",
    "tech": "HFC",
    "upgrade": "NULL_NA",
    "gnaf_pid": "GAVIC419573691"
   }
  },
  {
   "type": "Feature",
   "geometry": {
    "type": "Point",
    "coordinates": [
     145.184221,
     -37.863092
    ]
   },
   "properties": {
    "name": "12 BALLINA TERRACE VERMONT SOUTH 3133",
    "locID": "LOC000036193930",
    "tech": "HFC",
    "upgrade": "NULL_NA",
    "gnaf_pid": "GAVIC419573703"
   }
  },
  {
   "type": "Feature",
   "geometry": {
    "type": "Point",
    "coordinates": [
     145.1976,
     -37.851952
    ]
   },
   "properties": {
    "name": "14 RUTHERGLEN ROAD VERMONT SOUTH 3133",
    "locID": "LOC000053022767",
    "tech": "HFC",
    "upgrade": "NULL_NA",
    "gnaf_pid": "GAVIC419573765"
   }
  },
  {
   "type": "Feature",
   "geometry": {
    "type": "Point",
    "coordinates": [
     145.19786,
     -37.852443
    ]
   },
   "properties": {
    "name": "15 RUTHERGLEN ROAD VERMONT SOUTH 3133",
    "locID": "LOC000031981801",
    "tech": "HFC",
    "upgrade": "NULL_NA",
    "gnaf_pid": "GAVIC419573766"
   }
  },
  {
   "type": "Feature",
   "geometry": {
    "type": "Point",
    "coordinates": [
     145.184666,
     -37.861198
    ]
   },
   "properties": {
    "name": "9 RYRIE PLACE VERMONT SOUTH 3133",
    "locID": "LOC000021905450",
    "tech": "HFC",
    "upgrade": "NULL_NA",
    "gnaf_pid": "GAVIC419573771"
   }
  },
  {
   "type": "Feature",
   "geometry": {
    "type": "Point",
    "coordinates": [
     145.184714,
     -37.861541
    ]
   },
   "properties": {
    "name": "18 RYRIE PLACE VERMONT SOUTH 3133",
    "locID": "LOC000051743310",
    "tech": "HFC",
    "upgrade": "NULL_NA",
    "gnaf_pid": "GAVIC419574453"
   }
  },
  {
   "type": "Feature",
   "geometry": {
    "type": "Point",
    "coordinates": [
     145.173073,
     -37.8496
    ]
   },
   "properties": {
    "name": "11 ELONARA ROAD VERMONT SOUTH 3133",
    "locID": "LOC000083236938",
    "tech": "HFC",
    "upgrade": "NULL_NA",
    "gnaf_pid": "GAVIC419576411"
   }
  },
  {
   "type": "Feature",
   "geometry": {
    "type": "Point",
    "coordinates": [
     145.17301,
     -37.849888
    ]
   },
   "properties": {
    "name": "12 ELONARA ROAD VERMONT SOUTH 3133",
    "locID": "LOC000051654092",
    "tech": "HFC",
    "upgrade": "NULL_NA",
    "gnaf_pid": "GAVIC419576412"
   }
  },
  {
   "type": "Feature",
   "geometry": {
    "type": "Point",
    "coordinates": [
     145.181539,
     -37.858473
    ]
   },
   "properties": {
    "name": "4 ENSAY COURT VERMONT SOUTH 3133",
    "locID": "LOC000093173346",
    "tech": "HFC",
    "upgrade": "NULL_NA",
    "gnaf_pid": "GAVIC419576414"
   }
  },
  {
   "type": "Feature",
   "geometry": {
    "type": "Point",
    "coordinates": [
     145.17222,
     -37.852858
    ]
   },
   "properties": {
    "name": "16 ADLEY COURT VERMONT SOUTH 3133",
    "locID": "LOC000025356587",
    "tech": "HFC",
    "upgrade": "NULL_NA",
    "gnaf_pid": "GAVIC419577276"
   }
  },
  {
   "type": "Feature",
   "geometry": {
    "type": "Point",
    "coordinates": [
     145.191628,
     -37.861909
    ]
   },
   "properties": {
    "name": "4 AKRANA COURT VERMONT SOUTH 3133",
    "locID": "LOC000011044040",
    "tech": "HFC",
    "upgrade": "NULL_NA",
    "gnaf_pid": "GAVIC419577283"
   }
  },
  {
   "type": "Feature",
   "geometry": {
    "type": "Point",
    "coordinates": [
     145.171335,
     -37.8496
    ]
   },
   "properties": {
    "name": "8 CASCADE DRIVE VERMONT SOUTH 3133",
    "locID": "LOC000094255813",
    "tech": "HFC",
    "upgrade": "NULL_NA",
    "gnaf_pid": "GAVIC419577288"
   }
  },
  {
   "type": "Feature",
   "geometry": {
    "type": "Point",
    "coordinates": [
     145.186225,
     -37.86206
    ]
   },
   "properties": {
    "name": "5 LINDAU DRIVE VERMONT SOUTH 3133",
    "locID": "LOC000012015000",
    "tech": "HFC",
    "upgrade": "NULL_NA",
    "gnaf_pid": "GAVIC419577308"
   }
  },
  {
   "type": "Feature",
   "geometry": {
    "type": "Point",
    "coordinates": [
     145.18635375,
     -37.86237768
    ]
   },
   "properties": {
    "name": "8 LINDAU DRIVE VERMONT SOUTH 3133",
    "locID": "LOC000073613562",
    "tech": "HFC",
    "upgrade": "NULL_NA",
    "gnaf_pid": "GAVIC419577309"
   }
  },
  {
   "type": "Feature",
   "geometry": {
    "type": "Point",
    "coordinates": [
     145.187852,
     -37.863392
    ]
   },
   "properties": {
    "name": "20 LINDAU DRIVE VERMONT SOUTH 3133",
    "locID": "LOC000061998556",
    "tech": "HFC",
    "upgrade": "NULL_NA",
    "gnaf_pid": "GAVIC419577310"
   }
  },
  {
   "type": "Feature",
   "geometry": {
    "type": "Point",
    "coordinates": [
     145.178357,
     -37.85426
    ]
   },
   "properties": {
    "name": "5 SUSAN COURT VERMONT SOUTH 3133",
    "locID": "LOC000035611079",
    "tech": "HFC",
    "upgrade": "NULL_NA",
    "gnaf_pid": "GAVIC419577341"
   }
  },
  {
   "type": "Feature",
   "geometry": {
    "type": "Point",
    "coordinates": [
     145.176404,
     -37.849129
    ]
   },
   "properties": {
    "name": "229 HAWTHORN ROAD VERMONT SOUTH 3133",
    "locID": "LOC000041204840",
    "tech": "HFC",
    "upgrade": "NULL_NA",
    "gnaf_pid": "GAVIC419577365"
   }
  },
  {
   "type": "Feature",
   "geometry": {
    "type": "Point",
    "coordinates": [
     145.177299,
     -37.849233
    ]
   },
   "properties": {
    "name": "235 HAWTHORN ROAD VERMONT SOUTH 3133",
    "locID": "LOC000033556737",
    "tech": "HFC",
    "upgrade": "NULL_NA",
    "gnaf_pid": "GAVIC419577366"
   }
  },
  {
   "type": "Feature",
   "geometry": {
    "type": "Point",
    "coordinates": [
     145.178999,
     -37.848971
    ]
   },
   "properties": {
    "name": "249 HAWTHORN ROAD VERMONT SOUTH 3133",
    "locID": "LOC000012851106",
    "tech": "HFC",
    "upgrade": "NULL_NA",
    "gnaf_pid": "GAVIC419577367"
   }
  },
  {
   "type": "Feature",
   "geometry": {
    "type": "Point",
    "coordinates": [
     145.182418,
     -37.848141
    ]
   },
   "properties": {
    "name": "258 HAWTHORN ROAD VERMONT SOUTH 3133",
    "locID": "LOC000004243642",
    "tech": "HFC",
    "upgrade": "NULL_NA",
    "gnaf_pid": "GAVIC419577368"
   }
  },
  {
   "type": "Feature",
   "geometry": {
    "type": "Point",
    "coordinates": [
     145.182842,
     -37.848003
    ]
   },
   "properties": {
    "name": "262 HAWTHORN ROAD VERMONT SOUTH 3133",
    "locID": "LOC000002051339",
    "tech": "HFC",
    "upgrade": "NULL_NA",
    "gnaf_pid": "GAVIC419577369"
   }
  },
  {
   "type": "Feature",
   "geometry": {
    "type": "Point",
    "coordinates": [
     145.183644,
     -37.847736
    ]
   },
   "properties": {
    "name": "270 HAWTHORN ROAD VERMONT SOUTH 3133",
    "locID": "LOC000083277468",
    "tech": "HFC",
    "upgrade": "NULL_NA",
    "gnaf_pid": "GAVIC419577370"
   }
  },
  {
   "type": "Feature",
   "geometry": {
    "type": "Point",
    "coordinates": [
     145.181578,
     -37.848074
    ]
   },
   "properties": {
    "name": "271 HAWTHORN ROAD VERMONT SOUTH 3133",
    "locID": "LOC000036008443",
    "tech": "HFC",
    "upgrade": "NULL_NA",
    "gnaf_pid": "GAVIC419577371"
   }
  },
  {
   "type": "Feature",
   "geometry": {
    "type": "Point",
    "coordinates": [
     145.185946,
     -37.847474
    ]
   },
   "properties": {
    "name": "284 HAWTHORN ROAD VERMONT SOUTH 3133",
    "locID": "LOC000056892950",
    "tech": "HFC",
    "upgrade": "NULL_NA",
    "gnaf_pid": "GAVIC419577372"
   }
  },
  {
   "type": "Feature",
   "geometry": {
    "type": "Point",
    "coordinates": [
     145.184785,
     -37.847078
    ]
   },
   "properties": {
    "name": "297 HAWTHORN ROAD VERMONT SOUTH 3133",
    "locID": "LOC000088636441",
    "tech": "HFC",
    "upgrade": "NULL_NA",
    "gnaf_pid": "GAVIC419577373"
   }
  },
  {
   "type": "Feature",
   "geometry": {
    "type": "Point",
    "coordinates": [
     145.185931,
     -37.84714
    ]
   },
   "properties": {
    "name": "309 HAWTHORN ROAD VERMONT SOUTH 3133",
    "locID": "LOC000096054409",
    "tech": "HFC",
    "upgrade": "NULL_NA",
    "gnaf_pid": "GAVIC419577374"
   }
  },
  {
   "type": "Feature",
   "geometry": {
    "type": "Point",
    "coordinates": [
     145.18756,
     -37.846985
    ]
   },
   "properties": {
    "name": "327 HAWTHORN ROAD VERMONT SOUTH 3133",
    "locID": "LOC000086865019",
    "tech": "HFC",
    "upgrade": "NULL_NA",
    "gnaf_pid": "GAVIC419577375"
   }
  },
  {
   "type": "Feature",
   "geometry": {
    "type": "Point",
    "coordinates": [
     145.170419,
     -37.855849
    ]
   },
   "properties": {
    "name": "9 KOLONGA COURT VERMONT SOUTH 3133",
    "locID": "LOC000042676746",
    "tech": "HFC",
    "upgrade": "NULL_NA",
    "gnaf_pid": "GAVIC419577864"
   }
  },
  {
   "type": "Feature",
   "geometry": {
    "type": "Point",
    "coordinates": [
     145.17023,
     -37.856099
    ]
   },
   "properties": {
    "name": "12 KOLONGA COURT VERMONT SOUTH 3133",
    "locID": "LOC000021014173",
    "tech": "HFC",
    "upgrade": "NULL_NA",
    "gnaf_pid": "GAVIC419577865"
   }
  },
  {
   "type": "Feature",
   "geometry": {
    "type": "Point",
    "coordinates": [
     145.170282,
     -37.855388
    ]
   },
   "properties": {
    "name": "15 KOLONGA COURT VERMONT SOUTH 3133",
    "locID": "LOC000056832331",
    "tech": "HFC",
    "upgrade": "NULL_NA",
    "gnaf_pid": "GAVIC419577866"
   }
  },
  {
   "type": "Feature",
   "geometry": {
    "type": "Point",
    "coordinates": [
     145.170054,
     -37.855411
    ]
   },
   "properties": {
    "name": "17 KOLONGA COURT VERMONT SOUTH 3133",
    "locID": "LOC000025124602",
    "tech": "HFC",
    "upgrade": "NULL_NA",
    "gnaf_pid": "GAVIC419577867"
   }
  },
  {
   "type": "Feature",
   "geometry": {
    "type": "Point",
    "coordinates": [
     145.170844,
     -37.848763
    ]
   },
   "properties": {
    "name": "170 HAWTHORN ROAD VERMONT SOUTH 3133",
    "locID": "LOC000108297035",
    "tech": "HFC",
    "upgrade": "NULL_NA",
    "gnaf_pid": "GAVIC419578073"
   }
  },
  {
   "type": "Feature",
   "geometry": {
    "type": "Point",
    "coordinates": [
     145.171101,
     -37.84847
    ]
   },
   "properties": {
    "name": "173 HAWTHORN ROAD VERMONT SOUTH 3133",
    "locID": "LOC000072794740",
    "tech": "HFC",
    "upgrade": "NULL_NA",
    "gnaf_pid": "GAVIC419578074"
   }
  },
  {
   "type": "Feature",
   "geometry": {
    "type": "Point",
    "coordinates": [
     145.171263,
     -37.848815
    ]
   },
   "properties": {
    "name": "174 HAWTHORN ROAD VERMONT SOUTH 3133",
    "locID": "LOC000076946799",
    "tech": "HFC",
    "upgrade": "NULL_NA",
    "gnaf_pid": "GAVIC419578075"
   }
  },
  {
   "type": "Feature",
   "geometry": {
    "type": "Point",
    "coordinates": [
     145.171679,
     -37.848524
    ]
   },
   "properties": {
    "name": "179 HAWTHORN ROAD VERMONT SOUTH 3133",
    "locID": "LOC000037815094",
    "tech": "HFC",
    "upgrade": "NULL_NA",
    "gnaf_pid": "GAVIC419578076"
   }
  },
  {
   "type": "Feature",
   "geometry": {
    "type": "Point",
    "coordinates": [
     145.173571,
     -37.84877
    ]
   },
   "properties": {
    "name": "199 HAWTHORN ROAD VERMONT SOUTH 3133",
    "locID": "LOC000037849787",
    "tech": "HFC",
    "upgrade": "NULL_NA",
    "gnaf_pid": "GAVIC419578077"
   }
  },
  {
   "type": "Feature",
   "geometry": {
    "type": "Point",
    "coordinates": [
     145.174897,
     -37.848953
    ]
   },
   "properties": {
    "name": "213 HAWTHORN ROAD VERMONT SOUTH 3133",
    "locID": "LOC000058264546",
    "tech": "HFC",
    "upgrade": "NULL_NA",
    "gnaf_pid": "GAVIC419578078"
   }
  },
  {
   "type": "Feature",
   "geometry": {
    "type": "Point",
    "coordinates": [
     145.175474,
     -37.849025
    ]
   },
   "properties": {
    "name": "219 HAWTHORN ROAD VERMONT SOUTH 3133",
    "locID": "LOC000050687180",
    "tech": "HFC",
    "upgrade": "NULL_NA",
    "gnaf_pid": "GAVIC419578079"
   }
  },
  {
   "type": "Feature",
   "geometry": {
    "type": "Point",
    "coordinates": [
     145.177337,
     -37.854632
    ]
   },
   "properties": {
    "name": "5 RITZ STREET VERMONT SOUTH 3133",
    "locID": "LOC000092800719",
    "tech": "HFC",
    "upgrade": "NULL_NA",
    "gnaf_pid": "GAVIC419578089"
   }
  },
  {
   "type": "Feature",
   "geometry": {
    "type": "Point",
    "coordinates": [
     145.177783,
     -37.854972
    ]
   },
   "properties": {
    "name": "8 RITZ STREET VERMONT SOUTH 3133",
    "locID": "LOC000094580588",
    "tech": "HFC",
    "upgrade": "NULL_NA",
    "gnaf_pid": "GAVIC419578090"
   }
  },
  {
   "type": "Feature",
   "geometry": {
    "type": "Point",
    "coordinates": [
     145.176808,
     -37.854885
    ]
   },
   "properties": {
    "name": "3 FANKHAUSER DRIVE VERMONT SOUTH 3133",
    "locID": "LOC000075660107",
    "tech": "HFC",
    "upgrade": "NULL_NA",
    "gnaf_pid": "GAVIC419578096"
   }
  },
  {
   "type": "Feature",
   "geometry": {
    "type": "Point",
    "coordinates": [
     145.177611,
     -37.854104
    ]
   },
   "properties": {
    "name": "9 FANKHAUSER DRIVE VERMONT SOUTH 3133",
    "locID": "LOC000045258970",
    "tech": "HFC",
    "upgrade": "NULL_NA",
    "gnaf_pid": "GAVIC419578097"
   }
  },
  {
   "type": "Feature",
   "geometry": {
    "type": "Point",
    "coordinates": [
     145.171607,
     -37.850073
    ]
   },
   "properties": {
    "name": "9 CASCADE DRIVE VERMONT SOUTH 3133",
    "locID": "LOC000002080455",
    "tech": "HFC",
    "upgrade": "NULL_NA",
    "gnaf_pid": "GAVIC419578125"
   }
  },
  {
   "type": "Feature",
   "geometry": {
    "type": "Point",
    "coordinates": [
     145.172015,
     -37.851035
    ]
   },
   "properties": {
    "name": "32 CASCADE DRIVE VERMONT SOUTH 3133",
    "locID": "LOC000077317183",
    "tech": "HFC",
    "upgrade": "NULL_NA",
    "gnaf_pid": "GAVIC419578127"
   }
  },
  {
   "type": "Feature",
   "geometry": {
    "type": "Point",
    "coordinates": [
     145.183426,
     -37.851049
    ]
   },
   "properties": {
    "name": "1 BRENTLEIGH COURT VERMONT SOUTH 3133",
    "locID": "LOC000038258047",
    "tech": "HFC",
    "upgrade": "NULL_NA",
    "gnaf_pid": "GAVIC419578160"
   }
  },
  {
   "type": "Feature",
   "geometry": {
    "type": "Point",
    "coordinates": [
     145.18359,
     -37.850394
    ]
   },
   "properties": {
    "name": "9 BRENTLEIGH COURT VERMONT SOUTH 3133",
    "locID": "LOC000021265223",
    "tech": "HFC",
    "upgrade": "NULL_NA",
    "gnaf_pid": "GAVIC419578161"
   }
  },
  {
   "type": "Feature",
   "geometry": {
    "type": "Point",
    "coordinates": [
     145.1881,
     -37.863477
    ]
   },
   "properties": {
    "name": "22 LINDAU DRIVE VERMONT SOUTH 3133",
    "locID": "LOC000013562650",
    "tech": "HFC",
    "upgrade": "NULL_NA",
    "gnaf_pid": "GAVIC419578181"
   }
  },
  {
   "type": "Feature",
   "geometry": {
    "type": "Point",
    "coordinates": [
     145.187961,
     -37.863114
    ]
   },
   "properties": {
    "name": "23 LINDAU DRIVE VERMONT SOUTH 3133",
    "locID": "LOC000032830265",
    "tech": "HFC",
    "upgrade": "NULL_NA",
    "gnaf_pid": "GAVIC419578182"
   }
  },
  {
   "type": "Feature",
   "geometry": {
    "type": "Point",
    "coordinates": [
     145.196989,
     -37.850879
    ]
   },
   "properties": {
    "name": "1 MILDARA STREET VERMONT SOUTH 3133",
    "locID": "LOC000088473241",
    "tech": "HFC",
    "upgrade": "NULL_NA",
    "gnaf_pid": "GAVIC419578203"
   }
  },
  {
   "type": "Feature",
   "geometry": {
    "type": "Point",
    "coordinates": [
     145.196962,
     -37.85105
    ]
   },
   "properties": {
    "name": "3 MILDARA STREET VERMONT SOUTH 3133",
    "locID": "LOC000036554536",
    "tech": "HFC",
    "upgrade": "NULL_NA",
    "gnaf_pid": "GAVIC419578204"
   }
  },
  {
   "type": "Feature",
   "geometry": {
    "type": "Point",
    "coordinates": [
     145.178463,
     -37.848602
    ]
   },
   "properties": {
    "name": "5 MONARO COURT VERMONT SOUTH 3133",
    "locID": "LOC000010197978",
    "tech": "HFC",
    "upgrade": "NULL_NA",
    "gnaf_pid": "GAVIC419578248"
   }
  },
  {
   "type": "Feature",
   "geometry": {
    "type": "Point",
    "coordinates": [
     145.177552,
     -37.848669
    ]
   },
   "properties": {
    "name": "8 MONARO COURT VERMONT SOUTH 3133",
    "locID": "LOC000058430755",
    "tech": "HFC",
    "upgrade": "NULL_NA",
    "gnaf_pid": "GAVIC419578249"
   }
  },
  {
   "type": "Feature",
   "geometry": {
    "type": "Point",
    "coordinates": [
     145.177852,
     -37.848476
    ]
   },
   "properties": {
    "name": "11 MONARO COURT VERMONT SOUTH 3133",
    "locID": "LOC000089070373",
    "tech": "HFC",
    "upgrade": "NULL_NA",
    "gnaf_pid": "GAVIC419578250"
   }
  },
  {
   "type": "Feature",
   "geometry": {
    "type": "Point",
    "coordinates": [
     145.200567,
     -37.850024
    ]
   },
   "properties": {
    "name": "2 TARNOOK STREET VERMONT SOUTH 3133",
    "locID": "LOC000018612318",
    "tech": "HFC",
    "upgrade": "NULL_NA",
    "gnaf_pid": "GAVIC419578343"
   }
  },
  {
   "type": "Feature",
   "geometry": {
    "type": "Point",
    "coordinates": [
     145.185048,
     -37.852588
    ]
   },
   "properties": {
    "name": "2 WILPENA PLACE VERMONT SOUTH 3133",
    "locID": "LOC000025088720",
    "tech": "HFC",
    "upgrade": "NULL_NA",
    "gnaf_pid": "GAVIC419578449"
   }
  },
  {
   "type": "Feature",
   "geometry": {
    "type": "Point",
    "coordinates": [
     145.186043,
     -37.852315
    ]
   },
   "properties": {
    "name": "11 WILPENA PLACE VERMONT SOUTH 3133",
    "locID": "LOC000010969789",
    "tech": "HFC",
    "upgrade": "NULL_NA",
    "gnaf_pid": "GAVIC419578455"
   }
  },
  {
   "type": "Feature",
   "geometry": {
    "type": "Point",
    "coordinates": [
     145.1864268,
     -37.85256546
    ]
   },
   "properties": {
    "name": "16 WILPENA PLACE VERMONT SOUTH 3133",
    "locID": "LOC000060478023",
    "tech": "HFC",
    "upgrade": "NULL_NA",
    "gnaf_pid": "GAVIC419578456"
   }
  },
  {
   "type": "Feature",
   "geometry": {
    "type": "Point",
    "coordinates": [
     145.187592,
     -37.852204
    ]
   },
   "properties": {
    "name": "28 WILPENA PLACE VERMONT SOUTH 3133",
    "locID": "LOC000075232089",
    "tech": "HFC",
    "upgrade": "NULL_NA",
    "gnaf_pid": "GAVIC419578457"
   }
  },
  {
   "type": "Feature",
   "geometry": {
    "type": "Point",
    "coordinates": [
     145.182457,
     -37.861785
    ]
   },
   "properties": {
    "name": "1 YANDELL CLOSE VERMONT SOUTH 3133",
    "locID": "LOC000070636943",
    "tech": "HFC",
    "upgrade": "NULL_NA",
    "gnaf_pid": "GAVIC419578588"
   }
  },
  {
   "type": "Feature",
   "geometry": {
    "type": "Point",
    "coordinates": [
     145.182276,
     -37.861756
    ]
   },
   "properties": {
    "name": "3 YANDELL CLOSE VERMONT SOUTH 3133",
    "locID": "LOC000067854053",
    "tech": "HFC",
    "upgrade": "NULL_NA",
    "gnaf_pid": "GAVIC419578589"
   }
  },
  {
   "type": "Feature",
   "geometry": {
    "type": "Point",
    "coordinates": [
     145.180124,
     -37.859586
    ]
   },
   "properties": {
    "name": "67 WEEDEN DRIVE VERMONT SOUTH 3133",
    "locID": "LOC000035100103",
    "tech": "HFC",
    "upgrade": "NULL_NA",
    "gnaf_pid": "GAVIC419578993"
   }
  },
  {
   "type": "Feature",
   "geometry": {
    "type": "Point",
    "coordinates": [
     145.18045,
     -37.859745
    ]
   },
   "properties": {
    "name": "71 WEEDEN DRIVE VERMONT SOUTH 3133",
    "locID": "LOC000022163249",
    "tech": "HFC",
    "upgrade": "NULL_NA",
    "gnaf_pid": "GAVIC419578994"
   }
  },
  {
   "type": "Feature",
   "geometry": {
    "type": "Point",
    "coordinates": [
     145.177864,
     -37.862273
    ]
   },
   "properties": {
    "name": "2 CURRAJONG STREET VERMONT SOUTH 3133",
    "locID": "LOC000044831142",
    "tech": "HFC",
    "upgrade": "NULL_NA",
    "gnaf_pid": "GAVIC419579069"
   }
  },
  {
   "type": "Feature",
   "geometry": {
    "type": "Point",
    "coordinates": [
     145.178679,
     -37.86243
    ]
   },
   "properties": {
    "name": "10 CURRAJONG STREET VERMONT SOUTH 3133",
    "locID": "LOC000021112186",
    "tech": "HFC",
    "upgrade": "NULL_NA",
    "gnaf_pid": "GAVIC419579070"
   }
  },
  {
   "type": "Feature",
   "geometry": {
    "type": "Point",
    "coordinates": [
     145.179461,
     -37.862541
    ]
   },
   "properties": {
    "name": "18 CURRAJONG STREET VERMONT SOUTH 3133",
    "locID": "LOC000059061783",
    "tech": "HFC",
    "upgrade": "NULL_NA",
    "gnaf_pid": "GAVIC419579071"
   }
  },
  {
   "type": "Feature",
   "geometry": {
    "type": "Point",
    "coordinates": [
     145.180243,
     -37.862616
    ]
   },
   "properties": {
    "name": "26 CURRAJONG STREET VERMONT SOUTH 3133",
    "locID": "LOC000057359838",
    "tech": "HFC",
    "upgrade": "NULL_NA",
    "gnaf_pid": "GAVIC419579072"
   }
  },
  {
   "type": "Feature",
   "geometry": {
    "type": "Point",
    "coordinates": [
     145.18023718,
     -37.8579267
    ]
   },
   "properties": {
    "name": "3 NARRACAN STREET VERMONT SOUTH 3133",
    "locID": "LOC000063657159",
    "tech": "HFC",
    "upgrade": "NULL_NA",
    "gnaf_pid": "GAVIC419579094"
   }
  },
  {
   "type": "Feature",
   "geometry": {
    "type": "Point",
    "coordinates": [
     145.180237,
     -37.858227
    ]
   },
   "properties": {
    "name": "6 NARRACAN STREET VERMONT SOUTH 3133",
    "locID": "LOC000046290256",
    "tech": "HFC",
    "upgrade": "NULL_NA",
    "gnaf_pid": "GAVIC419579095"
   }
  },
  {
   "type": "Feature",
   "geometry": {
    "type": "Point",
    "coordinates": [
     145.180812,
     -37.858453
    ]
   },
   "properties": {
    "name": "12 NARRACAN STREET VERMONT SOUTH 3133",
    "locID": "LOC000081942454",
    "tech": "HFC",
    "upgrade": "NULL_NA",
    "gnaf_pid": "GAVIC419579096"
   }
  },
  {
   "type": "Feature",
   "geometry": {
    "type": "Point",
    "coordinates": [
     145.181515,
     -37.858968
    ]
   },
   "properties": {
    "name": "17 NARRACAN STREET VERMONT SOUTH 3133",
    "locID": "LOC000016023490",
    "tech": "HFC",
    "upgrade": "NULL_NA",
    "gnaf_pid": "GAVIC419579097"
   }
  },
  {
   "type": "Feature",
   "geometry": {
    "type": "Point",
    "coordinates": [
     145.181014,
     -37.859916
    ]
   },
   "properties": {
    "name": "26 NARRACAN STREET VERMONT SOUTH 3133",
    "locID": "LOC000056433714",
    "tech": "HFC",
    "upgrade": "NULL_NA",
    "gnaf_pid": "GAVIC419579098"
   }
  },
  {
   "type": "Feature",
   "geometry": {
    "type": "Point",
    "coordinates": [
     145.181417,
     -37.859706
    ]
   },
   "properties": {
    "name": "27 NARRACAN STREET VERMONT SOUTH 3133",
    "locID": "LOC000053117500",
    "tech": "HFC",
    "upgrade": "NULL_NA",
    "gnaf_pid": "GAVIC419579099"
   }
  },
  {
   "type": "Feature",
   "geometry": {
    "type": "Point",
    "coordinates": [
     145.178898,
     -37.849835
    ]
   },
   "properties": {
    "name": "3 HUSKEY COURT VERMONT SOUTH 3133",
    "locID": "LOC000028802384",
    "tech": "HFC",
    "upgrade": "NULL_NA",
    "gnaf_pid": "GAVIC419579109"
   }
  },
  {
   "type": "Feature",
   "geometry": {
    "type": "Point",
    "coordinates": [
     145.179781,
     -37.850001
    ]
   },
   "properties": {
    "name": "8 HUSKEY COURT VERMONT SOUTH 3133",
    "locID": "LOC000007598983",
    "tech": "HFC",
    "upgrade": "NULL_NA",
    "gnaf_pid": "GAVIC419579110"
   }
  },
  {
   "type": "Feature",
   "geometry": {
    "type": "Point",
    "coordinates": [
     145.17947,
     -37.849699
    ]
   },
   "properties": {
    "name": "9 HUSKEY COURT VERMONT SOUTH 3133",
    "locID": "LOC000003628555",
    "tech": "HFC",
    "upgrade": "NULL_NA",
    "gnaf_pid": "GAVIC419579111"
   }
  },
  {
   "type": "Feature",
   "geometry": {
    "type": "Point",
    "coordinates": [
     145.180026,
     -37.849735
    ]
   },
   "properties": {
    "name": "15 HUSKEY COURT VERMONT SOUTH 3133",
    "locID": "LOC000081471930",
    "tech": "HFC",
    "upgrade": "NULL_NA",
    "gnaf_pid": "GAVIC419579112"
   }
  },
  {
   "type": "Feature",
   "geometry": {
    "type": "Point",
    "coordinates": [
     145.186502,
     -37.863272
    ]
   },
   "properties": {
    "name": "12 LATURNS COURT VERMONT SOUTH 3133",
    "locID": "LOC000084606627",
    "tech": "HFC",
    "upgrade": "NULL_NA",
    "gnaf_pid": "GAVIC419579118"
   }
  },
  {
   "type": "Feature",
   "geometry": {
    "type": "Point",
    "coordinates": [
     145.186152,
     -37.863185
    ]
   },
   "properties": {
    "name": "16 LATURNS COURT VERMONT SOUTH 3133",
    "locID": "LOC000078891586",
    "tech": "HFC",
    "upgrade": "NULL_NA",
    "gnaf_pid": "GAVIC419579119"
   }
  },
  {
   "type": "Feature",
   "geometry": {
    "type": "Point",
    "coordinates": [
     145.195358,
     -37.847844
    ]
   },
   "properties": {
    "name": "7 TALARNO AVENUE VERMONT SOUTH 3133",
    "locID": "LOC000025162426",
    "tech": "HFC",
    "upgrade": "NULL_NA",
    "gnaf_pid": "GAVIC419579139"
   }
  },
  {
   "type": "Feature",
   "geometry": {
    "type": "Point",
    "coordinates": [
     145.194087,
     -37.84778
    ]
   },
   "properties": {
    "name": "15 TALARNO AVENUE VERMONT SOUTH 3133",
    "locID": "LOC000093152442",
    "tech": "HFC",
    "upgrade": "NULL_NA",
    "gnaf_pid": "GAVIC419579141"
   }
  },
  {
   "type": "Feature",
   "geometry": {
    "type": "Point",
    "coordinates": [
     145.197168,
     -37.853793
    ]
   },
   "properties": {
    "name": "1 WENDOUREE COURT VERMONT SOUTH 3133",
    "locID": "LOC000018160973",
    "tech": "HFC",
    "upgrade": "NULL_NA",
    "gnaf_pid": "GAVIC419579163"
   }
  },
  {
   "type": "Feature",
   "geometry": {
    "type": "Point",
    "coordinates": [
     145.19427549,
     -37.85933636
    ]
   },
   "properties": {
    "name": "9 MONT COURT VERMONT SOUTH 3133",
    "locID": "LOC000123544332",
    "tech": "HFC",
    "upgrade": "NULL_NA",
    "gnaf_pid": "GAVIC419579167"
   }
  },
  {
   "type": "Feature",
   "geometry": {
    "type": "Point",
    "coordinates": [
     145.193659,
     -37.860192
    ]
   },
   "properties": {
    "name": "23 MONT COURT VERMONT SOUTH 3133",
    "locID": "LOC000037720066",
    "tech": "HFC",
    "upgrade": "NULL_NA",
    "gnaf_pid": "GAVIC419579168"
   }
  },
  {
   "type": "Feature",
   "geometry": {
    "type": "Point",
    "coordinates": [
     145.193447,
     -37.860954
    ]
   },
   "properties": {
    "name": "26 MONT COURT VERMONT SOUTH 3133",
    "locID": "LOC000083672451",
    "tech": "HFC",
    "upgrade": "NULL_NA",
    "gnaf_pid": "GAVIC419579169"
   }
  },
  {
   "type": "Feature",
   "geometry": {
    "type": "Point",
    "coordinates": [
     145.194412,
     -37.861005
    ]
   },
   "properties": {
    "name": "32 MONT COURT VERMONT SOUTH 3133",
    "locID": "LOC000096261039",
    "tech": "HFC",
    "upgrade": "NULL_NA",
    "gnaf_pid": "GAVIC419579170"
   }
  },
  {
   "type": "Feature",
   "geometry": {
    "type": "Point",
    "coordinates": [
     145.194125,
     -37.86064
    ]
   },
   "properties": {
    "name": "35 MONT COURT VERMONT SOUTH 3133",
    "locID": "LOC000012977998",
    "tech": "HFC",
    "upgrade": "NULL_NA",
    "gnaf_pid": "GAVIC419579171"
   }
  },
  {
   "type": "Feature",
   "geometry": {
    "type": "Point",
    "coordinates": [
     145.194394,
     -37.860356
    ]
   },
   "properties": {
    "name": "39 MONT COURT VERMONT SOUTH 3133",
    "locID": "LOC000045457895",
    "tech": "HFC",
    "upgrade": "NULL_NA",
    "gnaf_pid": "GAVIC419579172"
   }
  },
  {
   "type": "Feature",
   "geometry": {
    "type": "Point",
    "coordinates": [
     145.174477,
     -37.84663
    ]
   },
   "properties": {
    "name": "4 KENSINGTON GARDENS VERMONT SOUTH 3133",
    "locID": "LOC000093732819",
    "tech": "FTTN",
    "upgrade": "FTTP_SA",
    "gnaf_pid": "GAVIC419579192"
   }
  },
  {
   "type": "Feature",
   "geometry": {
    "type": "Point",
    "coordinates": [
     145.176648,
     -37.850295
    ]
   },
   "properties": {
    "name": "57 STANLEY ROAD VERMONT SOUTH 3133",
    "locID": "LOC000088993957",
    "tech": "HFC",
    "upgrade": "NULL_NA",
    "gnaf_pid": "GAVIC419579202"
   }
  },
  {
   "type": "Feature",
   "geometry": {
    "type": "Point",
    "coordinates": [
     145.176936,
     -37.848741
    ]
   },
   "properties": {
    "name": "69 STANLEY ROAD VERMONT SOUTH 3133",
    "locID": "LOC000071527583",
    "tech": "HFC",
    "upgrade": "NULL_NA",
    "gnaf_pid": "GAVIC419579205"
   }
  },
  {
   "type": "Feature",
   "geometry": {
    "type": "Point",
    "coordinates": [
     145.178927,
     -37.861145
    ]
   },
   "properties": {
    "name": "1 WERON COURT VERMONT SOUTH 3133",
    "locID": "LOC000074615038",
    "tech": "HFC",
    "upgrade": "NULL_NA",
    "gnaf_pid": "GAVIC419579262"
   }
  },
  {
   "type": "Feature",
   "geometry": {
    "type": "Point",
    "coordinates": [
     145.172101,
     -37.8572
    ]
   },
   "properties": {
    "name": "24 TULLIMBAR CIRCUIT VERMONT SOUTH 3133",
    "locID": "LOC000041266198",
    "tech": "HFC",
    "upgrade": "NULL_NA",
    "gnaf_pid": "GAVIC419579264"
   }
  },
  {
   "type": "Feature",
   "geometry": {
    "type": "Point",
    "coordinates": [
     145.173243,
     -37.857002
    ]
   },
   "properties": {
    "name": "29 TULLIMBAR CIRCUIT VERMONT SOUTH 3133",
    "locID": "LOC000021097818",
    "tech": "HFC",
    "upgrade": "NULL_NA",
    "gnaf_pid": "GAVIC419579265"
   }
  },
  {
   "type": "Feature",
   "geometry": {
    "type": "Point",
    "coordinates": [
     145.173376,
     -37.857139
    ]
   },
   "properties": {
    "name": "31 TULLIMBAR CIRCUIT VERMONT SOUTH 3133",
    "locID": "LOC000056248901",
    "tech": "HFC",
    "upgrade": "NULL_NA",
    "gnaf_pid": "GAVIC419579267"
   }
  },
  {
   "type": "Feature",
   "geometry": {
    "type": "Point",
    "coordinates": [
     145.201941,
     -37.847738
    ]
   },
   "properties": {
    "name": "17 VERONA STREET VERMONT SOUTH 3133",
    "locID": "LOC000028438313",
    "tech": "HFC",
    "upgrade": "NULL_NA",
    "gnaf_pid": "GAVIC419579271"
   }
  },
  {
   "type": "Feature",
   "geometry": {
    "type": "Point",
    "coordinates": [
     145.202157,
     -37.847768
    ]
   },
   "properties": {
    "name": "19 VERONA STREET VERMONT SOUTH 3133",
    "locID": "LOC000027159487",
    "tech": "HFC",
    "upgrade": "NULL_NA",
    "gnaf_pid": "GAVIC419579272"
   }
  },
  {
   "type": "Feature",
   "geometry": {
    "type": "Point",
    "coordinates": [
     145.200845,
     -37.847955
    ]
   },
   "properties": {
    "name": "24 VERONA STREET VERMONT SOUTH 3133",
    "locID": "LOC000011083299",
    "tech": "HFC",
    "upgrade": "NULL_NA",
    "gnaf_pid": "GAVIC419579273"
   }
  },
  {
   "type": "Feature",
   "geometry": {
    "type": "Point",
    "coordinates": [
     145.202295,
     -37.848131
    ]
   },
   "properties": {
    "name": "34 VERONA STREET VERMONT SOUTH 3133",
    "locID": "LOC000025312352",
    "tech": "HFC",
    "upgrade": "NULL_NA",
    "gnaf_pid": "GAVIC419579276"
   }
  },
  {
   "type": "Feature",
   "geometry": {
    "type": "Point",
    "coordinates": [
     145.169999,
     -37.857186
    ]
   },
   "properties": {
    "name": "1 TULLIMBAR CIRCUIT VERMONT SOUTH 3133",
    "locID": "LOC000030257189",
    "tech": "HFC",
    "upgrade": "NULL_NA",
    "gnaf_pid": "GAVIC419579298"
   }
  },
  {
   "type": "Feature",
   "geometry": {
    "type": "Point",
    "coordinates": [
     145.177201,
     -37.851358
    ]
   },
   "properties": {
    "name": "20 VOGUE AVENUE VERMONT SOUTH 3133",
    "locID": "LOC000037534892",
    "tech": "HFC",
    "upgrade": "NULL_NA",
    "gnaf_pid": "GAVIC419579443"
   }
  },
  {
   "type": "Feature",
   "geometry": {
    "type": "Point",
    "coordinates": [
     145.177205,
     -37.852142
    ]
   },
   "properties": {
    "name": "23 VOGUE AVENUE VERMONT SOUTH 3133",
    "locID": "LOC000014450074",
    "tech": "HFC",
    "upgrade": "NULL_NA",
    "gnaf_pid": "GAVIC419579444"
   }
  },
  {
   "type": "Feature",
   "geometry": {
    "type": "Point",
    "coordinates": [
     145.195536,
     -37.856877
    ]
   },
   "properties": {
    "name": "10 QUELLTALER PLACE VERMONT SOUTH 3133",
    "locID": "LOC000084496879",
    "tech": "HFC",
    "upgrade": "NULL_NA",
    "gnaf_pid": "GAVIC419579903"
   }
  },
  {
   "type": "Feature",
   "geometry": {
    "type": "Point",
    "coordinates": [
     145.172809,
     -37.86169
    ]
   },
   "properties": {
    "name": "10 TRACEY DRIVE VERMONT SOUTH 3133",
    "locID": "LOC000085804048",
    "tech": "HFC",
    "upgrade": "NULL_NA",
    "gnaf_pid": "GAVIC419579904"
   }
  },
  {
   "type": "Feature",
   "geometry": {
    "type": "Point",
    "coordinates": [
     145.178391,
     -37.851972
    ]
   },
   "properties": {
    "name": "13 REGAL COURT VERMONT SOUTH 3133",
    "locID": "LOC000073035033",
    "tech": "HFC",
    "upgrade": "NULL_NA",
    "gnaf_pid": "GAVIC419579909"
   }
  },
  {
   "type": "Feature",
   "geometry": {
    "type": "Point",
    "coordinates": [
     145.192252,
     -37.852176
    ]
   },
   "properties": {
    "name": "4 RENMARK COURT VERMONT SOUTH 3133",
    "locID": "LOC000089727813",
    "tech": "HFC",
    "upgrade": "NULL_NA",
    "gnaf_pid": "GAVIC419579912"
   }
  },
  {
   "type": "Feature",
   "geometry": {
    "type": "Point",
    "coordinates": [
     145.194109,
     -37.857116
    ]
   },
   "properties": {
    "name": "9 SILVERENE COURT VERMONT SOUTH 3133",
    "locID": "LOC000075415276",
    "tech": "HFC",
    "upgrade": "NULL_NA",
    "gnaf_pid": "GAVIC419579918"
   }
  },
  {
   "type": "Feature",
   "geometry": {
    "type": "Point",
    "coordinates": [
     145.187593,
     -37.858629
    ]
   },
   "properties": {
    "name": "2 EXPLORERS COURT VERMONT SOUTH 3133",
    "locID": "LOC000048037650",
    "tech": "HFC",
    "upgrade": "NULL_NA",
    "gnaf_pid": "GAVIC419579931"
   }
  },
  {
   "type": "Feature",
   "geometry": {
    "type": "Point",
    "coordinates": [
     145.19052,
     -37.853276
    ]
   },
   "properties": {
    "name": "UNIT 2, 27 MELISSA GROVE VERMONT SOUTH 3133",
    "locID": "LOC000054264275",
    "tech": "HFC",
    "upgrade": "NULL_NA",
    "gnaf_pid": "GAVIC419579950"
   }
  },
  {
   "type": "Feature",
   "geometry": {
    "type": "Point",
    "coordinates": [
     145.194339,
     -37.84955
    ]
   },
   "properties": {
    "name": "27 TALARNO AVENUE VERMONT SOUTH 3133",
    "locID": "LOC000016040835",
    "tech": "HFC",
    "upgrade": "NULL_NA",
    "gnaf_pid": "GAVIC419579982"
   }
  },
  {
   "type": "Feature",
   "geometry": {
    "type": "Point",
    "coordinates": [
     145.195226,
     -37.849536
    ]
   },
   "properties": {
    "name": "33 TALARNO AVENUE VERMONT SOUTH 3133",
    "locID": "LOC000092776255",
    "tech": "HFC",
    "upgrade": "NULL_NA",
    "gnaf_pid": "GAVIC419579984"
   }
  },
  {
   "type": "Feature",
   "geometry": {
    "type": "Point",
    "coordinates": [
     145.192532,
     -37.851442
    ]
   },
   "properties": {
    "name": "2 CHABLIS CRESCENT VERMONT SOUTH 3133",
    "locID": "LOC000015303751",
    "tech": "HFC",
    "upgrade": "NULL_NA",
    "gnaf_pid": "GAVIC419580121"
   }
  },
  {
   "type": "Feature",
   "geometry": {
    "type": "Point",
    "coordinates": [
     145.193825,
     -37.852002
    ]
   },
   "properties": {
    "name": "9 CHABLIS CRESCENT VERMONT SOUTH 3133",
    "locID": "LOC000034392378",
    "tech": "HFC",
    "upgrade": "NULL_NA",
    "gnaf_pid": "GAVIC419580122"
   }
  },
  {
   "type": "Feature",
   "geometry": {
    "type": "Point",
    "coordinates": [
     145.193614,
     -37.852269
    ]
   },
   "properties": {
    "name": "14 CHABLIS CRESCENT VERMONT SOUTH 3133",
    "locID": "LOC000069502129",
    "tech": "HFC",
    "upgrade": "NULL_NA",
    "gnaf_pid": "GAVIC419580123"
   }
  },
  {
   "type": "Feature",
   "geometry": {
    "type": "Point",
    "coordinates": [
     145.182733,
     -37.847325
    ]
   },
   "properties": {
    "name": "2 WALBROOK DRIVE VERMONT SOUTH 3133",
    "locID": "LOC000028507104",
    "tech": "HFC",
    "upgrade": "NULL_NA",
    "gnaf_pid": "GAVIC419580134"
   }
  },
  {
   "type": "Feature",
   "geometry": {
    "type": "Point",
    "coordinates": [
     145.181172,
     -37.846589
    ]
   },
   "properties": {
    "name": "20 WALBROOK DRIVE VERMONT SOUTH 3133",
    "locID": "LOC000071633939",
    "tech": "HFC",
    "upgrade": "NULL_NA",
    "gnaf_pid": "GAVIC419580138"
   }
  },
  {
   "type": "Feature",
   "geometry": {
    "type": "Point",
    "coordinates": [
     145.181246,
     -37.84632
    ]
   },
   "properties": {
    "name": "21 WALBROOK DRIVE VERMONT SOUTH 3133",
    "locID": "LOC000062299015",
    "tech": "HFC",
    "upgrade": "NULL_NA",
    "gnaf_pid": "GAVIC419580140"
   }
  },
  {
   "type": "Feature",
   "geometry": {
    "type": "Point",
    "coordinates": [
     145.20236902,
     -37.85000129
    ]
   },
   "properties": {
    "name": "3 WINJALLOCK CRESCENT VERMONT SOUTH 3133",
    "locID": "LOC000087642214",
    "tech": "HFC",
    "upgrade": "NULL_NA",
    "gnaf_pid": "GAVIC419580208"
   }
  },
  {
   "type": "Feature",
   "geometry": {
    "type": "Point",
    "coordinates": [
     145.17108856,
     -37.8466896
    ]
   },
   "properties": {
    "name": "6 HARWORTH CLOSE VERMONT SOUTH 3133",
    "locID": "LOC000050993600",
    "tech": "FTTN",
    "upgrade": "NULL_NA",
    "gnaf_pid": "GAVIC419580216"
   }
  },
  {
   "type": "Feature",
   "geometry": {
    "type": "Point",
    "coordinates": [
     145.20117,
     -37.849528
    ]
   },
   "properties": {
    "name": "15 DELACOMBE DRIVE VERMONT SOUTH 3133",
    "locID": "LOC000045238942",
    "tech": "HFC",
    "upgrade": "NULL_NA",
    "gnaf_pid": "GAVIC419580813"
   }
  },
  {
   "type": "Feature",
   "geometry": {
    "type": "Point",
    "coordinates": [
     145.170149,
     -37.856629
    ]
   },
   "properties": {
    "name": "9 TULLIMBAR CIRCUIT VERMONT SOUTH 3133",
    "locID": "LOC000092284505",
    "tech": "HFC",
    "upgrade": "NULL_NA",
    "gnaf_pid": "GAVIC419580839"
   }
  },
  {
   "type": "Feature",
   "geometry": {
    "type": "Point",
    "coordinates": [
     145.179306,
     -37.847137
    ]
   },
   "properties": {
    "name": "15 GIBBON AVENUE VERMONT SOUTH 3133",
    "locID": "LOC000006003352",
    "tech": "HFC",
    "upgrade": "NULL_NA",
    "gnaf_pid": "GAVIC419581528"
   }
  },
  {
   "type": "Feature",
   "geometry": {
    "type": "Point",
    "coordinates": [
     145.178878,
     -37.847419
    ]
   },
   "properties": {
    "name": "20 GIBBON AVENUE VERMONT SOUTH 3133",
    "locID": "LOC000006876648",
    "tech": "HFC",
    "upgrade": "NULL_NA",
    "gnaf_pid": "GAVIC419581529"
   }
  },
  {
   "type": "Feature",
   "geometry": {
    "type": "Point",
    "coordinates": [
     145.178905,
     -37.847248
    ]
   },
   "properties": {
    "name": "22 GIBBON AVENUE VERMONT SOUTH 3133",
    "locID": "LOC000056385912",
    "tech": "HFC",
    "upgrade": "NULL_NA",
    "gnaf_pid": "GAVIC419581530"
   }
  },
  {
   "type": "Feature",
   "geometry": {
    "type": "Point",
    "coordinates": [
     145.179161,
     -37.846072
    ]
   },
   "properties": {
    "name": "36 GIBBON AVENUE VERMONT SOUTH 3133",
    "locID": "LOC000102155702",
    "tech": "HFC",
    "upgrade": "NULL_NA",
    "gnaf_pid": "GAVIC419581531"
   }
  },
  {
   "type": "Feature",
   "geometry": {
    "type": "Point",
    "coordinates": [
     145.181916,
     -37.862543
    ]
   },
   "properties": {
    "name": "5 KALARA PLACE VERMONT SOUTH 3133",
    "locID": "LOC000051773149",
    "tech": "HFC",
    "upgrade": "NULL_NA",
    "gnaf_pid": "GAVIC419581576"
   }
  },
  {
   "type": "Feature",
   "geometry": {
    "type": "Point",
    "coordinates": [
     145.181682,
     -37.862801
    ]
   },
   "properties": {
    "name": "8 KALARA PLACE VERMONT SOUTH 3133",
    "locID": "LOC000092621818",
    "tech": "HFC",
    "upgrade": "NULL_NA",
    "gnaf_pid": "GAVIC419581577"
   }
  },
  {
   "type": "Feature",
   "geometry": {
    "type": "Point",
    "coordinates": [
     145.181554,
     -37.862456
    ]
   },
   "properties": {
    "name": "9 KALARA PLACE VERMONT SOUTH 3133",
    "locID": "LOC000021251064",
    "tech": "HFC",
    "upgrade": "NULL_NA",
    "gnaf_pid": "GAVIC419581578"
   }
  },
  {
   "type": "Feature",
   "geometry": {
    "type": "Point",
    "coordinates": [
     145.169289,
     -37.859238
    ]
   },
   "properties": {
    "name": "635 SPRINGVALE ROAD VERMONT SOUTH 3133",
    "locID": "LOC000074987473",
    "tech": "HFC",
    "upgrade": "NULL_NA",
    "gnaf_pid": "GAVIC419581580"
   }
  },
  {
   "type": "Feature",
   "geometry": {
    "type": "Point",
    "coordinates": [
     145.170654,
     -37.849527
    ]
   },
   "properties": {
    "name": "515 SPRINGVALE ROAD VERMONT SOUTH 3133",
    "locID": "LOC000021080463",
    "tech": "HFC",
    "upgrade": "NULL_NA",
    "gnaf_pid": "GAVIC419581627"
   }
  },
  {
   "type": "Feature",
   "geometry": {
    "type": "Point",
    "coordinates": [
     145.188481,
     -37.862284
    ]
   },
   "properties": {
    "name": "7 GLENWERRI COURT VERMONT SOUTH 3133",
    "locID": "LOC000041386554",
    "tech": "HFC",
    "upgrade": "NULL_NA",
    "gnaf_pid": "GAVIC419581699"
   }
  },
  {
   "type": "Feature",
   "geometry": {
    "type": "Point",
    "coordinates": [
     145.188061,
     -37.862259
    ]
   },
   "properties": {
    "name": "8 GLENWERRI COURT VERMONT SOUTH 3133",
    "locID": "LOC000031033999",
    "tech": "HFC",
    "upgrade": "NULL_NA",
    "gnaf_pid": "GAVIC419581700"
   }
  },
  {
   "type": "Feature",
   "geometry": {
    "type": "Point",
    "coordinates": [
     145.173003,
     -37.855682
    ]
   },
   "properties": {
    "name": "406 BURWOOD HIGHWAY VERMONT SOUTH 3133",
    "locID": "LOC000089777346",
    "tech": "HFC",
    "upgrade": "NULL_NA",
    "gnaf_pid": "GAVIC419581708"
   }
  },
  {
   "type": "Feature",
   "geometry": {
    "type": "Point",
    "coordinates": [
     145.173773,
     -37.855784
    ]
   },
   "properties": {
    "name": "414 BURWOOD HIGHWAY VERMONT SOUTH 3133",
    "locID": "LOC000048041356",
    "tech": "HFC",
    "upgrade": "NULL_NA",
    "gnaf_pid": "GAVIC419581709"
   }
  },
  {
   "type": "Feature",
   "geometry": {
    "type": "Point",
    "coordinates": [
     145.174687,
     -37.855131
    ]
   },
   "properties": {
    "name": "423 BURWOOD HIGHWAY VERMONT SOUTH 3133",
    "locID": "LOC000003715312",
    "tech": "HFC",
    "upgrade": "NULL_NA",
    "gnaf_pid": "GAVIC419581710"
   }
  },
  {
   "type": "Feature",
   "geometry": {
    "type": "Point",
    "coordinates": [
     145.176931,
     -37.85541
    ]
   },
   "properties": {
    "name": "445 BURWOOD HIGHWAY VERMONT SOUTH 3133",
    "locID": "LOC000108025181",
    "tech": "HFC",
    "upgrade": "NULL_NA",
    "gnaf_pid": "GAVIC419581711"
   }
  },
  {
   "type": "Feature",
   "geometry": {
    "type": "Point",
    "coordinates": [
     145.17979,
     -37.856544
    ]
   },
   "properties": {
    "name": "454 BURWOOD HIGHWAY VERMONT SOUTH 3133",
    "locID": "LOC000046217726",
    "tech": "HFC",
    "upgrade": "NULL_NA",
    "gnaf_pid": "GAVIC419581712"
   }
  },
  {
   "type": "Feature",
   "geometry": {
    "type": "Point",
    "coordinates": [
     145.17809609,
     -37.85557912
    ]
   },
   "properties": {
    "name": "457 BURWOOD HIGHWAY VERMONT SOUTH 3133",
    "locID": "LOC000106278583",
    "tech": "HFC",
    "upgrade": "NULL_NA",
    "gnaf_pid": "GAVIC419581713"
   }
  },
  {
   "type": "Feature",
   "geometry": {
    "type": "Point",
    "coordinates": [
     145.182419,
     -37.856891
    ]
   },
   "properties": {
    "name": "480 BURWOOD HIGHWAY VERMONT SOUTH 3133",
    "locID": "LOC000109848013",
    "tech": "HFC",
    "upgrade": "NULL_NA",
    "gnaf_pid": "GAVIC419581715"
   }
  },
  {
   "type": "Feature",
   "geometry": {
    "type": "Point",
    "coordinates": [
     145.183693,
     -37.848521
    ]
   },
   "properties": {
    "name": "13 HANCOCK STREET VERMONT SOUTH 3133",
    "locID": "LOC000047805757",
    "tech": "HFC",
    "upgrade": "NULL_NA",
    "gnaf_pid": "GAVIC419581741"
   }
  },
  {
   "type": "Feature",
   "geometry": {
    "type": "Point",
    "coordinates": [
     145.200661,
     -37.854117
    ]
   },
   "properties": {
    "name": "234 MORACK ROAD VERMONT SOUTH 3133",
    "locID": "LOC000076019774",
    "tech": "HFC",
    "upgrade": "NULL_NA",
    "gnaf_pid": "GAVIC419581835"
   }
  },
  {
   "type": "Feature",
   "geometry": {
    "type": "Point",
    "coordinates": [
     145.199968,
     -37.854584
    ]
   },
   "properties": {
    "name": "244 MORACK ROAD VERMONT SOUTH 3133",
    "locID": "LOC000046412437",
    "tech": "HFC",
    "upgrade": "NULL_NA",
    "gnaf_pid": "GAVIC419581836"
   }
  },
  {
   "type": "Feature",
   "geometry": {
    "type": "Point",
    "coordinates": [
     145.198962,
     -37.855271
    ]
   },
   "properties": {
    "name": "252 MORACK ROAD VERMONT SOUTH 3133",
    "locID": "LOC000021079604",
    "tech": "HFC",
    "upgrade": "NULL_NA",
    "gnaf_pid": "GAVIC419581837"
   }
  },
  {
   "type": "Feature",
   "geometry": {
    "type": "Point",
    "coordinates": [
     145.197967,
     -37.85741
    ]
   },
   "properties": {
    "name": "268 MORACK ROAD VERMONT SOUTH 3133",
    "locID": "LOC000100272591",
    "tech": "HFC",
    "upgrade": "NULL_NA",
    "gnaf_pid": "GAVIC419581838"
   }
  },
  {
   "type": "Feature",
   "geometry": {
    "type": "Point",
    "coordinates": [
     145.197778,
     -37.85770605
    ]
   },
   "properties": {
    "name": "270 MORACK ROAD VERMONT SOUTH 3133",
    "locID": "LOC000098355785",
    "tech": "HFC",
    "upgrade": "NULL_NA",
    "gnaf_pid": "GAVIC419581839"
   }
  },
  {
   "type": "Feature",
   "geometry": {
    "type": "Point",
    "coordinates": [
     145.179475,
     -37.860099
    ]
   },
   "properties": {
    "name": "1 MORAN COURT VERMONT SOUTH 3133",
    "locID": "LOC000034741014",
    "tech": "HFC",
    "upgrade": "NULL_NA",
    "gnaf_pid": "GAVIC419581840"
   }
  },
  {
   "type": "Feature",
   "geometry": {
    "type": "Point",
    "coordinates": [
     145.17816,
     -37.859962
    ]
   },
   "properties": {
    "name": "13 MORAN COURT VERMONT SOUTH 3133",
    "locID": "LOC000022794466",
    "tech": "HFC",
    "upgrade": "NULL_NA",
    "gnaf_pid": "GAVIC419581841"
   }
  },
  {
   "type": "Feature",
   "geometry": {
    "type": "Point",
    "coordinates": [
     145.180289,
     -37.847369
    ]
   },
   "properties": {
    "name": "9 MORAY GROVE VERMONT SOUTH 3133",
    "locID": "LOC000096391033",
    "tech": "HFC",
    "upgrade": "NULL_NA",
    "gnaf_pid": "GAVIC419581842"
   }
  },
  {
   "type": "Feature",
   "geometry": {
    "type": "Point",
    "coordinates": [
     145.179914,
     -37.847354
    ]
   },
   "properties": {
    "name": "10 MORAY GROVE VERMONT SOUTH 3133",
    "locID": "LOC000015180943",
    "tech": "HFC",
    "upgrade": "NULL_NA",
    "gnaf_pid": "GAVIC419581843"
   }
  },
  {
   "type": "Feature",
   "geometry": {
    "type": "Point",
    "coordinates": [
     145.180148,
     -37.847997
    ]
   },
   "properties": {
    "name": "17 MORAY GROVE VERMONT SOUTH 3133",
    "locID": "LOC000040696882",
    "tech": "HFC",
    "upgrade": "NULL_NA",
    "gnaf_pid": "GAVIC419581844"
   }
  },
  {
   "type": "Feature",
   "geometry": {
    "type": "Point",
    "coordinates": [
     145.18301,
     -37.861055
    ]
   },
   "properties": {
    "name": "7 HIGHMONT DRIVE VERMONT SOUTH 3133",
    "locID": "LOC000053118959",
    "tech": "HFC",
    "upgrade": "NULL_NA",
    "gnaf_pid": "GAVIC419581856"
   }
  },
  {
   "type": "Feature",
   "geometry": {
    "type": "Point",
    "coordinates": [
     145.18269693,
     -37.86269978
    ]
   },
   "properties": {
    "name": "25 HIGHMONT DRIVE VERMONT SOUTH 3133",
    "locID": "LOC000054028469",
    "tech": "HFC",
    "upgrade": "NULL_NA",
    "gnaf_pid": "GAVIC419581857"
   }
  },
  {
   "type": "Feature",
   "geometry": {
    "type": "Point",
    "coordinates": [
     145.178318,
     -37.849862
    ]
   },
   "properties": {
    "name": "2 VOGUE AVENUE VERMONT SOUTH 3133",
    "locID": "LOC000059280408",
    "tech": "HFC",
    "upgrade": "NULL_NA",
    "gnaf_pid": "GAVIC419581862"
   }
  },
  {
   "type": "Feature",
   "geometry": {
    "type": "Point",
    "coordinates": [
     145.178222,
     -37.850545
    ]
   },
   "properties": {
    "name": "10 VOGUE AVENUE VERMONT SOUTH 3133",
    "locID": "LOC000011036980",
    "tech": "HFC",
    "upgrade": "NULL_NA",
    "gnaf_pid": "GAVIC419581864"
   }
  },
  {
   "type": "Feature",
   "geometry": {
    "type": "Point",
    "coordinates": [
     145.178069,
     -37.850723
    ]
   },
   "properties": {
    "name": "12 VOGUE AVENUE VERMONT SOUTH 3133",
    "locID": "LOC000079306897",
    "tech": "HFC",
    "upgrade": "NULL_NA",
    "gnaf_pid": "GAVIC419581866"
   }
  },
  {
   "type": "Feature",
   "geometry": {
    "type": "Point",
    "coordinates": [
     145.186981,
     -37.858079
    ]
   },
   "properties": {
    "name": "9 EXPLORERS COURT VERMONT SOUTH 3133",
    "locID": "LOC000096522985",
    "tech": "HFC",
    "upgrade": "NULL_NA",
    "gnaf_pid": "GAVIC419581913"
   }
  },
  {
   "type": "Feature",
   "geometry": {
    "type": "Point",
    "coordinates": [
     145.184662,
     -37.852546
    ]
   },