{
 "type": "FeatureCollection",
 "generated": "2023-10-25T12:20:24.630250",
 "suburb": "WAIL",
 "features": [
  {
   "type": "Feature",
   "geometry": {
    "type": "Point",
    "coordinates": [
     142.1681202,
     -36.49998861
    ]
   },
   "properties": {
    "name": "2197 GEODETIC ROAD WAIL 3401",
    "locID": "LOC000094003046",
    "tech": "WIRELESS",
    "upgrade": "NULL_NA",
    "gnaf_pid": "GAVIC412533736"
   }
  },
  {
   "type": "Feature",
   "geometry": {
    "type": "Point",
    "coordinates": [
     142.11359655,
     -36.52044818
    ]
   },
   "properties": {
    "name": "101 ROBINS ROAD WAIL 3401",
    "locID": "LOC000030005836",
    "tech": "WIRELESS",
    "upgrade": "NULL_NA",
    "gnaf_pid": "GAVIC422186583"
   }
  },
  {
   "type": "Feature",
   "geometry": {
    "type": "Point",
    "coordinates": [
     142.0909334,
     -36.5389594
    ]
   },
   "properties": {
    "name": "210 BARBERS ROAD WAIL 3401",
    "locID": "LOC000124624198",
    "tech": "WIRELESS",
    "upgrade": "NULL_NA",
    "gnaf_pid": "GAVIC422276057"
   }
  },
  {
   "type": "Feature",
   "geometry": {
    "type": "Point",
    "coordinates": [
     142.0658366,
     -36.56200206
    ]
   },
   "properties": {
    "name": "123 HINNEBERGS ROAD WAIL 3401",
    "locID": "LOC000080641326",
    "tech": "WIRELESS",
    "upgrade": "NULL_NA",
    "gnaf_pid": "GAVIC422298741"
   }
  },
  {
   "type": "Feature",
   "geometry": {
    "type": "Point",
    "coordinates": [
     142.0332656,
     -36.561199
    ]
   },
   "properties": {
    "name": "416 HINNEBERGS ROAD WAIL 3401",
    "locID": "LOC000001958103",
    "tech": "SATELLITE",
    "upgrade": "NULL_NA",
    "gnaf_pid": "GAVIC422298742"
   }
  },
  {
   "type": "Feature",
   "geometry": {
    "type": "Point",
    "coordinates": [
     142.01587995,
     -36.56202528
    ]
   },
   "properties": {
    "name": "571 HINNEBERGS ROAD WAIL 3401",
    "locID": "LOC000030182970",
    "tech": "SATELLITE",
    "upgrade": "NULL_NA",
    "gnaf_pid": "GAVIC422298743"
   }
  },
  {
   "type": "Feature",
   "geometry": {
    "type": "Point",
    "coordinates": [
     142.1579813,
     -36.5286782
    ]
   },
   "properties": {
    "name": "402 REYNOLDS ROAD WAIL 3401",
    "locID": "LOC000022999108",
    "tech": "WIRELESS",
    "upgrade": "NULL_NA",
    "gnaf_pid": "GAVIC422319458"
   }
  },
  {
   "type": "Feature",
   "geometry": {
    "type": "Point",
    "coordinates": [
     142.12443595,
     -36.51626343
    ]
   },
   "properties": {
    "name": "2018 WAIL-DOOEN ROAD WAIL 3401",
    "locID": "LOC000124619861",
    "tech": "WIRELESS",
    "upgrade": "NULL_NA",
    "gnaf_pid": "GAVIC422331576"
   }
  },
  {
   "type": "Feature",
   "geometry": {
    "type": "Point",
    "coordinates": [
     142.04566611,
     -36.57426628
    ]
   },
   "properties": {
    "name": "694 WEST WAIL ROAD WAIL 3401",
    "locID": "LOC000083430519",
    "tech": "SATELLITE",
    "upgrade": "NULL_NA",
    "gnaf_pid": "GAVIC422333433"
   }
  },
  {
   "type": "Feature",
   "geometry": {
    "type": "Point",
    "coordinates": [
     142.0214929,
     -36.57377769
    ]
   },
   "properties": {
    "name": "920 WEST WAIL ROAD WAIL 3401",
    "locID": "LOC000066969439",
    "tech": "SATELLITE",
    "upgrade": "NULL_NA",
    "gnaf_pid": "GAVIC422333434"
   }
  },
  {
   "type": "Feature",
   "geometry": {
    "type": "Point",
    "coordinates": [
     142.115174,
     -36.5464286
    ]
   },
   "properties": {
    "name": "2195 WESTERN HIGHWAY WAIL 3401",
    "locID": "LOC000007806923",
    "tech": "WIRELESS",
    "upgrade": "NULL_NA",
    "gnaf_pid": "GAVIC422333525"
   }
  },
  {
   "type": "Feature",
   "geometry": {
    "type": "Point",
    "coordinates": [
     142.11382434,
     -36.5336689
    ]
   },
   "properties": {
    "name": "2565 WESTERN HIGHWAY WAIL 3401",
    "locID": "ChIJWbBdCatUzmoRtqlUJRv-1LQ",
    "tech": "WIRELESS",
    "upgrade": "UNKNOWN",
    "gnaf_pid": "GAVIC422333526"
   }
  },
  {
   "type": "Feature",
   "geometry": {
    "type": "Point",
    "coordinates": [
     142.10059489,
     -36.50907569
    ]
   },
   "properties": {
    "name": "11 POST OFFICE LANE WAIL 3401",
    "locID": "LOC000007005776",
    "tech": "WIRELESS",
    "upgrade": "NULL_NA",
    "gnaf_pid": "GAVIC423087595"
   }
  },
  {
   "type": "Feature",
   "geometry": {
    "type": "Point",
    "coordinates": [
     142.10027819,
     -36.50890975
    ]
   },
   "properties": {
    "name": "4 POST OFFICE LANE WAIL 3401",
    "locID": "ChIJMZ9WW1Grz2oRVGWoX2eE93k",
    "tech": "WIRELESS",
    "upgrade": "UNKNOWN",
    "gnaf_pid": "GAVIC423087596"
   }
  },
  {
   "type": "Feature",
   "geometry": {
    "type": "Point",
    "coordinates": [
     142.09663795,
     -36.50813195
    ]
   },
   "properties": {
    "name": "11 WATSON STREET WAIL 3401",
    "locID": "LOC000003563185",
    "tech": "WIRELESS",
    "upgrade": "NULL_NA",
    "gnaf_pid": "GAVIC423098143"
   }
  },
  {
   "type": "Feature",
   "geometry": {
    "type": "Point",
    "coordinates": [
     142.14437222,
     -36.53681456
    ]
   },
   "properties": {
    "name": "1549 WAIL-DOOEN ROAD WAIL 3401",
    "locID": "LOC000142818944",
    "tech": "WIRELESS",
    "upgrade": "NULL_NA",
    "gnaf_pid": "GAVIC423160132"
   }
  },
  {
   "type": "Feature",
   "geometry": {
    "type": "Point",
    "coordinates": [
     142.0847398,
     -36.50630022
    ]
   },
   "properties": {
    "name": "127 WAIL NURSERY ROAD WAIL 3401",
    "locID": "LOC000028767060",
    "tech": "SATELLITE",
    "upgrade": "NULL_NA",
    "gnaf_pid": "GAVIC423239323"
   }
  },
  {
   "type": "Feature",
   "geometry": {
    "type": "Point",
    "coordinates": [
     142.100154,
     -36.508054
    ]
   },
   "properties": {
    "name": "70 WAIL NURSERY ROAD WAIL 3401",
    "locID": "ChIJn0e6O1Grz2oROPg2KseiktM",
    "tech": "WIRELESS",
    "upgrade": "UNKNOWN",
    "gnaf_pid": "GAVIC423239324"
   }
  },
  {
   "type": "Feature",
   "geometry": {
    "type": "Point",
    "coordinates": [
     142.099922,
     -36.508218
    ]
   },
   "properties": {
    "name": "71 WAIL NURSERY ROAD WAIL 3401",
    "locID": "LOC000018479395",
    "tech": "WIRELESS",
    "upgrade": "NULL_NA",
    "gnaf_pid": "GAVIC423239325"
   }
  },
  {
   "type": "Feature",
   "geometry": {
    "type": "Point",
    "coordinates": [
     142.09893855,
     -36.55961813
    ]
   },
   "properties": {
    "name": "242 BARTLETTS ROAD WAIL 3401",
    "locID": "LOC000012110147",
    "tech": "WIRELESS",
    "upgrade": "NULL_NA",
    "gnaf_pid": "GAVIC423671715"
   }
  },
  {
   "type": "Feature",
   "geometry": {
    "type": "Point",
    "coordinates": [
     142.11610669,
     -36.5537607
    ]
   },
   "properties": {
    "name": "3 BEDDISONS ROAD WAIL 3401",
    "locID": "LOC000101576301",
    "tech": "WIRELESS",
    "upgrade": "NULL_NA",
    "gnaf_pid": "GAVIC423671858"
   }
  },
  {
   "type": "Feature",
   "geometry": {
    "type": "Point",
    "coordinates": [
     142.10484652,
     -36.53893372
    ]
   },
   "properties": {
    "name": "90 BARBERS ROAD WAIL 3401",
    "locID": "LOC000066350018",
    "tech": "WIRELESS",
    "upgrade": "NULL_NA",
    "gnaf_pid": "GAVIC423716366"
   }
  },
  {
   "type": "Feature",
   "geometry": {
    "type": "Point",
    "coordinates": [
     142.09991479,
     -36.50950673
    ]
   },
   "properties": {
    "name": "10 POST OFFICE LANE WAIL 3401",
    "locID": "LOC000089493051",
    "tech": "WIRELESS",
    "upgrade": "NULL_NA",
    "gnaf_pid": "GAVIC423983889"
   }
  },
  {
   "type": "Feature",
   "geometry": {
    "type": "Point",
    "coordinates": [
     142.1282115,
     -36.53655891
    ]
   },
   "properties": {
    "name": "143 HENNESSYS ROAD WAIL 3401",
    "locID": "LOC000124615159",
    "tech": "WIRELESS",
    "upgrade": "NULL_NA",
    "gnaf_pid": "GAVIC424494206"
   }
  },
  {
   "type": "Feature",
   "geometry": {
    "type": "Point",
    "coordinates": [
     142.1454249,
     -36.5107747
    ]
   },
   "properties": {
    "name": "393 WAIL-KALKEE ROAD WAIL 3401",
    "locID": "ChIJYcYO2uOsz2oRNBLXO2TFFWQ",
    "tech": "WIRELESS",
    "upgrade": "UNKNOWN",
    "gnaf_pid": "GAVIC424507872"
   }
  },
  {
   "type": "Feature",
   "geometry": {
    "type": "Point",
    "coordinates": [
     142.09915457,
     -36.50905666
    ]
   },
   "properties": {
    "name": "31 WATSON STREET WAIL 3401",
    "locID": "LOC100078650278",
    "tech": "WIRELESS",
    "upgrade": "NULL_NA",
    "gnaf_pid": "GAVIC719985216"
   }
  },
  {
   "type": "Feature",
   "geometry": {
    "type": "Point",
    "coordinates": [
     142.08464921,
     -36.5062109
    ]
   },
   "properties": {
    "name": "129 WAIL NURSERY ROAD WAIL 3401",
    "locID": "ChIJF-aOeDWrz2oRJ2WspLL_wvQ",
    "tech": "SATELLITE",
    "upgrade": "UNKNOWN",
    "gnaf_pid": "GAVIC720135988"
   }
  },
  {
   "type": "Feature",
   "geometry": {
    "type": "Point",
    "coordinates": [
     142.09819821,
     -36.5094035
    ]
   },
   "properties": {
    "name": "27 WATSON STREET WAIL 3401",
    "locID": "ChIJ16ufLVKrz2oR5I5IpOctBh0",
    "tech": "WIRELESS",
    "upgrade": "UNKNOWN",
    "gnaf_pid": "GAVIC720578812"
   }
  },
  {
   "type": "Feature",
   "geometry": {
    "type": "Point",
    "coordinates": [
     142.0984987,
     -36.50878857
    ]
   },
   "properties": {
    "name": "11 ELLEN STREET WAIL 3401",
    "locID": "ChIJQSYYf1Grz2oR-se6KDTgDWI",
    "tech": "WIRELESS",
    "upgrade": "UNKNOWN",
    "gnaf_pid": "GAVIC720912531"
   }
  }
 ]
}