{
 "type": "FeatureCollection",
 "generated": "2024-07-07T05:08:40.780507",
 "suburb": "WAIL",
 "features": [
  {
   "type": "Feature",
   "geometry": {
    "type": "Point",
    "coordinates": [
     142.1681202,
     -36.49998861
    ]
   },
   "properties": {
    "name": "2197 GEODETIC ROAD WAIL 3401",
    "locID": "LOC000094003046",
    "tech": "WIRELESS",
    "upgrade": "NULL_NA",
    "gnaf_pid": "GAVIC412533736",
    "tech_change_status": "Not Planned",
    "program_type": "Fixed Wireless and Satellite Upgrade Program",
    "target_eligibility_quarter": "Dec 2024"
   }
  },
  {
   "type": "Feature",
   "geometry": {
    "type": "Point",
    "coordinates": [
     142.11359655,
     -36.52044818
    ]
   },
   "properties": {
    "name": "101 ROBINS ROAD WAIL 3401",
    "locID": "LOC000030005836",
    "tech": "WIRELESS",
    "upgrade": "NULL_NA",
    "gnaf_pid": "GAVIC422186583",
    "tech_change_status": "Not Planned",
    "program_type": "Fixed Wireless and Satellite Upgrade Program",
    "target_eligibility_quarter": "Dec 2024"
   }
  },
  {
   "type": "Feature",
   "geometry": {
    "type": "Point",
    "coordinates": [
     142.0909334,
     -36.5389594
    ]
   },
   "properties": {
    "name": "210 BARBERS ROAD WAIL 3401",
    "locID": "LOC000124624198",
    "tech": "WIRELESS",
    "upgrade": "NULL_NA",
    "gnaf_pid": "GAVIC422276057",
    "tech_change_status": "Not Planned",
    "program_type": "Fixed Wireless and Satellite Upgrade Program",
    "target_eligibility_quarter": "Dec 2024"
   }
  },
  {
   "type": "Feature",
   "geometry": {
    "type": "Point",
    "coordinates": [
     142.0658366,
     -36.56200206
    ]
   },
   "properties": {
    "name": "123 HINNEBERGS ROAD WAIL 3401",
    "locID": "LOC000080641326",
    "tech": "WIRELESS",
    "upgrade": "NULL_NA",
    "gnaf_pid": "GAVIC422298741",
    "tech_change_status": "Not Planned",
    "program_type": "Fixed Wireless and Satellite Upgrade Program",
    "target_eligibility_quarter": "Dec 2024"
   }
  },
  {
   "type": "Feature",
   "geometry": {
    "type": "Point",
    "coordinates": [
     142.0332656,
     -36.561199
    ]
   },
   "properties": {
    "name": "416 HINNEBERGS ROAD WAIL 3401",
    "locID": "LOC000001958103",
    "tech": "SATELLITE",
    "upgrade": "NULL_NA",
    "gnaf_pid": "GAVIC422298742",
    "tech_change_status": "Not Planned"
   }
  },
  {
   "type": "Feature",
   "geometry": {
    "type": "Point",
    "coordinates": [
     142.01587995,
     -36.56202528
    ]
   },
   "properties": {
    "name": "571 HINNEBERGS ROAD WAIL 3401",
    "locID": "LOC000030182970",
    "tech": "SATELLITE",
    "upgrade": "NULL_NA",
    "gnaf_pid": "GAVIC422298743",
    "tech_change_status": "Not Planned"
   }
  },
  {
   "type": "Feature",
   "geometry": {
    "type": "Point",
    "coordinates": [
     142.1579813,
     -36.5286782
    ]
   },
   "properties": {
    "name": "402 REYNOLDS ROAD WAIL 3401",
    "locID": "LOC000022999108",
    "tech": "WIRELESS",
    "upgrade": "NULL_NA",
    "gnaf_pid": "GAVIC422319458",
    "tech_change_status": "Not Planned",
    "program_type": "Fixed Wireless and Satellite Upgrade Program",
    "target_eligibility_quarter": "Dec 2024"
   }
  },
  {
   "type": "Feature",
   "geometry": {
    "type": "Point",
    "coordinates": [
     142.12443595,
     -36.51626343
    ]
   },
   "properties": {
    "name": "2018 WAIL-DOOEN ROAD WAIL 3401",
    "locID": "LOC000124619861",
    "tech": "WIRELESS",
    "upgrade": "NULL_NA",
    "gnaf_pid": "GAVIC422331576",
    "tech_change_status": "Not Planned",
    "program_type": "Fixed Wireless and Satellite Upgrade Program",
    "target_eligibility_quarter": "Dec 2024"
   }
  },
  {
   "type": "Feature",
   "geometry": {
    "type": "Point",
    "coordinates": [
     142.04566611,
     -36.57426628
    ]
   },
   "properties": {
    "name": "694 WEST WAIL ROAD WAIL 3401",
    "locID": "LOC000083430519",
    "tech": "SATELLITE",
    "upgrade": "NULL_NA",
    "gnaf_pid": "GAVIC422333433",
    "tech_change_status": "Not Planned"
   }
  },
  {
   "type": "Feature",
   "geometry": {
    "type": "Point",
    "coordinates": [
     142.0214929,
     -36.57377769
    ]
   },
   "properties": {
    "name": "920 WEST WAIL ROAD WAIL 3401",
    "locID": "LOC000066969439",
    "tech": "SATELLITE",
    "upgrade": "NULL_NA",
    "gnaf_pid": "GAVIC422333434",
    "tech_change_status": "Not Planned"
   }
  },
  {
   "type": "Feature",
   "geometry": {
    "type": "Point",
    "coordinates": [
     142.115174,
     -36.5464286
    ]
   },
   "properties": {
    "name": "2195 WESTERN HIGHWAY WAIL 3401",
    "locID": "LOC000007806923",
    "tech": "WIRELESS",
    "upgrade": "NULL_NA",
    "gnaf_pid": "GAVIC422333525",
    "tech_change_status": "Not Planned",
    "program_type": "Fixed Wireless and Satellite Upgrade Program",
    "target_eligibility_quarter": "Dec 2024"
   }
  },
  {
   "type": "Feature",
   "geometry": {
    "type": "Point",
    "coordinates": [
     142.10059489,
     -36.50907569
    ]
   },
   "properties": {
    "name": "11 POST OFFICE LANE WAIL 3401",
    "locID": "LOC000007005776",
    "tech": "WIRELESS",
    "upgrade": "NULL_NA",
    "gnaf_pid": "GAVIC423087595",
    "tech_change_status": "Not Planned",
    "program_type": "Fixed Wireless and Satellite Upgrade Program",
    "target_eligibility_quarter": "Dec 2024"
   }
  },
  {
   "type": "Feature",
   "geometry": {
    "type": "Point",
    "coordinates": [
     142.09663795,
     -36.50813195
    ]
   },
   "properties": {
    "name": "11 WATSON STREET WAIL 3401",
    "locID": "LOC000003563185",
    "tech": "WIRELESS",
    "upgrade": "NULL_NA",
    "gnaf_pid": "GAVIC423098143",
    "tech_change_status": "Not Planned",
    "program_type": "Fixed Wireless and Satellite Upgrade Program",
    "target_eligibility_quarter": "Dec 2024"
   }
  },
  {
   "type": "Feature",
   "geometry": {
    "type": "Point",
    "coordinates": [
     142.14437222,
     -36.53681456
    ]
   },
   "properties": {
    "name": "1549 WAIL-DOOEN ROAD WAIL 3401",
    "locID": "LOC000142818944",
    "tech": "WIRELESS",
    "upgrade": "NULL_NA",
    "gnaf_pid": "GAVIC423160132",
    "tech_change_status": "Not Planned",
    "program_type": "Fixed Wireless and Satellite Upgrade Program",
    "target_eligibility_quarter": "Dec 2024"
   }
  },
  {
   "type": "Feature",
   "geometry": {
    "type": "Point",
    "coordinates": [
     142.0847398,
     -36.50630022
    ]
   },
   "properties": {
    "name": "127 WAIL NURSERY ROAD WAIL 3401",
    "locID": "LOC000028767060",
    "tech": "SATELLITE",
    "upgrade": "NULL_NA",
    "gnaf_pid": "GAVIC423239323",
    "tech_change_status": "Not Planned"
   }
  },
  {
   "type": "Feature",
   "geometry": {
    "type": "Point",
    "coordinates": [
     142.099922,
     -36.508218
    ]
   },
   "properties": {
    "name": "71 WAIL NURSERY ROAD WAIL 3401",
    "locID": "LOC000018479395",
    "tech": "WIRELESS",
    "upgrade": "NULL_NA",
    "gnaf_pid": "GAVIC423239325",
    "tech_change_status": "Not Planned",
    "program_type": "Fixed Wireless and Satellite Upgrade Program",
    "target_eligibility_quarter": "Dec 2024"
   }
  },
  {
   "type": "Feature",
   "geometry": {
    "type": "Point",
    "coordinates": [
     142.09893855,
     -36.55961813
    ]
   },
   "properties": {
    "name": "242 BARTLETTS ROAD WAIL 3401",
    "locID": "LOC000012110147",
    "tech": "WIRELESS",
    "upgrade": "NULL_NA",
    "gnaf_pid": "GAVIC423671715",
    "tech_change_status": "Not Planned",
    "program_type": "Fixed Wireless and Satellite Upgrade Program",
    "target_eligibility_quarter": "Dec 2024"
   }
  },
  {
   "type": "Feature",
   "geometry": {
    "type": "Point",
    "coordinates": [
     142.11610669,
     -36.5537607
    ]
   },
   "properties": {
    "name": "3 BEDDISONS ROAD WAIL 3401",
    "locID": "LOC000101576301",
    "tech": "WIRELESS",
    "upgrade": "NULL_NA",
    "gnaf_pid": "GAVIC423671858",
    "tech_change_status": "Not Planned",
    "program_type": "Fixed Wireless and Satellite Upgrade Program",
    "target_eligibility_quarter": "Dec 2024"
   }
  },
  {
   "type": "Feature",
   "geometry": {
    "type": "Point",
    "coordinates": [
     142.10484652,
     -36.53893372
    ]
   },
   "properties": {
    "name": "90 BARBERS ROAD WAIL 3401",
    "locID": "LOC000066350018",
    "tech": "WIRELESS",
    "upgrade": "NULL_NA",
    "gnaf_pid": "GAVIC423716366",
    "tech_change_status": "Not Planned",
    "program_type": "Fixed Wireless and Satellite Upgrade Program",
    "target_eligibility_quarter": "Dec 2024"
   }
  },
  {
   "type": "Feature",
   "geometry": {
    "type": "Point",
    "coordinates": [
     142.09991479,
     -36.50950673
    ]
   },
   "properties": {
    "name": "10 POST OFFICE LANE WAIL 3401",
    "locID": "LOC000089493051",
    "tech": "WIRELESS",
    "upgrade": "NULL_NA",
    "gnaf_pid": "GAVIC423983889",
    "tech_change_status": "Not Planned",
    "program_type": "Fixed Wireless and Satellite Upgrade Program",
    "target_eligibility_quarter": "Dec 2024"
   }
  },
  {
   "type": "Feature",
   "geometry": {
    "type": "Point",
    "coordinates": [
     142.1282115,
     -36.53655891
    ]
   },
   "properties": {
    "name": "143 HENNESSYS ROAD WAIL 3401",
    "locID": "LOC000124615159",
    "tech": "WIRELESS",
    "upgrade": "NULL_NA",
    "gnaf_pid": "GAVIC424494206",
    "tech_change_status": "Not Planned",
    "program_type": "Fixed Wireless and Satellite Upgrade Program",
    "target_eligibility_quarter": "Dec 2024"
   }
  },
  {
   "type": "Feature",
   "geometry": {
    "type": "Point",
    "coordinates": [
     142.09915457,
     -36.50905666
    ]
   },
   "properties": {
    "name": "31 WATSON STREET WAIL 3401",
    "locID": "LOC100078650278",
    "tech": "WIRELESS",
    "upgrade": "NULL_NA",
    "gnaf_pid": "GAVIC719985216",
    "tech_change_status": "Not Planned",
    "program_type": "Fixed Wireless and Satellite Upgrade Program",
    "target_eligibility_quarter": "Dec 2024"
   }
  }
 ]
}