{
 "type": "FeatureCollection",
 "generated": "2023-10-25T12:40:24.169637",
 "suburb": "WANALTA",
 "features": [
  {
   "type": "Feature",
   "geometry": {
    "type": "Point",
    "coordinates": [
     144.93176094,
     -36.61253913
    ]
   },
   "properties": {
    "name": "188 GEODETIC ROAD SOUTH WANALTA 3612",
    "locID": "ChIJT8F9xdk32GoRwq-i-bsuqgk",
    "tech": "WIRELESS",
    "upgrade": "UNKNOWN",
    "gnaf_pid": "GAVIC412539404"
   }
  },
  {
   "type": "Feature",
   "geometry": {
    "type": "Point",
    "coordinates": [
     144.89242355,
     -36.59629272
    ]
   },
   "properties": {
    "name": "3135 BENDIGO-MURCHISON ROAD WANALTA 3612",
    "locID": "LOC000101509396",
    "tech": "WIRELESS",
    "upgrade": "NULL_NA",
    "gnaf_pid": "GAVIC420275621"
   }
  },
  {
   "type": "Feature",
   "geometry": {
    "type": "Point",
    "coordinates": [
     144.91956561,
     -36.59621999
    ]
   },
   "properties": {
    "name": "3380 BENDIGO-MURCHISON ROAD WANALTA 3612",
    "locID": "LOC000002006237",
    "tech": "WIRELESS",
    "upgrade": "NULL_NA",
    "gnaf_pid": "GAVIC420275622"
   }
  },
  {
   "type": "Feature",
   "geometry": {
    "type": "Point",
    "coordinates": [
     144.89142437,
     -36.58289935
    ]
   },
   "properties": {
    "name": "735 DEPOT ROAD WANALTA 3612",
    "locID": "LOC000047423286",
    "tech": "WIRELESS",
    "upgrade": "NULL_NA",
    "gnaf_pid": "GAVIC420580356"
   }
  },
  {
   "type": "Feature",
   "geometry": {
    "type": "Point",
    "coordinates": [
     144.88637344,
     -36.59598725
    ]
   },
   "properties": {
    "name": "3077 BENDIGO-MURCHISON ROAD WANALTA 3612",
    "locID": "LOC000002801562",
    "tech": "WIRELESS",
    "upgrade": "NULL_NA",
    "gnaf_pid": "GAVIC420868406"
   }
  },
  {
   "type": "Feature",
   "geometry": {
    "type": "Point",
    "coordinates": [
     144.88705999,
     -36.6060582
    ]
   },
   "properties": {
    "name": "104 REID ROAD WANALTA 3612",
    "locID": "LOC000038751004",
    "tech": "SATELLITE",
    "upgrade": "NULL_NA",
    "gnaf_pid": "GAVIC420868407"
   }
  },
  {
   "type": "Feature",
   "geometry": {
    "type": "Point",
    "coordinates": [
     144.88704654,
     -36.6085997
    ]
   },
   "properties": {
    "name": "134 REID ROAD WANALTA 3612",
    "locID": "LOC000056072081",
    "tech": "SATELLITE",
    "upgrade": "NULL_NA",
    "gnaf_pid": "GAVIC420928005"
   }
  },
  {
   "type": "Feature",
   "geometry": {
    "type": "Point",
    "coordinates": [
     144.88617641,
     -36.60333083
    ]
   },
   "properties": {
    "name": "74 REID ROAD WANALTA 3612",
    "locID": "LOC000106807634",
    "tech": "WIRELESS",
    "upgrade": "NULL_NA",
    "gnaf_pid": "GAVIC420963968"
   }
  },
  {
   "type": "Feature",
   "geometry": {
    "type": "Point",
    "coordinates": [
     144.9051931,
     -36.6279472
    ]
   },
   "properties": {
    "name": "573 HEATHCOTE-MOORA ROAD WANALTA 3612",
    "locID": "LOC000045485833",
    "tech": "SATELLITE",
    "upgrade": "NULL_NA",
    "gnaf_pid": "GAVIC421271624"
   }
  },
  {
   "type": "Feature",
   "geometry": {
    "type": "Point",
    "coordinates": [
     144.88627708,
     -36.59132568
    ]
   },
   "properties": {
    "name": "58 HARLEY ROAD WANALTA 3612",
    "locID": "LOC000019463567",
    "tech": "WIRELESS",
    "upgrade": "NULL_NA",
    "gnaf_pid": "GAVIC421500405"
   }
  },
  {
   "type": "Feature",
   "geometry": {
    "type": "Point",
    "coordinates": [
     144.88707739,
     -36.59804574
    ]
   },
   "properties": {
    "name": "16 REID ROAD WANALTA 3612",
    "locID": "LOC000065608186",
    "tech": "SATELLITE",
    "upgrade": "NULL_NA",
    "gnaf_pid": "GAVIC421588441"
   }
  },
  {
   "type": "Feature",
   "geometry": {
    "type": "Point",
    "coordinates": [
     144.9317885,
     -36.5713126
    ]
   },
   "properties": {
    "name": "257 GEODETIC ROAD NORTH WANALTA 3612",
    "locID": "LOC000020427159",
    "tech": "WIRELESS",
    "upgrade": "NULL_NA",
    "gnaf_pid": "GAVIC423141445"
   }
  },
  {
   "type": "Feature",
   "geometry": {
    "type": "Point",
    "coordinates": [
     144.9317742,
     -36.56179424
    ]
   },
   "properties": {
    "name": "381 GEODETIC ROAD NORTH WANALTA 3612",
    "locID": "LOC000071745791",
    "tech": "WIRELESS",
    "upgrade": "NULL_NA",
    "gnaf_pid": "GAVIC423141446"
   }
  },
  {
   "type": "Feature",
   "geometry": {
    "type": "Point",
    "coordinates": [
     144.91670498,
     -36.62319183
    ]
   },
   "properties": {
    "name": "445 HEATHCOTE-MOORA ROAD WANALTA 3612",
    "locID": "LOC000106651116",
    "tech": "WIRELESS",
    "upgrade": "NULL_NA",
    "gnaf_pid": "GAVIC423706249"
   }
  },
  {
   "type": "Feature",
   "geometry": {
    "type": "Point",
    "coordinates": [
     144.91322255,
     -36.6034639
    ]
   },
   "properties": {
    "name": "229 GUY ROAD WANALTA 3612",
    "locID": "LOC000088418695",
    "tech": "WIRELESS",
    "upgrade": "NULL_NA",
    "gnaf_pid": "GAVIC423792342"
   }
  },
  {
   "type": "Feature",
   "geometry": {
    "type": "Point",
    "coordinates": [
     144.88134539,
     -36.63431228
    ]
   },
   "properties": {
    "name": "1217 CORNELLA CHURCH ROAD WANALTA 3612",
    "locID": "ChIJKcSxUHw22GoRqvRtjfZg0ao",
    "tech": "WIRELESS",
    "upgrade": "UNKNOWN",
    "gnaf_pid": "GAVIC425158051"
   }
  }
 ]
}