{
 "type": "FeatureCollection",
 "generated": "2023-09-25T23:31:08.232866",
 "suburb": "WARBURTON",
 "features": [
  {
   "type": "Feature",
   "geometry": {
    "type": "Point",
    "coordinates": [
     145.68703999,
     -37.7552161
    ]
   },
   "properties": {
    "name": "30 STATION ROAD WARBURTON 3799",
    "locID": "LOC000041464743",
    "tech": "FTTN",
    "upgrade": "NULL_NA",
    "gnaf_pid": "GAVIC412525878"
   }
  },
  {
   "type": "Feature",
   "geometry": {
    "type": "Point",
    "coordinates": [
     145.70247686,
     -37.75230147
    ]
   },
   "properties": {
    "name": "5 WOODS POINT ROAD WARBURTON 3799",
    "locID": "LOC000153316557",
    "tech": "FTTN",
    "upgrade": "NULL_NA",
    "gnaf_pid": "GAVIC412525879"
   }
  },
  {
   "type": "Feature",
   "geometry": {
    "type": "Point",
    "coordinates": [
     145.7078031,
     -37.7466582
    ]
   },
   "properties": {
    "name": "53 DONNA BUANG ROAD WARBURTON 3799",
    "locID": "LOC000023458017",
    "tech": "FTTN",
    "upgrade": "NULL_NA",
    "gnaf_pid": "GAVIC412525883"
   }
  },
  {
   "type": "Feature",
   "geometry": {
    "type": "Point",
    "coordinates": [
     145.70539207,
     -37.749665
    ]
   },
   "properties": {
    "name": "12 SALISBURY AVENUE WARBURTON 3799",
    "locID": "LOC000094104721",
    "tech": "FTTN",
    "upgrade": "NULL_NA",
    "gnaf_pid": "GAVIC412525885"
   }
  },
  {
   "type": "Feature",
   "geometry": {
    "type": "Point",
    "coordinates": [
     145.6914228,
     -37.75064135
    ]
   },
   "properties": {
    "name": "7 HAND STREET WARBURTON 3799",
    "locID": "LOC000046079184",
    "tech": "FTTN",
    "upgrade": "NULL_NA",
    "gnaf_pid": "GAVIC412525892"
   }
  },
  {
   "type": "Feature",
   "geometry": {
    "type": "Point",
    "coordinates": [
     145.69118575,
     -37.75056661
    ]
   },
   "properties": {
    "name": "9 HAND STREET WARBURTON 3799",
    "locID": "LOC000061168755",
    "tech": "FTTN",
    "upgrade": "NULL_NA",
    "gnaf_pid": "GAVIC412525896"
   }
  },
  {
   "type": "Feature",
   "geometry": {
    "type": "Point",
    "coordinates": [
     145.70841495,
     -37.75520894
    ]
   },
   "properties": {
    "name": "2 GIFFORDS ROAD WARBURTON 3799",
    "locID": "LOC000011919567",
    "tech": "FTTN",
    "upgrade": "NULL_NA",
    "gnaf_pid": "GAVIC412525901"
   }
  },
  {
   "type": "Feature",
   "geometry": {
    "type": "Point",
    "coordinates": [
     145.70997032,
     -37.75571394
    ]
   },
   "properties": {
    "name": "23 PHEASANT PARADE WARBURTON 3799",
    "locID": "ChIJrVD2B-MyKGsRMp4VKzTYMiQ",
    "tech": "FTTN",
    "upgrade": "UNKNOWN",
    "gnaf_pid": "GAVIC412529336"
   }
  },
  {
   "type": "Feature",
   "geometry": {
    "type": "Point",
    "coordinates": [
     145.68834143,
     -37.75551313
    ]
   },
   "properties": {
    "name": "2A CROOM STREET WARBURTON 3799",
    "locID": "LOC000031057664",
    "tech": "FTTN",
    "upgrade": "NULL_NA",
    "gnaf_pid": "GAVIC412529339"
   }
  },
  {
   "type": "Feature",
   "geometry": {
    "type": "Point",
    "coordinates": [
     145.71790994,
     -37.75307214
    ]
   },
   "properties": {
    "name": "40 GIFFORDS ROAD WARBURTON 3799",
    "locID": "LOC000078087695",
    "tech": "SATELLITE",
    "upgrade": "NULL_NA",
    "gnaf_pid": "GAVIC412529358"
   }
  },
  {
   "type": "Feature",
   "geometry": {
    "type": "Point",
    "coordinates": [
     145.68385654,
     -37.75870454
    ]
   },
   "properties": {
    "name": "25 ALPINE STREET WARBURTON 3799",
    "locID": "LOC000054346678",
    "tech": "FTTN",
    "upgrade": "NULL_NA",
    "gnaf_pid": "GAVIC412529371"
   }
  },
  {
   "type": "Feature",
   "geometry": {
    "type": "Point",
    "coordinates": [
     145.67563165,
     -37.74529193
    ]
   },
   "properties": {
    "name": "22 YORK STREET WARBURTON 3799",
    "locID": "ChIJUavm6JsyKGsRIJz5UGgSKQE",
    "tech": "FTTN",
    "upgrade": "UNKNOWN",
    "gnaf_pid": "GAVIC412534286"
   }
  },
  {
   "type": "Feature",
   "geometry": {
    "type": "Point",
    "coordinates": [
     145.68493724,
     -37.75009221
    ]
   },
   "properties": {
    "name": "42 WELLINGTON ROAD WARBURTON 3799",
    "locID": "LOC000101130249",
    "tech": "FTTN",
    "upgrade": "NULL_NA",
    "gnaf_pid": "GAVIC412534287"
   }
  },
  {
   "type": "Feature",
   "geometry": {
    "type": "Point",
    "coordinates": [
     145.6921251,
     -37.75011313
    ]
   },
   "properties": {
    "name": "6 HAND STREET WARBURTON 3799",
    "locID": "LOC000100635428",
    "tech": "FTTN",
    "upgrade": "NULL_NA",
    "gnaf_pid": "GAVIC412534290"
   }
  },
  {
   "type": "Feature",
   "geometry": {
    "type": "Point",
    "coordinates": [
     145.68361478,
     -37.75818745
    ]
   },
   "properties": {
    "name": "45 SCOTCHMANS CREEK ROAD WARBURTON 3799",
    "locID": "LOC000067677680",
    "tech": "FTTN",
    "upgrade": "NULL_NA",
    "gnaf_pid": "GAVIC412534477"
   }
  },
  {
   "type": "Feature",
   "geometry": {
    "type": "Point",
    "coordinates": [
     145.68769951,
     -37.75515135
    ]
   },
   "properties": {
    "name": "36 STATION ROAD WARBURTON 3799",
    "locID": "LOC000005287501",
    "tech": "FTTN",
    "upgrade": "NULL_NA",
    "gnaf_pid": "GAVIC412534478"
   }
  },
  {
   "type": "Feature",
   "geometry": {
    "type": "Point",
    "coordinates": [
     145.70616398,
     -37.7495713
    ]
   },
   "properties": {
    "name": "3 SALISBURY AVENUE WARBURTON 3799",
    "locID": "LOC000015612839",
    "tech": "FTTN",
    "upgrade": "NULL_NA",
    "gnaf_pid": "GAVIC412534479"
   }
  },
  {
   "type": "Feature",
   "geometry": {
    "type": "Point",
    "coordinates": [
     145.70558013,
     -37.7568264
    ]
   },
   "properties": {
    "name": "17 FERNTREE AVENUE WARBURTON 3799",
    "locID": "ChIJnSEKg-YyKGsR5vCrM9uoJqQ",
    "tech": "FTTN",
    "upgrade": "UNKNOWN",
    "gnaf_pid": "GAVIC412534485"
   }
  },
  {
   "type": "Feature",
   "geometry": {
    "type": "Point",
    "coordinates": [
     145.70367115,
     -37.75472945
    ]
   },
   "properties": {
    "name": "6 KELLYS ROAD WARBURTON 3799",
    "locID": "ChIJzz7fv-UyKGsRVGGfi6uxvfw",
    "tech": "FTTN",
    "upgrade": "UNKNOWN",
    "gnaf_pid": "GAVIC412534486"
   }
  },
  {
   "type": "Feature",
   "geometry": {
    "type": "Point",
    "coordinates": [
     145.7075538,
     -37.74933714
    ]
   },
   "properties": {
    "name": "40 DONNA BUANG ROAD WARBURTON 3799",
    "locID": "ChIJC-rhi_syKGsRUXj6zaqYDtM",
    "tech": "FTTN",
    "upgrade": "UNKNOWN",
    "gnaf_pid": "GAVIC412534499"
   }
  },
  {
   "type": "Feature",
   "geometry": {
    "type": "Point",
    "coordinates": [
     145.70293188,
     -37.74745836
    ]
   },
   "properties": {
    "name": "10 ANDERSONS AVENUE WARBURTON 3799",
    "locID": "LOC000103231126",
    "tech": "FTTN",
    "upgrade": "NULL_NA",
    "gnaf_pid": "GAVIC412534502"
   }
  },
  {
   "type": "Feature",
   "geometry": {
    "type": "Point",
    "coordinates": [
     145.71440376,
     -37.74724153
    ]
   },
   "properties": {
    "name": "135 WOODS POINT ROAD WARBURTON 3799",
    "locID": "LOC000083188360",
    "tech": "FTTN",
    "upgrade": "NULL_NA",
    "gnaf_pid": "GAVIC412534515"
   }
  },
  {
   "type": "Feature",
   "geometry": {
    "type": "Point",
    "coordinates": [
     145.66892655,
     -37.7544001
    ]
   },
   "properties": {
    "name": "3195 WARBURTON HIGHWAY WARBURTON 3799",
    "locID": "LOC000041142050",
    "tech": "FTTN",
    "upgrade": "NULL_NA",
    "gnaf_pid": "GAVIC412534648"
   }
  },
  {
   "type": "Feature",
   "geometry": {
    "type": "Point",
    "coordinates": [
     145.70891005,
     -37.74775196
    ]
   },
   "properties": {
    "name": "2A FERNDALE ROAD WARBURTON 3799",
    "locID": "LOC000034956666",
    "tech": "FTTN",
    "upgrade": "NULL_NA",
    "gnaf_pid": "GAVIC412534654"
   }
  },
  {
   "type": "Feature",
   "geometry": {
    "type": "Point",
    "coordinates": [
     145.70112651,
     -37.75979739
    ]
   },
   "properties": {
    "name": "11A OLD WARBURTON ROAD WARBURTON 3799",
    "locID": "LOC000046497577",
    "tech": "FTTN",
    "upgrade": "NULL_NA",
    "gnaf_pid": "GAVIC412534661"
   }
  },
  {
   "type": "Feature",
   "geometry": {
    "type": "Point",
    "coordinates": [
     145.70482333,
     -37.74700403
    ]
   },
   "properties": {
    "name": "25 YUONGA ROAD WARBURTON 3799",
    "locID": "LOC000029251730",
    "tech": "FTTN",
    "upgrade": "NULL_NA",
    "gnaf_pid": "GAVIC412536688"
   }
  },
  {
   "type": "Feature",
   "geometry": {
    "type": "Point",
    "coordinates": [
     145.69874562,
     -37.74990228
    ]
   },
   "properties": {
    "name": "50A BLACKWOOD AVENUE WARBURTON 3799",
    "locID": "LOC000001940715",
    "tech": "FTTN",
    "upgrade": "NULL_NA",
    "gnaf_pid": "GAVIC412536694"
   }
  },
  {
   "type": "Feature",
   "geometry": {
    "type": "Point",
    "coordinates": [
     145.7075521,
     -37.74986201
    ]
   },
   "properties": {
    "name": "1 YUONGA ROAD WARBURTON 3799",
    "locID": "LOC000102342949",
    "tech": "FTTN",
    "upgrade": "NULL_NA",
    "gnaf_pid": "GAVIC412536697"
   }
  },
  {
   "type": "Feature",
   "geometry": {
    "type": "Point",
    "coordinates": [
     145.67546018,
     -37.75441706
    ]
   },
   "properties": {
    "name": "4 SURREY ROAD WARBURTON 3799",
    "locID": "LOC000002758076",
    "tech": "FTTN",
    "upgrade": "NULL_NA",
    "gnaf_pid": "GAVIC412538369"
   }
  },
  {
   "type": "Feature",
   "geometry": {
    "type": "Point",
    "coordinates": [
     145.68059629,
     -37.75535105
    ]
   },
   "properties": {
    "name": "3312 WARBURTON HIGHWAY WARBURTON 3799",
    "locID": "LOC000060654184",
    "tech": "FTTN",
    "upgrade": "NULL_NA",
    "gnaf_pid": "GAVIC412538379"
   }
  },
  {
   "type": "Feature",
   "geometry": {
    "type": "Point",
    "coordinates": [
     145.70591962,
     -37.75859235
    ]
   },
   "properties": {
    "name": "17 BRIDES PARADE WARBURTON 3799",
    "locID": "ChIJJXEI5eYyKGsRzbWPYdGn8gE",
    "tech": "SATELLITE",
    "upgrade": "UNKNOWN",
    "gnaf_pid": "GAVIC412538380"
   }
  },
  {
   "type": "Feature",
   "geometry": {
    "type": "Point",
    "coordinates": [
     145.69092116,
     -37.75137055
    ]
   },
   "properties": {
    "name": "13 RICHARDS ROAD WARBURTON 3799",
    "locID": "LOC000047888430",
    "tech": "FTTN",
    "upgrade": "NULL_NA",
    "gnaf_pid": "GAVIC412539922"
   }
  },
  {
   "type": "Feature",
   "geometry": {
    "type": "Point",
    "coordinates": [
     145.69131372,
     -37.75216251
    ]
   },
   "properties": {
    "name": "39 DAMMANS ROAD WARBURTON 3799",
    "locID": "ChIJF-anVusyKGsRMBfdZEn4AWQ",
    "tech": "FTTN",
    "upgrade": "UNKNOWN",
    "gnaf_pid": "GAVIC412539924"
   }
  },
  {
   "type": "Feature",
   "geometry": {
    "type": "Point",
    "coordinates": [
     145.67636105,
     -37.74837162
    ]
   },
   "properties": {
    "name": "17 DEVON STREET WARBURTON 3799",
    "locID": "ChIJKxPHE5kyKGsR0FiAcMlwA6g",
    "tech": "FTTN",
    "upgrade": "UNKNOWN",
    "gnaf_pid": "GAVIC412539933"
   }
  },
  {
   "type": "Feature",
   "geometry": {
    "type": "Point",
    "coordinates": [
     145.69211384,
     -37.7507117
    ]
   },
   "properties": {
    "name": "3 HAND STREET WARBURTON 3799",
    "locID": "LOC000042362870",
    "tech": "FTTN",
    "upgrade": "NULL_NA",
    "gnaf_pid": "GAVIC412539979"
   }
  },
  {
   "type": "Feature",
   "geometry": {
    "type": "Point",
    "coordinates": [
     145.69303151,
     -37.74975459
    ]
   },
   "properties": {
    "name": "2 BRISBANE HILL ROAD WARBURTON 3799",
    "locID": "LOC000039026544",
    "tech": "FTTN",
    "upgrade": "NULL_NA",
    "gnaf_pid": "GAVIC412540446"
   }
  },
  {
   "type": "Feature",
   "geometry": {
    "type": "Point",
    "coordinates": [
     145.68887346,
     -37.75359623
    ]
   },
   "properties": {
    "name": "3399 WARBURTON HIGHWAY WARBURTON 3799",
    "locID": "LOC000042482989",
    "tech": "FTTN",
    "upgrade": "NULL_NA",
    "gnaf_pid": "GAVIC412540514"
   }
  },
  {
   "type": "Feature",
   "geometry": {
    "type": "Point",
    "coordinates": [
     145.6778339,
     -37.74693869
    ]
   },
   "properties": {
    "name": "58 SURREY ROAD WARBURTON 3799",
    "locID": "LOC000046695325",
    "tech": "FTTP",
    "upgrade": "NULL_NA",
    "gnaf_pid": "GAVIC412540516"
   }
  },
  {
   "type": "Feature",
   "geometry": {
    "type": "Point",
    "coordinates": [
     145.68713824,
     -37.75415371
    ]
   },
   "properties": {
    "name": "3371 WARBURTON HIGHWAY WARBURTON 3799",
    "locID": "LOC000090859925",
    "tech": "FTTN",
    "upgrade": "NULL_NA",
    "gnaf_pid": "GAVIC412543603"
   }
  },
  {
   "type": "Feature",
   "geometry": {
    "type": "Point",
    "coordinates": [
     145.68470939,
     -37.75495046
    ]
   },
   "properties": {
    "name": "UNIT 2, 3344 WARBURTON HIGHWAY WARBURTON 3799",
    "locID": "LOC000052518676",
    "tech": "FTTN",
    "upgrade": "NULL_NA",
    "gnaf_pid": "GAVIC412543604"
   }
  },
  {
   "type": "Feature",
   "geometry": {
    "type": "Point",
    "coordinates": [
     145.68726714,
     -37.75520963
    ]
   },
   "properties": {
    "name": "32 STATION ROAD WARBURTON 3799",
    "locID": "LOC000024334956",
    "tech": "FTTN",
    "upgrade": "NULL_NA",
    "gnaf_pid": "GAVIC412545743"
   }
  },
  {
   "type": "Feature",
   "geometry": {
    "type": "Point",
    "coordinates": [
     145.6985282,
     -37.7636081
    ]
   },
   "properties": {
    "name": "5 AZALEA COURT WARBURTON 3799",
    "locID": "LOC000045036536",
    "tech": "FTTN",
    "upgrade": "NULL_NA",
    "gnaf_pid": "GAVIC412545744"
   }
  },
  {
   "type": "Feature",
   "geometry": {
    "type": "Point",
    "coordinates": [
     145.71074042,
     -37.74598435
    ]
   },
   "properties": {
    "name": "11 FERNDALE ROAD WARBURTON 3799",
    "locID": "LOC000092682464",
    "tech": "FTTN",
    "upgrade": "NULL_NA",
    "gnaf_pid": "GAVIC412545746"
   }
  },
  {
   "type": "Feature",
   "geometry": {
    "type": "Point",
    "coordinates": [
     145.69606956,
     -37.74913559
    ]
   },
   "properties": {
    "name": "15 BRISBANE PARADE WARBURTON 3799",
    "locID": "LOC000065704684",
    "tech": "FTTN",
    "upgrade": "NULL_NA",
    "gnaf_pid": "GAVIC412545753"
   }
  },
  {
   "type": "Feature",
   "geometry": {
    "type": "Point",
    "coordinates": [
     145.69297915,
     -37.74734194
    ]
   },
   "properties": {
    "name": "3 CLINCH STREET WARBURTON 3799",
    "locID": "LOC000100069191",
    "tech": "FTTN",
    "upgrade": "NULL_NA",
    "gnaf_pid": "GAVIC412549468"
   }
  },
  {
   "type": "Feature",
   "geometry": {
    "type": "Point",
    "coordinates": [
     145.70695606,
     -37.74989986
    ]
   },
   "properties": {
    "name": "2 SALISBURY AVENUE WARBURTON 3799",
    "locID": "LOC000043065919",
    "tech": "FTTN",
    "upgrade": "NULL_NA",
    "gnaf_pid": "GAVIC412550849"
   }
  },
  {
   "type": "Feature",
   "geometry": {
    "type": "Point",
    "coordinates": [
     145.70576223,
     -37.74880804
    ]
   },
   "properties": {
    "name": "10 ELLIS COURT WARBURTON 3799",
    "locID": "LOC000024723702",
    "tech": "FTTN",
    "upgrade": "NULL_NA",
    "gnaf_pid": "GAVIC412550851"
   }
  },
  {
   "type": "Feature",
   "geometry": {
    "type": "Point",
    "coordinates": [
     145.69301905,
     -37.7508443
    ]
   },
   "properties": {
    "name": "UNIT 1, 15 BRISBANE HILL ROAD WARBURTON 3799",
    "locID": "LOC000039068563",
    "tech": "FTTN",
    "upgrade": "NULL_NA",
    "gnaf_pid": "GAVIC412550894"
   }
  },
  {
   "type": "Feature",
   "geometry": {
    "type": "Point",
    "coordinates": [
     145.69768626,
     -37.75437112
    ]
   },
   "properties": {
    "name": "1A PARK ROAD WARBURTON 3799",
    "locID": "LOC000036614819",
    "tech": "FTTN",
    "upgrade": "NULL_NA",
    "gnaf_pid": "GAVIC412550900"
   }
  },
  {
   "type": "Feature",
   "geometry": {
    "type": "Point",
    "coordinates": [
     145.70576223,
     -37.74880804
    ]
   },
   "properties": {
    "name": "14 ELLIS COURT WARBURTON 3799",
    "locID": "LOC000173022615",
    "tech": "FTTN",
    "upgrade": "NULL_NA",
    "gnaf_pid": "GAVIC412550903"
   }
  },
  {
   "type": "Feature",
   "geometry": {
    "type": "Point",
    "coordinates": [
     145.703335,
     -37.756189
    ]
   },
   "properties": {
    "name": "23A RIVERSIDE DRIVE WARBURTON 3799",
    "locID": "ChIJ_wADDOYyKGsRN6Dm9IUXBgc",
    "tech": "FTTN",
    "upgrade": "UNKNOWN",
    "gnaf_pid": "GAVIC412550906"
   }
  },
  {
   "type": "Feature",
   "geometry": {
    "type": "Point",
    "coordinates": [
     145.68610974,
     -37.75360682
    ]
   },
   "properties": {
    "name": "61 DAMMANS ROAD WARBURTON 3799",
    "locID": "ChIJTVyv3ZUyKGsRjdLNDhEXNaA",
    "tech": "FTTP",
    "upgrade": "UNKNOWN",
    "gnaf_pid": "GAVIC412551947"
   }
  },
  {
   "type": "Feature",
   "geometry": {
    "type": "Point",
    "coordinates": [
     145.70665124,
     -37.74961526
    ]
   },
   "properties": {
    "name": "1 SALISBURY AVENUE WARBURTON 3799",
    "locID": "LOC000101005348",
    "tech": "FTTN",
    "upgrade": "NULL_NA",
    "gnaf_pid": "GAVIC412555472"
   }
  },
  {
   "type": "Feature",
   "geometry": {
    "type": "Point",
    "coordinates": [
     145.70575669,
     -37.74949474
    ]
   },
   "properties": {
    "name": "7 SALISBURY AVENUE WARBURTON 3799",
    "locID": "LOC000056872801",
    "tech": "FTTN",
    "upgrade": "NULL_NA",
    "gnaf_pid": "GAVIC412555658"
   }
  },
  {
   "type": "Feature",
   "geometry": {
    "type": "Point",
    "coordinates": [
     145.69918423,
     -37.76507741
    ]
   },
   "properties": {
    "name": "100 OLD WARBURTON ROAD WARBURTON 3799",
    "locID": "LOC000058171258",
    "tech": "FTTN",
    "upgrade": "NULL_NA",
    "gnaf_pid": "GAVIC412555663"
   }
  },
  {
   "type": "Feature",
   "geometry": {
    "type": "Point",
    "coordinates": [
     145.7121871,
     -37.75308014
    ]
   },
   "properties": {
    "name": "25 GIFFORDS ROAD WARBURTON 3799",
    "locID": "LOC000098305156",
    "tech": "FTTN",
    "upgrade": "NULL_NA",
    "gnaf_pid": "GAVIC412555691"
   }
  },
  {
   "type": "Feature",
   "geometry": {
    "type": "Point",
    "coordinates": [
     145.70632574,
     -37.74980521
    ]
   },
   "properties": {
    "name": "6 SALISBURY AVENUE WARBURTON 3799",
    "locID": "LOC000018618676",
    "tech": "FTTN",
    "upgrade": "NULL_NA",
    "gnaf_pid": "GAVIC412555697"
   }
  },
  {
   "type": "Feature",
   "geometry": {
    "type": "Point",
    "coordinates": [
     145.7044771,
     -37.74866954
    ]
   },
   "properties": {
    "name": "12 ELLIS COURT WARBURTON 3799",
    "locID": "LOC000075117560",
    "tech": "FTTN",
    "upgrade": "NULL_NA",
    "gnaf_pid": "GAVIC412555698"
   }
  },
  {
   "type": "Feature",
   "geometry": {
    "type": "Point",
    "coordinates": [
     145.7029682,
     -37.74732807
    ]
   },
   "properties": {
    "name": "9A ANDERSONS AVENUE WARBURTON 3799",
    "locID": "LOC000073331449",
    "tech": "FTTN",
    "upgrade": "NULL_NA",
    "gnaf_pid": "GAVIC412555772"
   }
  },
  {
   "type": "Feature",
   "geometry": {
    "type": "Point",
    "coordinates": [
     145.68097733,
     -37.7559145
    ]
   },
   "properties": {
    "name": "2 STATION ROAD WARBURTON 3799",
    "locID": "LOC000002911068",
    "tech": "FTTN",
    "upgrade": "NULL_NA",
    "gnaf_pid": "GAVIC412555776"
   }
  },
  {
   "type": "Feature",
   "geometry": {
    "type": "Point",
    "coordinates": [
     145.67286325,
     -37.75449119
    ]
   },
   "properties": {
    "name": "3233 WARBURTON HIGHWAY WARBURTON 3799",
    "locID": "LOC000095381364",
    "tech": "FTTN",
    "upgrade": "NULL_NA",
    "gnaf_pid": "GAVIC412556879"
   }
  },
  {
   "type": "Feature",
   "geometry": {
    "type": "Point",
    "coordinates": [
     145.69463558,
     -37.76546671
    ]
   },
   "properties": {
    "name": "145 OLD WARBURTON ROAD WARBURTON 3799",
    "locID": "LOC000020253304",
    "tech": "SATELLITE",
    "upgrade": "NULL_NA",
    "gnaf_pid": "GAVIC412556888"
   }
  },
  {
   "type": "Feature",
   "geometry": {
    "type": "Point",
    "coordinates": [
     145.67228864,
     -37.75437689
    ]
   },
   "properties": {
    "name": "3229 WARBURTON HIGHWAY WARBURTON 3799",
    "locID": "LOC000104533422",
    "tech": "FTTN",
    "upgrade": "NULL_NA",
    "gnaf_pid": "GAVIC412556891"
   }
  },
  {
   "type": "Feature",
   "geometry": {
    "type": "Point",
    "coordinates": [
     145.70247714,
     -37.76501255
    ]
   },
   "properties": {
    "name": "25 IRRUKA ROAD WARBURTON 3799",
    "locID": "LOC000105883193",
    "tech": "SATELLITE",
    "upgrade": "NULL_NA",
    "gnaf_pid": "GAVIC412556895"
   }
  },
  {
   "type": "Feature",
   "geometry": {
    "type": "Point",
    "coordinates": [
     145.6847706,
     -37.75765722
    ]
   },
   "properties": {
    "name": "12 GLENBROOK ROAD WARBURTON 3799",
    "locID": "ChIJ39Z7O7wyKGsR-mbrFUqlDvM",
    "tech": "FTTN",
    "upgrade": "UNKNOWN",
    "gnaf_pid": "GAVIC412559190"
   }
  },
  {
   "type": "Feature",
   "geometry": {
    "type": "Point",
    "coordinates": [
     145.68837083,
     -37.75380885
    ]
   },
   "properties": {
    "name": "UNIT 1, 3391 WARBURTON HIGHWAY WARBURTON 3799",
    "locID": "LOC000091552564",
    "tech": "FTTN",
    "upgrade": "NULL_NA",
    "gnaf_pid": "GAVIC412559469"
   }
  },
  {
   "type": "Feature",
   "geometry": {
    "type": "Point",
    "coordinates": [
     145.69179154,
     -37.74730542
    ]
   },
   "properties": {
    "name": "14 CLINCH STREET WARBURTON 3799",
    "locID": "LOC000048728191",
    "tech": "FTTN",
    "upgrade": "NULL_NA",
    "gnaf_pid": "GAVIC412559470"
   }
  },
  {
   "type": "Feature",
   "geometry": {
    "type": "Point",
    "coordinates": [
     145.71322375,
     -37.74974695
    ]
   },
   "properties": {
    "name": "210 RIVERSIDE DRIVE WARBURTON 3799",
    "locID": "LOC000070933245",
    "tech": "SATELLITE",
    "upgrade": "NULL_NA",
    "gnaf_pid": "GAVIC412559471"
   }
  },
  {
   "type": "Feature",
   "geometry": {
    "type": "Point",
    "coordinates": [
     145.6909656,
     -37.75234703
    ]
   },
   "properties": {
    "name": "UNIT 3, 38 DAMMANS ROAD WARBURTON 3799",
    "locID": "LOC000010127886",
    "tech": "FTTN",
    "upgrade": "NULL_NA",
    "gnaf_pid": "GAVIC412559475"
   }
  },
  {
   "type": "Feature",
   "geometry": {
    "type": "Point",
    "coordinates": [
     145.69196074,
     -37.74848621
    ]
   },
   "properties": {
    "name": "12 COMONGIN AVENUE WARBURTON 3799",
    "locID": "LOC000006230590",
    "tech": "FTTN",
    "upgrade": "NULL_NA",
    "gnaf_pid": "GAVIC412559483"
   }
  },
  {
   "type": "Feature",
   "geometry": {
    "type": "Point",
    "coordinates": [
     145.68470939,
     -37.75495046
    ]
   },
   "properties": {
    "name": "UNIT 1, 3346 WARBURTON HIGHWAY WARBURTON 3799",
    "locID": "LOC000016548053",
    "tech": "FTTN",
    "upgrade": "NULL_NA",
    "gnaf_pid": "GAVIC412559503"
   }
  },
  {
   "type": "Feature",
   "geometry": {
    "type": "Point",
    "coordinates": [
     145.69095901,
     -37.74897195
    ]
   },
   "properties": {
    "name": "20 WEBB STREET WARBURTON 3799",
    "locID": "LOC000070750741",
    "tech": "FTTN",
    "upgrade": "NULL_NA",
    "gnaf_pid": "GAVIC412559511"
   }
  },
  {
   "type": "Feature",
   "geometry": {
    "type": "Point",
    "coordinates": [
     145.67570606,
     -37.75233146
    ]
   },
   "properties": {
    "name": "4 DERBY STREET WARBURTON 3799",
    "locID": "LOC000051209837",
    "tech": "FTTN",
    "upgrade": "NULL_NA",
    "gnaf_pid": "GAVIC412559515"
   }
  },
  {
   "type": "Feature",
   "geometry": {
    "type": "Point",
    "coordinates": [
     145.6886876,
     -37.75400826
    ]
   },
   "properties": {
    "name": "3390 WARBURTON HIGHWAY WARBURTON 3799",
    "locID": "LOC000074262674",
    "tech": "FTTN",
    "upgrade": "NULL_NA",
    "gnaf_pid": "GAVIC412562931"
   }
  },
  {
   "type": "Feature",
   "geometry": {
    "type": "Point",
    "coordinates": [
     145.69914265,
     -37.764473
    ]
   },
   "properties": {
    "name": "3 BORONIA ROAD WARBURTON 3799",
    "locID": "LOC000007013365",
    "tech": "FTTN",
    "upgrade": "NULL_NA",
    "gnaf_pid": "GAVIC412562936"
   }
  },
  {
   "type": "Feature",
   "geometry": {
    "type": "Point",
    "coordinates": [
     145.69709795,
     -37.76489011
    ]
   },
   "properties": {
    "name": "24 BORONIA ROAD WARBURTON 3799",
    "locID": "LOC000009479198",
    "tech": "SATELLITE",
    "upgrade": "NULL_NA",
    "gnaf_pid": "GAVIC412562937"
   }
  },
  {
   "type": "Feature",
   "geometry": {
    "type": "Point",
    "coordinates": [
     145.69184074,
     -37.75391213
    ]
   },
   "properties": {
    "name": "59 HIGHFIELD ROAD WARBURTON 3799",
    "locID": "ChIJzYDzL-syKGsRC8l90PiQ-Fg",
    "tech": "FTTN",
    "upgrade": "UNKNOWN",
    "gnaf_pid": "GAVIC412562938"
   }
  },
  {
   "type": "Feature",
   "geometry": {
    "type": "Point",
    "coordinates": [
     145.69979378,
     -37.7645681
    ]
   },
   "properties": {
    "name": "1 BORONIA ROAD WARBURTON 3799",
    "locID": "LOC000051205085",
    "tech": "FTTN",
    "upgrade": "NULL_NA",
    "gnaf_pid": "GAVIC412562940"
   }
  },
  {
   "type": "Feature",
   "geometry": {
    "type": "Point",
    "coordinates": [
     145.69179435,
     -37.7501678
    ]
   },
   "properties": {
    "name": "8 HILL ROAD WARBURTON 3799",
    "locID": "LOC000081041040",
    "tech": "FTTN",
    "upgrade": "NULL_NA",
    "gnaf_pid": "GAVIC412562948"
   }
  },
  {
   "type": "Feature",
   "geometry": {
    "type": "Point",
    "coordinates": [
     145.69180174,
     -37.74910438
    ]
   },
   "properties": {
    "name": "12 WEBB STREET WARBURTON 3799",
    "locID": "LOC000057978464",
    "tech": "FTTN",
    "upgrade": "NULL_NA",
    "gnaf_pid": "GAVIC412562950"
   }
  },
  {
   "type": "Feature",
   "geometry": {
    "type": "Point",
    "coordinates": [
     145.690631,
     -37.75112825
    ]
   },
   "properties": {
    "name": "5 BRETT ROAD WARBURTON 3799",
    "locID": "LOC000081056940",
    "tech": "FTTN",
    "upgrade": "NULL_NA",
    "gnaf_pid": "GAVIC412562952"
   }
  },
  {
   "type": "Feature",
   "geometry": {
    "type": "Point",
    "coordinates": [
     145.68527561,
     -37.7533547
    ]
   },
   "properties": {
    "name": "2 ST JOHNS ROAD WARBURTON 3799",
    "locID": "ChIJNWmedJYyKGsRFXoaZV-oT5U",
    "tech": "FTTP",
    "upgrade": "UNKNOWN",
    "gnaf_pid": "GAVIC412562957"
   }
  },
  {
   "type": "Feature",
   "geometry": {
    "type": "Point",
    "coordinates": [
     145.7077096,
     -37.75141785
    ]
   },
   "properties": {
    "name": "22A DONNA BUANG ROAD WARBURTON 3799",
    "locID": "LOC000010179511",
    "tech": "FTTN",
    "upgrade": "NULL_NA",
    "gnaf_pid": "GAVIC412563144"
   }
  },
  {
   "type": "Feature",
   "geometry": {
    "type": "Point",
    "coordinates": [
     145.69766009,
     -37.75419835
    ]
   },
   "properties": {
    "name": "12 PARK ROAD WARBURTON 3799",
    "locID": "LOC000047103212",
    "tech": "FTTN",
    "upgrade": "NULL_NA",
    "gnaf_pid": "GAVIC412563146"
   }
  },
  {
   "type": "Feature",
   "geometry": {
    "type": "Point",
    "coordinates": [
     145.68417251,
     -37.75500467
    ]
   },
   "properties": {
    "name": "UNIT 3, 3342 WARBURTON HIGHWAY WARBURTON 3799",
    "locID": "LOC000051995501",
    "tech": "FTTN",
    "upgrade": "NULL_NA",
    "gnaf_pid": "GAVIC412563154"
   }
  },
  {
   "type": "Feature",
   "geometry": {
    "type": "Point",
    "coordinates": [
     145.68417251,
     -37.75500467
    ]
   },
   "properties": {
    "name": "UNIT 2, 3342 WARBURTON HIGHWAY WARBURTON 3799",
    "locID": "LOC000051995501",
    "tech": "FTTN",
    "upgrade": "NULL_NA",
    "gnaf_pid": "GAVIC412563158"
   }
  },
  {
   "type": "Feature",
   "geometry": {
    "type": "Point",
    "coordinates": [
     145.70318604,
     -37.75041988
    ]
   },
   "properties": {
    "name": "24 UPPER BLACKWOOD AVENUE WARBURTON 3799",
    "locID": "LOC000002894706",
    "tech": "FTTN",
    "upgrade": "NULL_NA",
    "gnaf_pid": "GAVIC412563224"
   }
  },
  {
   "type": "Feature",
   "geometry": {
    "type": "Point",
    "coordinates": [
     145.70657689,
     -37.75112442
    ]
   },
   "properties": {
    "name": "14 UPPER BLACKWOOD AVENUE WARBURTON 3799",
    "locID": "LOC000004760175",
    "tech": "FTTN",
    "upgrade": "NULL_NA",
    "gnaf_pid": "GAVIC412563228"
   }
  },
  {
   "type": "Feature",
   "geometry": {
    "type": "Point",
    "coordinates": [
     145.70657689,
     -37.75112442
    ]
   },
   "properties": {
    "name": "16 UPPER BLACKWOOD AVENUE WARBURTON 3799",
    "locID": "LOC000011096911",
    "tech": "FTTN",
    "upgrade": "NULL_NA",
    "gnaf_pid": "GAVIC412563229"
   }
  },
  {
   "type": "Feature",
   "geometry": {
    "type": "Point",
    "coordinates": [
     145.69112555,
     -37.75337083
    ]
   },
   "properties": {
    "name": "3426 WARBURTON HIGHWAY WARBURTON 3799",
    "locID": "LOC000069633451",
    "tech": "FTTN",
    "upgrade": "NULL_NA",
    "gnaf_pid": "GAVIC412563230"
   }
  },
  {
   "type": "Feature",
   "geometry": {
    "type": "Point",
    "coordinates": [
     145.709563,
     -37.750516
    ]
   },
   "properties": {
    "name": "UNIT 2, 9 SHERWOOD AVENUE WARBURTON 3799",
    "locID": "LOC000154571202",
    "tech": "FTTN",
    "upgrade": "NULL_NA",
    "gnaf_pid": "GAVIC412563232"
   }
  },
  {
   "type": "Feature",
   "geometry": {
    "type": "Point",
    "coordinates": [
     145.70342884,
     -37.75710017
    ]
   },
   "properties": {
    "name": "13 PROSPECT AVENUE WARBURTON 3799",
    "locID": "ChIJ55wjPuYyKGsR-9vN-AreC_8",
    "tech": "FTTN",
    "upgrade": "UNKNOWN",
    "gnaf_pid": "GAVIC412563233"
   }
  },
  {
   "type": "Feature",
   "geometry": {
    "type": "Point",
    "coordinates": [
     145.68641931,
     -37.75034394
    ]
   },
   "properties": {
    "name": "34 WELLINGTON ROAD WARBURTON 3799",
    "locID": "ChIJEd8-CJQyKGsR-QwrxuXY7Ow",
    "tech": "FTTN",
    "upgrade": "UNKNOWN",
    "gnaf_pid": "GAVIC412563247"
   }
  },
  {
   "type": "Feature",
   "geometry": {
    "type": "Point",
    "coordinates": [
     145.68138654,
     -37.75588303
    ]
   },
   "properties": {
    "name": "4 STATION ROAD WARBURTON 3799",
    "locID": "LOC000024378416",
    "tech": "FTTN",
    "upgrade": "NULL_NA",
    "gnaf_pid": "GAVIC412563252"
   }
  },
  {
   "type": "Feature",
   "geometry": {
    "type": "Point",
    "coordinates": [
     145.69030803,
     -37.75013326
    ]
   },
   "properties": {
    "name": "11 BRETT ROAD WARBURTON 3799",
    "locID": "LOC000084788264",
    "tech": "FTTN",
    "upgrade": "NULL_NA",
    "gnaf_pid": "GAVIC412566587"
   }
  },
  {
   "type": "Feature",
   "geometry": {
    "type": "Point",
    "coordinates": [
     145.7043653,
     -37.75569624
    ]
   },
   "properties": {
    "name": "3 LITHGOW AVENUE WARBURTON 3799",
    "locID": "LOC000102006516",
    "tech": "FTTN",
    "upgrade": "NULL_NA",
    "gnaf_pid": "GAVIC412566615"
   }
  },
  {
   "type": "Feature",
   "geometry": {
    "type": "Point",
    "coordinates": [
     145.70529261,
     -37.74876863
    ]
   },
   "properties": {
    "name": "6 ELLIS COURT WARBURTON 3799",
    "locID": "LOC000012736424",
    "tech": "FTTN",
    "upgrade": "NULL_NA",
    "gnaf_pid": "GAVIC412566623"
   }
  },
  {
   "type": "Feature",
   "geometry": {
    "type": "Point",
    "coordinates": [
     145.69152263,
     -37.75012873
    ]
   },
   "properties": {
    "name": "10 HILL ROAD WARBURTON 3799",
    "locID": "LOC000067605574",
    "tech": "FTTN",
    "upgrade": "NULL_NA",
    "gnaf_pid": "GAVIC412566626"
   }
  },
  {
   "type": "Feature",
   "geometry": {
    "type": "Point",
    "coordinates": [
     145.68425965,
     -37.75644694
    ]
   },
   "properties": {
    "name": "7 ALPINE STREET WARBURTON 3799",
    "locID": "LOC000106390583",
    "tech": "FTTN",
    "upgrade": "NULL_NA",
    "gnaf_pid": "GAVIC412566648"
   }
  },
  {
   "type": "Feature",
   "geometry": {
    "type": "Point",
    "coordinates": [
     145.70342055,
     -37.74608734
    ]
   },
   "properties": {
    "name": "4 LOUIS AVENUE WARBURTON 3799",
    "locID": "LOC000069858305",
    "tech": "FTTN",
    "upgrade": "NULL_NA",
    "gnaf_pid": "GAVIC412566652"
   }
  },
  {
   "type": "Feature",
   "geometry": {
    "type": "Point",
    "coordinates": [
     145.7009721,
     -37.747205
    ]
   },
   "properties": {
    "name": "24 ANDERSONS AVENUE WARBURTON 3799",
    "locID": "LOC000038914368",
    "tech": "FTTN",
    "upgrade": "NULL_NA",
    "gnaf_pid": "GAVIC412566653"
   }
  },
  {
   "type": "Feature",
   "geometry": {
    "type": "Point",
    "coordinates": [
     145.68803008,
     -37.75507393
    ]
   },
   "properties": {
    "name": "38 STATION ROAD WARBURTON 3799",
    "locID": "LOC000060556946",
    "tech": "FTTN",
    "upgrade": "NULL_NA",
    "gnaf_pid": "GAVIC412570223"
   }
  },
  {
   "type": "Feature",
   "geometry": {
    "type": "Point",
    "coordinates": [
     145.6876727,
     -37.76258725
    ]
   },
   "properties": {
    "name": "110 SCOTCHMANS CREEK ROAD WARBURTON 3799",
    "locID": "LOC000016982288",
    "tech": "SATELLITE",
    "upgrade": "NULL_NA",
    "gnaf_pid": "GAVIC412570224"
   }
  },
  {
   "type": "Feature",
   "geometry": {
    "type": "Point",
    "coordinates": [
     145.70472668,
     -37.75710619
    ]
   },
   "properties": {
    "name": "19 LITHGOW AVENUE WARBURTON 3799",
    "locID": "LOC000075610137",
    "tech": "FTTN",
    "upgrade": "NULL_NA",
    "gnaf_pid": "GAVIC412570230"
   }
  },
  {
   "type": "Feature",
   "geometry": {
    "type": "Point",
    "coordinates": [
     145.68470939,
     -37.75495046
    ]
   },
   "properties": {
    "name": "UNIT 1, 3344 WARBURTON HIGHWAY WARBURTON 3799",
    "locID": "LOC000055107082",
    "tech": "FTTN",
    "upgrade": "NULL_NA",
    "gnaf_pid": "GAVIC412570283"
   }
  },
  {
   "type": "Feature",
   "geometry": {
    "type": "Point",
    "coordinates": [
     145.68470939,
     -37.75495046
    ]
   },
   "properties": {
    "name": "UNIT 2, 3346 WARBURTON HIGHWAY WARBURTON 3799",
    "locID": "LOC000016436178",
    "tech": "FTTN",
    "upgrade": "NULL_NA",
    "gnaf_pid": "GAVIC412570285"
   }
  },
  {
   "type": "Feature",
   "geometry": {
    "type": "Point",
    "coordinates": [
     145.70330838,
     -37.75121434
    ]
   },
   "properties": {
    "name": "15 UPPER BLACKWOOD AVENUE WARBURTON 3799",
    "locID": "LOC000085033762",
    "tech": "FTTN",
    "upgrade": "NULL_NA",
    "gnaf_pid": "GAVIC412570289"
   }
  },
  {
   "type": "Feature",
   "geometry": {
    "type": "Point",
    "coordinates": [
     145.69622136,
     -37.76307796
    ]
   },
   "properties": {
    "name": "34 CLARKE AVENUE WARBURTON 3799",
    "locID": "LOC000051153862",
    "tech": "SATELLITE",
    "upgrade": "NULL_NA",
    "gnaf_pid": "GAVIC412570291"
   }
  },
  {
   "type": "Feature",
   "geometry": {
    "type": "Point",
    "coordinates": [
     145.69713774,
     -37.75311752
    ]
   },
   "properties": {
    "name": "3471 WARBURTON HIGHWAY WARBURTON 3799",
    "locID": "LOC000049300536",
    "tech": "FTTN",
    "upgrade": "NULL_NA",
    "gnaf_pid": "GAVIC412573504"
   }
  },
  {
   "type": "Feature",
   "geometry": {
    "type": "Point",
    "coordinates": [
     145.69884015,
     -37.76456962
    ]
   },
   "properties": {
    "name": "13 BORONIA ROAD WARBURTON 3799",
    "locID": "ChIJN3uFZcQyKGsRB9Pxp-ioRLE",
    "tech": "FTTN",
    "upgrade": "UNKNOWN",
    "gnaf_pid": "GAVIC412573505"
   }
  },
  {
   "type": "Feature",
   "geometry": {
    "type": "Point",
    "coordinates": [
     145.6931351,
     -37.75072266
    ]
   },
   "properties": {
    "name": "UNIT 2, 15 BRISBANE HILL ROAD WARBURTON 3799",
    "locID": "LOC000039026544",
    "tech": "FTTN",
    "upgrade": "NULL_NA",
    "gnaf_pid": "GAVIC412573515"
   }
  },
  {
   "type": "Feature",
   "geometry": {
    "type": "Point",
    "coordinates": [
     145.69267194,
     -37.75189896
    ]
   },
   "properties": {
    "name": "1 BRISBANE HILL ROAD WARBURTON 3799",
    "locID": "LOC000028658013",
    "tech": "FTTN",
    "upgrade": "NULL_NA",
    "gnaf_pid": "GAVIC412573516"
   }
  },
  {
   "type": "Feature",
   "geometry": {
    "type": "Point",
    "coordinates": [
     145.70412223,
     -37.7462032
    ]
   },
   "properties": {
    "name": "2B LOUIS AVENUE WARBURTON 3799",
    "locID": "LOC000007024663",
    "tech": "FTTN",
    "upgrade": "NULL_NA",
    "gnaf_pid": "GAVIC412573519"
   }
  },
  {
   "type": "Feature",
   "geometry": {
    "type": "Point",
    "coordinates": [
     145.70352325,
     -37.749344
    ]
   },
   "properties": {
    "name": "20 SALISBURY AVENUE WARBURTON 3799",
    "locID": "LOC000068051440",
    "tech": "FTTN",
    "upgrade": "NULL_NA",
    "gnaf_pid": "GAVIC412573524"
   }
  },
  {
   "type": "Feature",
   "geometry": {
    "type": "Point",
    "coordinates": [
     145.7050999,
     -37.7494064
    ]
   },
   "properties": {
    "name": "11 SALISBURY AVENUE WARBURTON 3799",
    "locID": "LOC000086799318",
    "tech": "FTTN",
    "upgrade": "NULL_NA",
    "gnaf_pid": "GAVIC412573527"
   }
  },
  {
   "type": "Feature",
   "geometry": {
    "type": "Point",
    "coordinates": [
     145.69594508,
     -37.74939971
    ]
   },
   "properties": {
    "name": "26 BRISBANE PARADE WARBURTON 3799",
    "locID": "LOC000180720634",
    "tech": "FTTN",
    "upgrade": "NULL_NA",
    "gnaf_pid": "GAVIC412573533"
   }
  },
  {
   "type": "Feature",
   "geometry": {
    "type": "Point",
    "coordinates": [
     145.6956456,
     -37.75450053
    ]
   },
   "properties": {
    "name": "47 HIGHFIELD ROAD WARBURTON 3799",
    "locID": "LOC000081401018",
    "tech": "FTTN",
    "upgrade": "NULL_NA",
    "gnaf_pid": "GAVIC412573742"
   }
  },
  {
   "type": "Feature",
   "geometry": {
    "type": "Point",
    "coordinates": [
     145.69909846,
     -37.75305709
    ]
   },
   "properties": {
    "name": "3484 WARBURTON HIGHWAY WARBURTON 3799",
    "locID": "LOC000016161333",
    "tech": "FTTN",
    "upgrade": "NULL_NA",
    "gnaf_pid": "GAVIC412573745"
   }
  },
  {
   "type": "Feature",
   "geometry": {
    "type": "Point",
    "coordinates": [
     145.68527561,
     -37.7533547
    ]
   },
   "properties": {
    "name": "8 ST JOHNS ROAD WARBURTON 3799",
    "locID": "ChIJNWmedJYyKGsRx9wYsioEdeo",
    "tech": "FTTP",
    "upgrade": "UNKNOWN",
    "gnaf_pid": "GAVIC412573936"
   }
  },
  {
   "type": "Feature",
   "geometry": {
    "type": "Point",
    "coordinates": [
     145.68795561,
     -37.7554336
    ]
   },
   "properties": {
    "name": "1 CROOM STREET WARBURTON 3799",
    "locID": "LOC000057559511",
    "tech": "FTTN",
    "upgrade": "NULL_NA",
    "gnaf_pid": "GAVIC412574954"
   }
  },
  {
   "type": "Feature",
   "geometry": {
    "type": "Point",
    "coordinates": [
     145.68417251,
     -37.75500467
    ]
   },
   "properties": {
    "name": "UNIT 1, 3342 WARBURTON HIGHWAY WARBURTON 3799",
    "locID": "LOC000051020664",
    "tech": "FTTN",
    "upgrade": "NULL_NA",
    "gnaf_pid": "GAVIC412574955"
   }
  },
  {
   "type": "Feature",
   "geometry": {
    "type": "Point",
    "coordinates": [
     145.6952464,
     -37.7578398
    ]
   },
   "properties": {
    "name": "35 FANTAIL RISE WARBURTON 3799",
    "locID": "LOC000084540759",
    "tech": "SATELLITE",
    "upgrade": "NULL_NA",
    "gnaf_pid": "GAVIC412574959"
   }
  },
  {
   "type": "Feature",
   "geometry": {
    "type": "Point",
    "coordinates": [
     145.70485254,
     -37.75551346
    ]
   },
   "properties": {
    "name": "8 LITHGOW AVENUE WARBURTON 3799",
    "locID": "LOC000044281037",
    "tech": "FTTN",
    "upgrade": "NULL_NA",
    "gnaf_pid": "GAVIC412574961"
   }
  },
  {
   "type": "Feature",
   "geometry": {
    "type": "Point",
    "coordinates": [
     145.69503008,
     -37.75984919
    ]
   },
   "properties": {
    "name": "40 STORY ROAD WARBURTON 3799",
    "locID": "LOC000034221027",
    "tech": "SATELLITE",
    "upgrade": "NULL_NA",
    "gnaf_pid": "GAVIC412574973"
   }
  },
  {
   "type": "Feature",
   "geometry": {
    "type": "Point",
    "coordinates": [
     145.69942408,
     -37.75296893
    ]
   },
   "properties": {
    "name": "3486 WARBURTON HIGHWAY WARBURTON 3799",
    "locID": "LOC000056460596",
    "tech": "FTTN",
    "upgrade": "NULL_NA",
    "gnaf_pid": "GAVIC412574975"
   }
  },
  {
   "type": "Feature",
   "geometry": {
    "type": "Point",
    "coordinates": [
     145.70522482,
     -37.75331028
    ]
   },
   "properties": {
    "name": "30 WOODS POINT ROAD WARBURTON 3799",
    "locID": "LOC000019344370",
    "tech": "FTTN",
    "upgrade": "NULL_NA",
    "gnaf_pid": "GAVIC412577517"
   }
  },
  {
   "type": "Feature",
   "geometry": {
    "type": "Point",
    "coordinates": [
     145.68433884,
     -37.7519865
    ]
   },
   "properties": {
    "name": "4 WATERLOO AVENUE WARBURTON 3799",
    "locID": "LOC000066257250",
    "tech": "FTTP",
    "upgrade": "NULL_NA",
    "gnaf_pid": "GAVIC412577519"
   }
  },
  {
   "type": "Feature",
   "geometry": {
    "type": "Point",
    "coordinates": [
     145.704518,
     -37.756049
    ]
   },
   "properties": {
    "name": "UNIT 2, 26 RIVERSIDE DRIVE WARBURTON 3799",
    "locID": "LOC000016483374",
    "tech": "FTTN",
    "upgrade": "NULL_NA",
    "gnaf_pid": "GAVIC412577522"
   }
  },
  {
   "type": "Feature",
   "geometry": {
    "type": "Point",
    "coordinates": [
     145.70517531,
     -37.7476478
    ]
   },
   "properties": {
    "name": "43 DONNA BUANG ROAD WARBURTON 3799",
    "locID": "LOC000085382811",
    "tech": "FTTN",
    "upgrade": "NULL_NA",
    "gnaf_pid": "GAVIC412577523"
   }
  },
  {
   "type": "Feature",
   "geometry": {
    "type": "Point",
    "coordinates": [
     145.71440376,
     -37.74724153
    ]
   },
   "properties": {
    "name": "135B WOODS POINT ROAD WARBURTON 3799",
    "locID": "ChIJUfG2MAAzKGsR6mQr3Nz29gk",
    "tech": "FTTN",
    "upgrade": "UNKNOWN",
    "gnaf_pid": "GAVIC412577527"
   }
  },
  {
   "type": "Feature",
   "geometry": {
    "type": "Point",
    "coordinates": [
     145.70569138,
     -37.74868288
    ]
   },
   "properties": {
    "name": "14 YUONGA ROAD WARBURTON 3799",
    "locID": "LOC000098255068",
    "tech": "FTTN",
    "upgrade": "NULL_NA",
    "gnaf_pid": "GAVIC412580913"
   }
  },
  {
   "type": "Feature",
   "geometry": {
    "type": "Point",
    "coordinates": [
     145.6696491,
     -37.75588633
    ]
   },
   "properties": {
    "name": "7 HOOKS ROAD WARBURTON 3799",
    "locID": "LOC000002913481",
    "tech": "FTTN",
    "upgrade": "NULL_NA",
    "gnaf_pid": "GAVIC412581126"
   }
  },
  {
   "type": "Feature",
   "geometry": {
    "type": "Point",
    "coordinates": [
     145.67093189,
     -37.75412407
    ]
   },
   "properties": {
    "name": "3223 WARBURTON HIGHWAY WARBURTON 3799",
    "locID": "LOC000042388678",
    "tech": "FTTN",
    "upgrade": "NULL_NA",
    "gnaf_pid": "GAVIC412581127"
   }
  },
  {
   "type": "Feature",
   "geometry": {
    "type": "Point",
    "coordinates": [
     145.6703522,
     -37.75294696
    ]
   },
   "properties": {
    "name": "3227 WARBURTON HIGHWAY WARBURTON 3799",
    "locID": "LOC000106975426",
    "tech": "FTTN",
    "upgrade": "NULL_NA",
    "gnaf_pid": "GAVIC412581128"
   }
  },
  {
   "type": "Feature",
   "geometry": {
    "type": "Point",
    "coordinates": [
     145.685744,
     -37.7553
    ]
   },
   "properties": {
    "name": "24A STATION ROAD WARBURTON 3799",
    "locID": "ChIJswnFB74yKGsR0nQ8D0LtlR8",
    "tech": "FTTN",
    "upgrade": "UNKNOWN",
    "gnaf_pid": "GAVIC412581141"
   }
  },
  {
   "type": "Feature",
   "geometry": {
    "type": "Point",
    "coordinates": [
     145.71011879,
     -37.75905485
    ]
   },
   "properties": {
    "name": "45 BRIDES PARADE WARBURTON 3799",
    "locID": "LOC000071445052",
    "tech": "SATELLITE",
    "upgrade": "NULL_NA",
    "gnaf_pid": "GAVIC412581142"
   }
  },
  {
   "type": "Feature",
   "geometry": {
    "type": "Point",
    "coordinates": [
     145.71466682,
     -37.75336701
    ]
   },
   "properties": {
    "name": "53 GIFFORDS ROAD WARBURTON 3799",
    "locID": "Ei01MyBHaWZmb3JkcyBSZCwgV2FyYnVydG9uIFZJQyAzNzk5LCBBdXN0cmFsaWEiMBIuChQKEgmXjP9g_TIoaxG-1630ggxXVBA1KhQKEgmRa2QdAzMoaxEHazdnAOUVRw",
    "tech": "FTTN",
    "upgrade": "UNKNOWN",
    "gnaf_pid": "GAVIC412581170"
   }
  },
  {
   "type": "Feature",
   "geometry": {
    "type": "Point",
    "coordinates": [
     145.70600582,
     -37.74975717
    ]
   },
   "properties": {
    "name": "8 SALISBURY AVENUE WARBURTON 3799",
    "locID": "LOC000038497283",
    "tech": "FTTN",
    "upgrade": "NULL_NA",
    "gnaf_pid": "GAVIC412581183"
   }
  },
  {
   "type": "Feature",
   "geometry": {
    "type": "Point",
    "coordinates": [
     145.70504747,
     -37.74961325
    ]
   },
   "properties": {
    "name": "14 SALISBURY AVENUE WARBURTON 3799",
    "locID": "LOC000067705509",
    "tech": "FTTN",
    "upgrade": "NULL_NA",
    "gnaf_pid": "GAVIC412581187"
   }
  },
  {
   "type": "Feature",
   "geometry": {
    "type": "Point",
    "coordinates": [
     145.690267,
     -37.753235
    ]
   },
   "properties": {
    "name": "UNIT 1, 3415 WARBURTON HIGHWAY WARBURTON 3799",
    "locID": "LOC000125527381",
    "tech": "FTTN",
    "upgrade": "NULL_NA",
    "gnaf_pid": "GAVIC412581234"
   }
  },
  {
   "type": "Feature",
   "geometry": {
    "type": "Point",
    "coordinates": [
     145.69730735,
     -37.75687779
    ]
   },
   "properties": {
    "name": "5 GABLE LANE WARBURTON 3799",
    "locID": "LOC000085745011",
    "tech": "FTTN",
    "upgrade": "NULL_NA",
    "gnaf_pid": "GAVIC412581235"
   }
  },
  {
   "type": "Feature",
   "geometry": {
    "type": "Point",
    "coordinates": [
     145.68432812,
     -37.7556385
    ]
   },
   "properties": {
    "name": "31 STATION ROAD WARBURTON 3799",
    "locID": "EiwzMSBTdGF0aW9uIFJkLCBXYXJidXJ0b24gVklDIDM3OTksIEF1c3RyYWxpYSIwEi4KFAoSCReLmh2-MihrERE86Ot0VgQTEB8qFAoSCRPoJOu9MihrEcFEywLl63hS",
    "tech": "FTTN",
    "upgrade": "UNKNOWN",
    "gnaf_pid": "GAVIC412588366"
   }
  },
  {
   "type": "Feature",
   "geometry": {
    "type": "Point",
    "coordinates": [
     145.68657542,
     -37.7617014
    ]
   },
   "properties": {
    "name": "100 SCOTCHMANS CREEK ROAD WARBURTON 3799",
    "locID": "LOC000008534752",
    "tech": "SATELLITE",
    "upgrade": "NULL_NA",
    "gnaf_pid": "GAVIC412588367"
   }
  },
  {
   "type": "Feature",
   "geometry": {
    "type": "Point",
    "coordinates": [
     145.69604144,
     -37.75652374
    ]
   },
   "properties": {
    "name": "11 LEILA ROAD WARBURTON 3799",
    "locID": "LOC000061739035",
    "tech": "FTTN",
    "upgrade": "NULL_NA",
    "gnaf_pid": "GAVIC412588368"
   }
  },
  {
   "type": "Feature",
   "geometry": {
    "type": "Point",
    "coordinates": [
     145.68470939,
     -37.75495046
    ]
   },
   "properties": {
    "name": "UNIT 3, 3346 WARBURTON HIGHWAY WARBURTON 3799",
    "locID": "LOC000016548053",
    "tech": "FTTN",
    "upgrade": "NULL_NA",
    "gnaf_pid": "GAVIC412588371"
   }
  },
  {
   "type": "Feature",
   "geometry": {
    "type": "Point",
    "coordinates": [
     145.68185768,
     -37.75549846
    ]
   },
   "properties": {
    "name": "1 STATION ROAD WARBURTON 3799",
    "locID": "LOC000048063515",
    "tech": "FTTN",
    "upgrade": "NULL_NA",
    "gnaf_pid": "GAVIC412588372"
   }
  },
  {
   "type": "Feature",
   "geometry": {
    "type": "Point",
    "coordinates": [
     145.68357289,
     -37.75916454
    ]
   },
   "properties": {
    "name": "31 SCOTCHMANS CREEK ROAD WARBURTON 3799",
    "locID": "ChIJvb16j7syKGsR7MDmDcpx570",
    "tech": "SATELLITE",
    "upgrade": "UNKNOWN",
    "gnaf_pid": "GAVIC412591643"
   }
  },
  {
   "type": "Feature",
   "geometry": {
    "type": "Point",
    "coordinates": [
     145.67596143,
     -37.74628678
    ]
   },
   "properties": {
    "name": "12 YORK STREET WARBURTON 3799",
    "locID": "LOC000054283871",
    "tech": "FTTN",
    "upgrade": "NULL_NA",
    "gnaf_pid": "GAVIC412591645"
   }
  },
  {
   "type": "Feature",
   "geometry": {
    "type": "Point",
    "coordinates": [
     145.70562848,
     -37.74574209
    ]
   },
   "properties": {
    "name": "35 YUONGA ROAD WARBURTON 3799",
    "locID": "LOC000059991840",
    "tech": "FTTN",
    "upgrade": "NULL_NA",
    "gnaf_pid": "GAVIC412591649"
   }
  },
  {
   "type": "Feature",
   "geometry": {
    "type": "Point",
    "coordinates": [
     145.69097355,
     -37.74972608
    ]
   },
   "properties": {
    "name": "15 HILL ROAD WARBURTON 3799",
    "locID": "LOC000108718548",
    "tech": "FTTN",
    "upgrade": "NULL_NA",
    "gnaf_pid": "GAVIC412591686"
   }
  },
  {
   "type": "Feature",
   "geometry": {
    "type": "Point",
    "coordinates": [
     145.68352918,
     -37.75663581
    ]
   },
   "properties": {
    "name": "3A CECIL STREET WARBURTON 3799",
    "locID": "ChIJCdIHUrwyKGsRuy0pTZ4g9jY",
    "tech": "FTTN",
    "upgrade": "UNKNOWN",
    "gnaf_pid": "GAVIC412591688"
   }
  },
  {
   "type": "Feature",
   "geometry": {
    "type": "Point",
    "coordinates": [
     145.6909656,
     -37.75234703
    ]
   },
   "properties": {
    "name": "UNIT 5, 38 DAMMANS ROAD WARBURTON 3799",
    "locID": "LOC000010113947",
    "tech": "FTTN",
    "upgrade": "NULL_NA",
    "gnaf_pid": "GAVIC412591742"
   }
  },
  {
   "type": "Feature",
   "geometry": {
    "type": "Point",
    "coordinates": [
     145.70508548,
     -37.75645745
    ]
   },
   "properties": {
    "name": "1 LITHGOW AVENUE WARBURTON 3799",
    "locID": "LOC000079331025",
    "tech": "FTTN",
    "upgrade": "NULL_NA",
    "gnaf_pid": "GAVIC412591752"
   }
  },
  {
   "type": "Feature",
   "geometry": {
    "type": "Point",
    "coordinates": [
     145.7056884,
     -37.75703474
    ]
   },
   "properties": {
    "name": "24 LITHGOW AVENUE WARBURTON 3799",
    "locID": "ChIJXXXEhOYyKGsRbVHjrZN0k3Q",
    "tech": "FTTN",
    "upgrade": "UNKNOWN",
    "gnaf_pid": "GAVIC412591767"
   }
  },
  {
   "type": "Feature",
   "geometry": {
    "type": "Point",
    "coordinates": [
     145.69642776,
     -37.75942477
    ]
   },
   "properties": {
    "name": "27 LEILA ROAD WARBURTON 3799",
    "locID": "LOC000016493086",
    "tech": "SATELLITE",
    "upgrade": "NULL_NA",
    "gnaf_pid": "GAVIC412591773"
   }
  },
  {
   "type": "Feature",
   "geometry": {
    "type": "Point",
    "coordinates": [
     145.68950307,
     -37.75532548
    ]
   },
   "properties": {
    "name": "6 CROOM STREET WARBURTON 3799",
    "locID": "LOC000009704027",
    "tech": "FTTN",
    "upgrade": "NULL_NA",
    "gnaf_pid": "GAVIC412591774"
   }
  },
  {
   "type": "Feature",
   "geometry": {
    "type": "Point",
    "coordinates": [
     145.70576223,
     -37.74880804
    ]
   },
   "properties": {
    "name": "8 ELLIS COURT WARBURTON 3799",
    "locID": "ChIJ1-G2svsyKGsRLTX71MsbZAw",
    "tech": "FTTN",
    "upgrade": "UNKNOWN",
    "gnaf_pid": "GAVIC412593090"
   }
  },
  {
   "type": "Feature",
   "geometry": {
    "type": "Point",
    "coordinates": [
     145.7000755,
     -37.75698288
    ]
   },
   "properties": {
    "name": "4 HORNERS ROAD WARBURTON 3799",
    "locID": "LOC000091446015",
    "tech": "FTTN",
    "upgrade": "NULL_NA",
    "gnaf_pid": "GAVIC412593091"
   }
  },
  {
   "type": "Feature",
   "geometry": {
    "type": "Point",
    "coordinates": [
     145.6855701,
     -37.75360658
    ]
   },
   "properties": {
    "name": "28 DAMMANS ROAD WARBURTON 3799",
    "locID": "LOC000067084538",
    "tech": "FTTP",
    "upgrade": "NULL_NA",
    "gnaf_pid": "GAVIC412593098"
   }
  },
  {
   "type": "Feature",
   "geometry": {
    "type": "Point",
    "coordinates": [
     145.69146339,
     -37.75234328
    ]
   },
   "properties": {
    "name": "40 DAMMANS ROAD WARBURTON 3799",
    "locID": "LOC000004409800",
    "tech": "FTTN",
    "upgrade": "NULL_NA",
    "gnaf_pid": "GAVIC412593099"
   }
  },
  {
   "type": "Feature",
   "geometry": {
    "type": "Point",
    "coordinates": [
     145.70501044,
     -37.74733955
    ]
   },
   "properties": {
    "name": "23 YUONGA ROAD WARBURTON 3799",
    "locID": "LOC000057163874",
    "tech": "FTTN",
    "upgrade": "NULL_NA",
    "gnaf_pid": "GAVIC412595061"
   }
  },
  {
   "type": "Feature",
   "geometry": {
    "type": "Point",
    "coordinates": [
     145.709653,
     -37.754501
    ]
   },
   "properties": {
    "name": "9 GIFFORDS ROAD WARBURTON 3799",
    "locID": "LOC000069763124",
    "tech": "FTTN",
    "upgrade": "NULL_NA",
    "gnaf_pid": "GAVIC412595065"
   }
  },
  {
   "type": "Feature",
   "geometry": {
    "type": "Point",
    "coordinates": [
     145.70604715,
     -37.75689536
    ]
   },
   "properties": {
    "name": "8 FERNTREE AVENUE WARBURTON 3799",
    "locID": "LOC000006132334",
    "tech": "FTTN",
    "upgrade": "NULL_NA",
    "gnaf_pid": "GAVIC412595067"
   }
  },
  {
   "type": "Feature",
   "geometry": {
    "type": "Point",
    "coordinates": [
     145.70508283,
     -37.75555993
    ]
   },
   "properties": {
    "name": "10 LITHGOW AVENUE WARBURTON 3799",
    "locID": "LOC000007134758",
    "tech": "FTTN",
    "upgrade": "NULL_NA",
    "gnaf_pid": "GAVIC412595071"
   }
  },
  {
   "type": "Feature",
   "geometry": {
    "type": "Point",
    "coordinates": [
     145.70854089,
     -37.75514723
    ]
   },
   "properties": {
    "name": "2A GIFFORDS ROAD WARBURTON 3799",
    "locID": "LOC000011968735",
    "tech": "FTTN",
    "upgrade": "NULL_NA",
    "gnaf_pid": "GAVIC412595073"
   }
  },
  {
   "type": "Feature",
   "geometry": {
    "type": "Point",
    "coordinates": [
     145.6836273,
     -37.75754836
    ]
   },
   "properties": {
    "name": "12 ALPINE STREET WARBURTON 3799",
    "locID": "LOC000074548990",
    "tech": "FTTN",
    "upgrade": "NULL_NA",
    "gnaf_pid": "GAVIC412595348"
   }
  },
  {
   "type": "Feature",
   "geometry": {
    "type": "Point",
    "coordinates": [
     145.706346,
     -37.748814
    ]
   },
   "properties": {
    "name": "9A YUONGA ROAD WARBURTON 3799",
    "locID": "LOC000030304689",
    "tech": "FTTN",
    "upgrade": "NULL_NA",
    "gnaf_pid": "GAVIC412595350"
   }
  },
  {
   "type": "Feature",
   "geometry": {
    "type": "Point",
    "coordinates": [
     145.70367115,
     -37.75472945
    ]
   },
   "properties": {
    "name": "9 KELLYS ROAD WARBURTON 3799",
    "locID": "ChIJzz7fv-UyKGsRSNnEmFDJUYw",
    "tech": "FTTN",
    "upgrade": "UNKNOWN",
    "gnaf_pid": "GAVIC412595351"
   }
  },
  {
   "type": "Feature",
   "geometry": {
    "type": "Point",
    "coordinates": [
     145.70374975,
     -37.74937354
    ]
   },
   "properties": {
    "name": "16 SALISBURY AVENUE WARBURTON 3799",
    "locID": "LOC000018093295",
    "tech": "FTTN",
    "upgrade": "NULL_NA",
    "gnaf_pid": "GAVIC412595355"
   }
  },
  {
   "type": "Feature",
   "geometry": {
    "type": "Point",
    "coordinates": [
     145.70525641,
     -37.74940678
    ]
   },
   "properties": {
    "name": "5 SALISBURY AVENUE WARBURTON 3799",
    "locID": "LOC000060981744",
    "tech": "FTTN",
    "upgrade": "NULL_NA",
    "gnaf_pid": "GAVIC412595359"
   }
  },
  {
   "type": "Feature",
   "geometry": {
    "type": "Point",
    "coordinates": [
     145.71669479,
     -37.74181151
    ]
   },
   "properties": {
    "name": "88 DONNA BUANG ROAD WARBURTON 3799",
    "locID": "LOC000048203742",
    "tech": "SATELLITE",
    "upgrade": "NULL_NA",
    "gnaf_pid": "GAVIC412595360"
   }
  },
  {
   "type": "Feature",
   "geometry": {
    "type": "Point",
    "coordinates": [
     145.70075059,
     -37.74886112
    ]
   },
   "properties": {
    "name": "41A BLACKWOOD AVENUE WARBURTON 3799",
    "locID": "LOC000106359387",
    "tech": "FTTN",
    "upgrade": "NULL_NA",
    "gnaf_pid": "GAVIC412595362"
   }
  },
  {
   "type": "Feature",
   "geometry": {
    "type": "Point",
    "coordinates": [
     145.7054733,
     -37.7494736
    ]
   },
   "properties": {
    "name": "9 SALISBURY AVENUE WARBURTON 3799",
    "locID": "LOC000107404486",
    "tech": "FTTN",
    "upgrade": "NULL_NA",
    "gnaf_pid": "GAVIC412595364"
   }
  },
  {
   "type": "Feature",
   "geometry": {
    "type": "Point",
    "coordinates": [
     145.70567075,
     -37.74970685
    ]
   },
   "properties": {
    "name": "10 SALISBURY AVENUE WARBURTON 3799",
    "locID": "LOC000060365886",
    "tech": "FTTN",
    "upgrade": "NULL_NA",
    "gnaf_pid": "GAVIC412598985"
   }
  },
  {
   "type": "Feature",
   "geometry": {
    "type": "Point",
    "coordinates": [
     145.7049161,
     -37.74171655
    ]
   },
   "properties": {
    "name": "120 YUONGA ROAD WARBURTON 3799",
    "locID": "LOC000102242427",
    "tech": "SATELLITE",
    "upgrade": "NULL_NA",
    "gnaf_pid": "GAVIC412599150"
   }
  },
  {
   "type": "Feature",
   "geometry": {
    "type": "Point",
    "coordinates": [
     145.66693426,
     -37.75454601
    ]
   },
   "properties": {
    "name": "3175 WARBURTON HIGHWAY WARBURTON 3799",
    "locID": "LOC000074030291",
    "tech": "FTTN",
    "upgrade": "NULL_NA",
    "gnaf_pid": "GAVIC412599151"
   }
  },
  {
   "type": "Feature",
   "geometry": {
    "type": "Point",
    "coordinates": [
     145.66994743,
     -37.75264836
    ]
   },
   "properties": {
    "name": "3185 WARBURTON HIGHWAY WARBURTON 3799",
    "locID": "LOC000019390745",
    "tech": "FTTN",
    "upgrade": "NULL_NA",
    "gnaf_pid": "GAVIC412599152"
   }
  },
  {
   "type": "Feature",
   "geometry": {
    "type": "Point",
    "coordinates": [
     145.68887346,
     -37.75359623
    ]
   },
   "properties": {
    "name": "UNIT 1, 3399 WARBURTON HIGHWAY WARBURTON 3799",
    "locID": "LOC000042731447",
    "tech": "FTTN",
    "upgrade": "NULL_NA",
    "gnaf_pid": "GAVIC412599328"
   }
  },
  {
   "type": "Feature",
   "geometry": {
    "type": "Point",
    "coordinates": [
     145.69721028,
     -37.75029101
    ]
   },
   "properties": {
    "name": "UNIT 1, 60 DAMMANS ROAD WARBURTON 3799",
    "locID": "LOC000079667487",
    "tech": "FTTN",
    "upgrade": "NULL_NA",
    "gnaf_pid": "GAVIC412599331"
   }
  },
  {
   "type": "Feature",
   "geometry": {
    "type": "Point",
    "coordinates": [
     145.69026586,
     -37.7512095
    ]
   },
   "properties": {
    "name": "8 BRETT ROAD WARBURTON 3799",
    "locID": "LOC000076075339",
    "tech": "FTTN",
    "upgrade": "NULL_NA",
    "gnaf_pid": "GAVIC412599338"
   }
  },
  {
   "type": "Feature",
   "geometry": {
    "type": "Point",
    "coordinates": [
     145.70474888,
     -37.74935749
    ]
   },
   "properties": {
    "name": "13 SALISBURY AVENUE WARBURTON 3799",
    "locID": "LOC000067925071",
    "tech": "FTTN",
    "upgrade": "NULL_NA",
    "gnaf_pid": "GAVIC412599347"
   }
  },
  {
   "type": "Feature",
   "geometry": {
    "type": "Point",
    "coordinates": [
     145.70417972,
     -37.75255752
    ]
   },
   "properties": {
    "name": "4 DONNA BUANG ROAD WARBURTON 3799",
    "locID": "LOC000016821528",
    "tech": "FTTN",
    "upgrade": "NULL_NA",
    "gnaf_pid": "GAVIC412599350"
   }
  },
  {
   "type": "Feature",
   "geometry": {
    "type": "Point",
    "coordinates": [
     145.70431841,
     -37.74930769
    ]
   },
   "properties": {
    "name": "15 SALISBURY AVENUE WARBURTON 3799",
    "locID": "LOC000060491581",
    "tech": "FTTN",
    "upgrade": "NULL_NA",
    "gnaf_pid": "GAVIC412599361"
   }
  },
  {
   "type": "Feature",
   "geometry": {
    "type": "Point",
    "coordinates": [
     145.70412223,
     -37.7462032
    ]
   },
   "properties": {
    "name": "2 LOUIS AVENUE WARBURTON 3799",
    "locID": "LOC000006958156",
    "tech": "FTTN",
    "upgrade": "NULL_NA",
    "gnaf_pid": "GAVIC412599367"
   }
  },
  {
   "type": "Feature",
   "geometry": {
    "type": "Point",
    "coordinates": [
     145.69858388,
     -37.7643862
    ]
   },
   "properties": {
    "name": "5 BORONIA ROAD WARBURTON 3799",
    "locID": "LOC000030061776",
    "tech": "FTTN",
    "upgrade": "NULL_NA",
    "gnaf_pid": "GAVIC412602777"
   }
  },
  {
   "type": "Feature",
   "geometry": {
    "type": "Point",
    "coordinates": [
     145.68557869,
     -37.76149076
    ]
   },
   "properties": {
    "name": "90 SCOTCHMANS CREEK ROAD WARBURTON 3799",
    "locID": "LOC000070873239",
    "tech": "SATELLITE",
    "upgrade": "NULL_NA",
    "gnaf_pid": "GAVIC412602781"
   }
  },
  {
   "type": "Feature",
   "geometry": {
    "type": "Point",
    "coordinates": [
     145.70884987,
     -37.75473228
    ]
   },
   "properties": {
    "name": "UNIT 2, 1 GIFFORDS ROAD WARBURTON 3799",
    "locID": "LOC000073950657",
    "tech": "FTTN",
    "upgrade": "NULL_NA",
    "gnaf_pid": "GAVIC412602784"
   }
  },
  {
   "type": "Feature",
   "geometry": {
    "type": "Point",
    "coordinates": [
     145.70360525,
     -37.7491627
    ]
   },
   "properties": {
    "name": "19 SALISBURY AVENUE WARBURTON 3799",
    "locID": "LOC000011165385",
    "tech": "FTTN",
    "upgrade": "NULL_NA",
    "gnaf_pid": "GAVIC412602794"
   }
  },
  {
   "type": "Feature",
   "geometry": {
    "type": "Point",
    "coordinates": [
     145.70482333,
     -37.74700403
    ]
   },
   "properties": {
    "name": "25A YUONGA ROAD WARBURTON 3799",
    "locID": "LOC000029288637",
    "tech": "FTTN",
    "upgrade": "NULL_NA",
    "gnaf_pid": "GAVIC412602920"
   }
  },
  {
   "type": "Feature",
   "geometry": {
    "type": "Point",
    "coordinates": [
     145.70495536,
     -37.74638331
    ]
   },
   "properties": {
    "name": "29 YUONGA ROAD WARBURTON 3799",
    "locID": "LOC000103387676",
    "tech": "FTTN",
    "upgrade": "NULL_NA",
    "gnaf_pid": "GAVIC412602921"
   }
  },
  {
   "type": "Feature",
   "geometry": {
    "type": "Point",
    "coordinates": [
     145.67550615,
     -37.75422578
    ]
   },
   "properties": {
    "name": "6 SURREY ROAD WARBURTON 3799",
    "locID": "LOC000097133011",
    "tech": "FTTN",
    "upgrade": "NULL_NA",
    "gnaf_pid": "GAVIC412602923"
   }
  },
  {
   "type": "Feature",
   "geometry": {
    "type": "Point",
    "coordinates": [
     145.68815093,
     -37.75041016
    ]
   },
   "properties": {
    "name": "24 MARLINO AVENUE WARBURTON 3799",
    "locID": "ChIJvfoLg5MyKGsRiIUuBKitjy4",
    "tech": "FTTN",
    "upgrade": "UNKNOWN",
    "gnaf_pid": "GAVIC412606442"
   }
  },
  {
   "type": "Feature",
   "geometry": {
    "type": "Point",
    "coordinates": [
     145.69039011,
     -37.75214355
    ]
   },
   "properties": {
    "name": "UNIT 8, 38 DAMMANS ROAD WARBURTON 3799",
    "locID": "LOC000010185306",
    "tech": "FTTN",
    "upgrade": "NULL_NA",
    "gnaf_pid": "GAVIC412606443"
   }
  },
  {
   "type": "Feature",
   "geometry": {
    "type": "Point",
    "coordinates": [
     145.67622151,
     -37.75270678
    ]
   },
   "properties": {
    "name": "23 SURREY ROAD WARBURTON 3799",
    "locID": "LOC000057784887",
    "tech": "FTTN",
    "upgrade": "NULL_NA",
    "gnaf_pid": "GAVIC412606449"
   }
  },
  {
   "type": "Feature",
   "geometry": {
    "type": "Point",
    "coordinates": [
     145.68082815,
     -37.75498524
    ]
   },
   "properties": {
    "name": "3315 WARBURTON HIGHWAY WARBURTON 3799",
    "locID": "LOC000096867013",
    "tech": "FTTN",
    "upgrade": "NULL_NA",
    "gnaf_pid": "GAVIC412606461"
   }
  },
  {
   "type": "Feature",
   "geometry": {
    "type": "Point",
    "coordinates": [
     145.6839045,
     -37.76524878
    ]
   },
   "properties": {
    "name": "LOT 107 OLD WARBURTON ROAD WARBURTON 3799",
    "locID": "EjMxMDcgT2xkIFdhcmJ1cnRvbiBSZCwgV2FyYnVydG9uIFZJQyAzNzk5LCBBdXN0cmFsaWEiMBIuChQKEgmP8COLxDIoaxFRjcZ3Ys3QGxBrKhQKEgk9YiG7qzIoaxGcPdx7YhxKTw",
    "tech": "SATELLITE",
    "upgrade": "UNKNOWN",
    "gnaf_pid": "GAVIC412692201"
   }
  },
  {
   "type": "Feature",
   "geometry": {
    "type": "Point",
    "coordinates": [
     145.6839045,
     -37.76524878
    ]
   },
   "properties": {
    "name": "LOT 106 OLD WARBURTON ROAD WARBURTON 3799",
    "locID": "EjMxMDYgT2xkIFdhcmJ1cnRvbiBSZCwgV2FyYnVydG9uIFZJQyAzNzk5LCBBdXN0cmFsaWEiMBIuChQKEgkdQVf1xDIoaxEKBud3RurGxxBqKhQKEgk9YiG7qzIoaxGcPdx7YhxKTw",
    "tech": "SATELLITE",
    "upgrade": "UNKNOWN",
    "gnaf_pid": "GAVIC412692202"
   }
  },
  {
   "type": "Feature",
   "geometry": {
    "type": "Point",
    "coordinates": [
     145.6839045,
     -37.76524878
    ]
   },
   "properties": {
    "name": "LOT 104 OLD WARBURTON ROAD WARBURTON 3799",
    "locID": "LOC000107542838",
    "tech": "SATELLITE",
    "upgrade": "NULL_NA",
    "gnaf_pid": "GAVIC412698171"
   }
  },
  {
   "type": "Feature",
   "geometry": {
    "type": "Point",
    "coordinates": [
     145.6839045,
     -37.76524878
    ]
   },
   "properties": {
    "name": "LOT 105 OLD WARBURTON ROAD WARBURTON 3799",
    "locID": "ChIJxanlMcQyKGsRIksEBvEj-NI",
    "tech": "SATELLITE",
    "upgrade": "UNKNOWN",
    "gnaf_pid": "GAVIC412698172"
   }
  },
  {
   "type": "Feature",
   "geometry": {
    "type": "Point",
    "coordinates": [
     145.70062223,
     -37.76007123
    ]
   },
   "properties": {
    "name": "20 OLD WARBURTON ROAD WARBURTON 3799",
    "locID": "LOC000050299646",
    "tech": "FTTN",
    "upgrade": "NULL_NA",
    "gnaf_pid": "GAVIC414531818"
   }
  },
  {
   "type": "Feature",
   "geometry": {
    "type": "Point",
    "coordinates": [
     145.68588918,
     -37.76114307
    ]
   },
   "properties": {
    "name": "95 SCOTCHMANS CREEK ROAD WARBURTON 3799",
    "locID": "LOC000054865168",
    "tech": "SATELLITE",
    "upgrade": "NULL_NA",
    "gnaf_pid": "GAVIC414532157"
   }
  },
  {
   "type": "Feature",
   "geometry": {
    "type": "Point",
    "coordinates": [
     145.70844618,
     -37.75107401
    ]
   },
   "properties": {
    "name": "19 SHERWOOD AVENUE WARBURTON 3799",
    "locID": "ChIJtURIhfwyKGsRVlTk_gSH59o",
    "tech": "FTTN",
    "upgrade": "UNKNOWN",
    "gnaf_pid": "GAVIC414532159"
   }
  },
  {
   "type": "Feature",
   "geometry": {
    "type": "Point",
    "coordinates": [
     145.70894128,
     -37.7507906
    ]
   },
   "properties": {
    "name": "5 SHERWOOD AVENUE WARBURTON 3799",
    "locID": "LOC000086618412",
    "tech": "FTTN",
    "upgrade": "NULL_NA",
    "gnaf_pid": "GAVIC414532163"
   }
  },
  {
   "type": "Feature",
   "geometry": {
    "type": "Point",
    "coordinates": [
     145.69460529,
     -37.76008585
    ]
   },
   "properties": {
    "name": "45 STORY ROAD WARBURTON 3799",
    "locID": "LOC000026023750",
    "tech": "SATELLITE",
    "upgrade": "NULL_NA",
    "gnaf_pid": "GAVIC414532206"
   }
  },
  {
   "type": "Feature",
   "geometry": {
    "type": "Point",
    "coordinates": [
     145.70536388,
     -37.74954835
    ]
   },
   "properties": {
    "name": "22 SALISBURY AVENUE WARBURTON 3799",
    "locID": "ChIJge6wAPsyKGsRQqm0xF-UwRU",
    "tech": "FTTN",
    "upgrade": "UNKNOWN",
    "gnaf_pid": "GAVIC414550037"
   }
  },
  {
   "type": "Feature",
   "geometry": {
    "type": "Point",
    "coordinates": [
     145.70536388,
     -37.74954835
    ]
   },
   "properties": {
    "name": "21 SALISBURY AVENUE WARBURTON 3799",
    "locID": "ChIJge6wAPsyKGsRZwU0OQQgD_U",
    "tech": "FTTN",
    "upgrade": "UNKNOWN",
    "gnaf_pid": "GAVIC414550049"
   }
  },
  {
   "type": "Feature",
   "geometry": {
    "type": "Point",
    "coordinates": [
     145.70536388,
     -37.74954835
    ]
   },
   "properties": {
    "name": "17 SALISBURY AVENUE WARBURTON 3799",
    "locID": "ChIJge6wAPsyKGsRI8_UM1tUFbM",
    "tech": "FTTN",
    "upgrade": "UNKNOWN",
    "gnaf_pid": "GAVIC414550055"
   }
  },
  {
   "type": "Feature",
   "geometry": {
    "type": "Point",
    "coordinates": [
     145.68357289,
     -37.75916454
    ]
   },
   "properties": {
    "name": "2-3 SCOTCHMANS CREEK ROAD WARBURTON 3799",
    "locID": "ChIJvb16j7syKGsR3oGJlS5qbAM",
    "tech": "SATELLITE",
    "upgrade": "UNKNOWN",
    "gnaf_pid": "GAVIC414550058"
   }
  },
  {
   "type": "Feature",
   "geometry": {
    "type": "Point",
    "coordinates": [
     145.6841874,
     -37.76030775
    ]
   },
   "properties": {
    "name": "65 SCOTCHMANS CREEK ROAD WARBURTON 3799",
    "locID": "ChIJMY1vv7syKGsRz6uYRlGcdc8",
    "tech": "SATELLITE",
    "upgrade": "UNKNOWN",
    "gnaf_pid": "GAVIC414550064"
   }
  },
  {
   "type": "Feature",
   "geometry": {
    "type": "Point",
    "coordinates": [
     145.68755035,
     -37.75459993
    ]
   },
   "properties": {
    "name": "37 STATION ROAD WARBURTON 3799",
    "locID": "LOC000015207976",
    "tech": "FTTN",
    "upgrade": "NULL_NA",
    "gnaf_pid": "GAVIC414568424"
   }
  },
  {
   "type": "Feature",
   "geometry": {
    "type": "Point",
    "coordinates": [
     145.71001904,
     -37.75736678
    ]
   },
   "properties": {
    "name": "19 PHEASANT PARADE WARBURTON 3799",
    "locID": "LOC000047734484",
    "tech": "FTTN",
    "upgrade": "NULL_NA",
    "gnaf_pid": "GAVIC414568433"
   }
  },
  {
   "type": "Feature",
   "geometry": {
    "type": "Point",
    "coordinates": [
     145.7115456,
     -37.75927185
    ]
   },
   "properties": {
    "name": "30 PHEASANT PARADE WARBURTON 3799",
    "locID": "LOC000040253208",
    "tech": "SATELLITE",
    "upgrade": "NULL_NA",
    "gnaf_pid": "GAVIC414568439"
   }
  },
  {
   "type": "Feature",
   "geometry": {
    "type": "Point",
    "coordinates": [
     145.70719403,
     -37.74528364
    ]
   },
   "properties": {
    "name": "11 PIEDMONT AVENUE WARBURTON 3799",
    "locID": "LOC000014263533",
    "tech": "FTTN",
    "upgrade": "NULL_NA",
    "gnaf_pid": "GAVIC414568440"
   }
  },
  {
   "type": "Feature",
   "geometry": {
    "type": "Point",
    "coordinates": [
     145.70299059,
     -37.75753707
    ]
   },
   "properties": {
    "name": "16 PROSPECT AVENUE WARBURTON 3799",
    "locID": "ChIJ18QDMOYyKGsR0AbgXLgINQk",
    "tech": "FTTN",
    "upgrade": "UNKNOWN",
    "gnaf_pid": "GAVIC414568444"
   }
  },
  {
   "type": "Feature",
   "geometry": {
    "type": "Point",
    "coordinates": [
     145.70344805,
     -37.75781603
    ]
   },
   "properties": {
    "name": "20-21 PROSPECT AVENUE WARBURTON 3799",
    "locID": "ChIJgZjiNuYyKGsRIr5OKrCxAMI",
    "tech": "FTTN",
    "upgrade": "UNKNOWN",
    "gnaf_pid": "GAVIC414568450"
   }
  },
  {
   "type": "Feature",
   "geometry": {
    "type": "Point",
    "coordinates": [
     145.70170339,
     -37.75814148
    ]
   },
   "properties": {
    "name": "8 PROSPECT AVENUE WARBURTON 3799",
    "locID": "LOC000060415330",
    "tech": "FTTN",
    "upgrade": "NULL_NA",
    "gnaf_pid": "GAVIC414568451"
   }
  },
  {
   "type": "Feature",
   "geometry": {
    "type": "Point",
    "coordinates": [
     145.70217982,
     -37.75798845
    ]
   },
   "properties": {
    "name": "12 PROSPECT AVENUE WARBURTON 3799",
    "locID": "LOC000045070779",
    "tech": "FTTN",
    "upgrade": "NULL_NA",
    "gnaf_pid": "GAVIC414571859"
   }
  },
  {
   "type": "Feature",
   "geometry": {
    "type": "Point",
    "coordinates": [
     145.68540885,
     -37.74924955
    ]
   },
   "properties": {
    "name": "25 MARLINO AVENUE WARBURTON 3799",
    "locID": "ChIJNRmwWZEyKGsRdCgwfVZeV7Q",
    "tech": "FTTN",
    "upgrade": "UNKNOWN",
    "gnaf_pid": "GAVIC414590017"
   }
  },
  {
   "type": "Feature",
   "geometry": {
    "type": "Point",
    "coordinates": [
     145.6880815,
     -37.7500649
    ]
   },
   "properties": {
    "name": "15 MARLINO AVENUE WARBURTON 3799",
    "locID": "LOC000080762769",
    "tech": "FTTN",
    "upgrade": "NULL_NA",
    "gnaf_pid": "GAVIC414590022"
   }
  },
  {
   "type": "Feature",
   "geometry": {
    "type": "Point",
    "coordinates": [
     145.68540885,
     -37.74924955
    ]
   },
   "properties": {
    "name": "23 MARLINO AVENUE WARBURTON 3799",
    "locID": "LOC000112920732",
    "tech": "FTTN",
    "upgrade": "NULL_NA",
    "gnaf_pid": "GAVIC414590025"
   }
  },
  {
   "type": "Feature",
   "geometry": {
    "type": "Point",
    "coordinates": [
     145.6896363,
     -37.74884377
    ]
   },
   "properties": {
    "name": "UNIT 2, 18 BRETT ROAD WARBURTON 3799",
    "locID": "LOC000040082303",
    "tech": "FTTN",
    "upgrade": "NULL_NA",
    "gnaf_pid": "GAVIC414590652"
   }
  },
  {
   "type": "Feature",
   "geometry": {
    "type": "Point",
    "coordinates": [
     145.6896363,
     -37.74884377
    ]
   },
   "properties": {
    "name": "UNIT 3, 18 BRETT ROAD WARBURTON 3799",
    "locID": "LOC000039504407",
    "tech": "FTTN",
    "upgrade": "NULL_NA",
    "gnaf_pid": "GAVIC414590653"
   }
  },
  {
   "type": "Feature",
   "geometry": {
    "type": "Point",
    "coordinates": [
     145.68709776,
     -37.75257915
    ]
   },
   "properties": {
    "name": "10 WELLINGTON ROAD WARBURTON 3799",
    "locID": "LOC000084914357",
    "tech": "FTTN",
    "upgrade": "NULL_NA",
    "gnaf_pid": "GAVIC414590656"
   }
  },
  {
   "type": "Feature",
   "geometry": {
    "type": "Point",
    "coordinates": [
     145.70935372,
     -37.75102558
    ]
   },
   "properties": {
    "name": "38 WOODS POINT ROAD WARBURTON 3799",
    "locID": "LOC000153317081",
    "tech": "FTTN",
    "upgrade": "NULL_NA",
    "gnaf_pid": "GAVIC414590666"
   }
  },
  {
   "type": "Feature",
   "geometry": {
    "type": "Point",
    "coordinates": [
     145.70935372,
     -37.75102558
    ]
   },
   "properties": {
    "name": "34 WOODS POINT ROAD WARBURTON 3799",
    "locID": "LOC000153317047",
    "tech": "FTTN",
    "upgrade": "NULL_NA",
    "gnaf_pid": "GAVIC414590677"
   }
  },
  {
   "type": "Feature",
   "geometry": {
    "type": "Point",
    "coordinates": [
     145.69303151,
     -37.74975459
    ]
   },
   "properties": {
    "name": "4 BRISBANE HILL ROAD WARBURTON 3799",
    "locID": "LOC000005152364",
    "tech": "FTTN",
    "upgrade": "NULL_NA",
    "gnaf_pid": "GAVIC414590696"
   }
  },
  {
   "type": "Feature",
   "geometry": {
    "type": "Point",
    "coordinates": [
     145.69843963,
     -37.75887215
    ]
   },
   "properties": {
    "name": "14 CLARKE AVENUE WARBURTON 3799",
    "locID": "LOC000034949952",
    "tech": "FTTN",
    "upgrade": "NULL_NA",
    "gnaf_pid": "GAVIC414591933"
   }
  },
  {
   "type": "Feature",
   "geometry": {
    "type": "Point",
    "coordinates": [
     145.69274433,
     -37.74744728
    ]
   },
   "properties": {
    "name": "25 CLINCH STREET WARBURTON 3799",
    "locID": "ChIJ18TenvIyKGsRa7btAEVNDnY",
    "tech": "FTTN",
    "upgrade": "UNKNOWN",
    "gnaf_pid": "GAVIC414591943"
   }
  },
  {
   "type": "Feature",
   "geometry": {
    "type": "Point",
    "coordinates": [
     145.68335809,
     -37.75356412
    ]
   },
   "properties": {
    "name": "21 DAMMANS ROAD WARBURTON 3799",
    "locID": "LOC000036137822",
    "tech": "FTTN",
    "upgrade": "NULL_NA",
    "gnaf_pid": "GAVIC414591991"
   }
  },
  {
   "type": "Feature",
   "geometry": {
    "type": "Point",
    "coordinates": [
     145.68449709,
     -37.75378714
    ]
   },
   "properties": {
    "name": "24 DAMMANS ROAD WARBURTON 3799",
    "locID": "ChIJ9ZvnGZYyKGsRENbm8Z3LlW8",
    "tech": "FTTN",
    "upgrade": "UNKNOWN",
    "gnaf_pid": "GAVIC414591993"
   }
  },
  {
   "type": "Feature",
   "geometry": {
    "type": "Point",
    "coordinates": [
     145.6901025,
     -37.75196032
    ]
   },
   "properties": {
    "name": "36 DAMMANS ROAD WARBURTON 3799",
    "locID": "LOC000095919445",
    "tech": "FTTN",
    "upgrade": "NULL_NA",
    "gnaf_pid": "GAVIC414591995"
   }
  },
  {
   "type": "Feature",
   "geometry": {
    "type": "Point",
    "coordinates": [
     145.68610974,
     -37.75360682
    ]
   },
   "properties": {
    "name": "30 DAMMANS ROAD WARBURTON 3799",
    "locID": "ChIJTVyv3ZUyKGsRU6lJdxcJOJI",
    "tech": "FTTP",
    "upgrade": "UNKNOWN",
    "gnaf_pid": "GAVIC414591998"
   }
  },
  {
   "type": "Feature",
   "geometry": {
    "type": "Point",
    "coordinates": [
     145.6909656,
     -37.75234703
    ]
   },
   "properties": {
    "name": "UNIT 1, 38 DAMMANS ROAD WARBURTON 3799",
    "locID": "LOC000010127886",
    "tech": "FTTN",
    "upgrade": "NULL_NA",
    "gnaf_pid": "GAVIC414591999"
   }
  },
  {
   "type": "Feature",
   "geometry": {
    "type": "Point",
    "coordinates": [
     145.70629557,
     -37.74731837
    ]
   },
   "properties": {
    "name": "47 DONNA BUANG ROAD WARBURTON 3799",
    "locID": "LOC000075562406",
    "tech": "FTTN",
    "upgrade": "NULL_NA",
    "gnaf_pid": "GAVIC414592049"
   }
  },
  {
   "type": "Feature",
   "geometry": {
    "type": "Point",
    "coordinates": [
     145.70411109,
     -37.75275051
    ]
   },
   "properties": {
    "name": "21 WOODS POINT ROAD WARBURTON 3799",
    "locID": "LOC000095469272",
    "tech": "FTTN",
    "upgrade": "NULL_NA",
    "gnaf_pid": "GAVIC414594133"
   }
  },
  {
   "type": "Feature",
   "geometry": {
    "type": "Point",
    "coordinates": [
     145.7051299,
     -37.75323762
    ]
   },
   "properties": {
    "name": "28 WOODS POINT ROAD WARBURTON 3799",
    "locID": "LOC000153316981",
    "tech": "FTTN",
    "upgrade": "NULL_NA",
    "gnaf_pid": "GAVIC414594134"
   }
  },
  {
   "type": "Feature",
   "geometry": {
    "type": "Point",
    "coordinates": [
     145.70925144,
     -37.75461664
    ]
   },
   "properties": {
    "name": "5 GIFFORDS ROAD WARBURTON 3799",
    "locID": "LOC000092468665",
    "tech": "FTTN",
    "upgrade": "NULL_NA",
    "gnaf_pid": "GAVIC414601179"
   }
  },
  {
   "type": "Feature",
   "geometry": {
    "type": "Point",
    "coordinates": [
     145.70951857,
     -37.75453832
    ]
   },
   "properties": {
    "name": "7 GIFFORDS ROAD WARBURTON 3799",
    "locID": "LOC000021857956",
    "tech": "FTTN",
    "upgrade": "NULL_NA",
    "gnaf_pid": "GAVIC414601185"
   }
  },
  {
   "type": "Feature",
   "geometry": {
    "type": "Point",
    "coordinates": [
     145.70932315,
     -37.75494092
    ]
   },
   "properties": {
    "name": "10 GIFFORDS ROAD WARBURTON 3799",
    "locID": "LOC000035716682",
    "tech": "FTTN",
    "upgrade": "NULL_NA",
    "gnaf_pid": "GAVIC414601191"
   }
  },
  {
   "type": "Feature",
   "geometry": {
    "type": "Point",
    "coordinates": [
     145.7120232,
     -37.75313884
    ]
   },
   "properties": {
    "name": "23 GIFFORDS ROAD WARBURTON 3799",
    "locID": "LOC000041014964",
    "tech": "FTTN",
    "upgrade": "NULL_NA",
    "gnaf_pid": "GAVIC414601205"
   }
  },
  {
   "type": "Feature",
   "geometry": {
    "type": "Point",
    "coordinates": [
     145.68785718,
     -37.75391533
    ]
   },
   "properties": {
    "name": "3383 WARBURTON HIGHWAY WARBURTON 3799",
    "locID": "LOC000125522957",
    "tech": "FTTN",
    "upgrade": "NULL_NA",
    "gnaf_pid": "GAVIC414601284"
   }
  },
  {
   "type": "Feature",
   "geometry": {
    "type": "Point",
    "coordinates": [
     145.68915174,
     -37.75353103
    ]
   },
   "properties": {
    "name": "3403 WARBURTON HIGHWAY WARBURTON 3799",
    "locID": "LOC000125527323",
    "tech": "FTTN",
    "upgrade": "NULL_NA",
    "gnaf_pid": "GAVIC414601297"
   }
  },
  {
   "type": "Feature",
   "geometry": {
    "type": "Point",
    "coordinates": [
     145.68045815,
     -37.75503026
    ]
   },
   "properties": {
    "name": "3305 WARBURTON HIGHWAY WARBURTON 3799",
    "locID": "LOC000090463653",
    "tech": "FTTN",
    "upgrade": "NULL_NA",
    "gnaf_pid": "GAVIC414601302"
   }
  },
  {
   "type": "Feature",
   "geometry": {
    "type": "Point",
    "coordinates": [
     145.68845893,
     -37.75323165
    ]
   },
   "properties": {
    "name": "3395 WARBURTON HIGHWAY WARBURTON 3799",
    "locID": "LOC000154581096",
    "tech": "FTTN",
    "upgrade": "NULL_NA",
    "gnaf_pid": "GAVIC414601312"
   }
  },
  {
   "type": "Feature",
   "geometry": {
    "type": "Point",
    "coordinates": [
     145.67315629,
     -37.75449604
    ]
   },
   "properties": {
    "name": "3235 WARBURTON HIGHWAY WARBURTON 3799",
    "locID": "LOC000062524144",
    "tech": "FTTN",
    "upgrade": "NULL_NA",
    "gnaf_pid": "GAVIC414601318"
   }
  },
  {
   "type": "Feature",
   "geometry": {
    "type": "Point",
    "coordinates": [
     145.6811634,
     -37.75496166
    ]
   },
   "properties": {
    "name": "3317 WARBURTON HIGHWAY WARBURTON 3799",
    "locID": "ChIJ2xNRO70yKGsR2-RERGe_J1c",
    "tech": "FTTN",
    "upgrade": "UNKNOWN",
    "gnaf_pid": "GAVIC414601326"
   }
  },
  {
   "type": "Feature",
   "geometry": {
    "type": "Point",
    "coordinates": [
     145.68198951,
     -37.7549097
    ]
   },
   "properties": {
    "name": "3325 WARBURTON HIGHWAY WARBURTON 3799",
    "locID": "LOC000022990971",
    "tech": "FTTN",
    "upgrade": "NULL_NA",
    "gnaf_pid": "GAVIC414601328"
   }
  },
  {
   "type": "Feature",
   "geometry": {
    "type": "Point",
    "coordinates": [
     145.68263876,
     -37.7548798
    ]
   },
   "properties": {
    "name": "3335 WARBURTON HIGHWAY WARBURTON 3799",
    "locID": "LOC000125522926",
    "tech": "FTTN",
    "upgrade": "NULL_NA",
    "gnaf_pid": "GAVIC414601330"
   }
  },
  {
   "type": "Feature",
   "geometry": {
    "type": "Point",
    "coordinates": [
     145.69665803,
     -37.75823146
    ]
   },
   "properties": {
    "name": "4 LEILA ROAD WARBURTON 3799",
    "locID": "ChIJ01QzAOoyKGsROOmua7QTA-Q",
    "tech": "SATELLITE",
    "upgrade": "UNKNOWN",
    "gnaf_pid": "GAVIC414604723"
   }
  },
  {
   "type": "Feature",
   "geometry": {
    "type": "Point",
    "coordinates": [
     145.6685448,
     -37.75543224
    ]
   },
   "properties": {
    "name": "5 OAK AVENUE WARBURTON 3799",
    "locID": "LOC000006154441",
    "tech": "FTTN",
    "upgrade": "NULL_NA",
    "gnaf_pid": "GAVIC414608187"
   }
  },
  {
   "type": "Feature",
   "geometry": {
    "type": "Point",
    "coordinates": [
     145.69884684,
     -37.75407002
    ]
   },
   "properties": {
    "name": "7 PARK ROAD WARBURTON 3799",
    "locID": "LOC000026024030",
    "tech": "FTTN",
    "upgrade": "NULL_NA",
    "gnaf_pid": "GAVIC414608241"
   }
  },
  {
   "type": "Feature",
   "geometry": {
    "type": "Point",
    "coordinates": [
     145.6840505,
     -37.7576655
    ]
   },
   "properties": {
    "name": "17 ALPINE STREET WARBURTON 3799",
    "locID": "ChIJ7Y-eP7wyKGsR9nYUw5M3m9E",
    "tech": "FTTN",
    "upgrade": "UNKNOWN",
    "gnaf_pid": "GAVIC414608816"
   }
  },
  {
   "type": "Feature",
   "geometry": {
    "type": "Point",
    "coordinates": [
     145.68392755,
     -37.75712085
    ]
   },
   "properties": {
    "name": "35 ALPINE STREET WARBURTON 3799",
    "locID": "EiszNSBBbHBpbmUgU3QsIFdhcmJ1cnRvbiBWSUMgMzc5OSwgQXVzdHJhbGlhIjASLgoUChIJy3kKabwyKGsRQNTo63RWBBMQIyoUChIJG-XQN7wyKGsRyulbprKk8Fw",
    "tech": "FTTN",
    "upgrade": "UNKNOWN",
    "gnaf_pid": "GAVIC414608818"
   }
  },
  {
   "type": "Feature",
   "geometry": {
    "type": "Point",
    "coordinates": [
     145.68383,
     -37.75892055
    ]
   },
   "properties": {
    "name": "27 ALPINE STREET WARBURTON 3799",
    "locID": "LOC000077287833",
    "tech": "FTTN",
    "upgrade": "NULL_NA",
    "gnaf_pid": "GAVIC414608823"
   }
  },
  {
   "type": "Feature",
   "geometry": {
    "type": "Point",
    "coordinates": [
     145.68348998,
     -37.75697003
    ]
   },
   "properties": {
    "name": "4 CECIL STREET WARBURTON 3799",
    "locID": "LOC000008599513",
    "tech": "FTTN",
    "upgrade": "NULL_NA",
    "gnaf_pid": "GAVIC414610067"
   }
  },
  {
   "type": "Feature",
   "geometry": {
    "type": "Point",
    "coordinates": [
     145.6886361,
     -37.7554682
    ]
   },
   "properties": {
    "name": "4 CROOM STREET WARBURTON 3799",
    "locID": "LOC000023060818",
    "tech": "FTTN",
    "upgrade": "NULL_NA",
    "gnaf_pid": "GAVIC414610088"
   }
  },
  {
   "type": "Feature",
   "geometry": {
    "type": "Point",
    "coordinates": [
     145.70473663,
     -37.74676875
    ]
   },
   "properties": {
    "name": "27 YUONGA ROAD WARBURTON 3799",
    "locID": "ChIJ9e-jgfkyKGsRdg5O84PSUAE",
    "tech": "FTTN",
    "upgrade": "UNKNOWN",
    "gnaf_pid": "GAVIC414610105"
   }
  },
  {
   "type": "Feature",
   "geometry": {
    "type": "Point",
    "coordinates": [
     145.70535248,
     -37.7459792
    ]
   },
   "properties": {
    "name": "33 YUONGA ROAD WARBURTON 3799",
    "locID": "ChIJx6exdPkyKGsR3SrNmCISaQU",
    "tech": "FTTN",
    "upgrade": "UNKNOWN",
    "gnaf_pid": "GAVIC414610107"
   }
  },
  {
   "type": "Feature",
   "geometry": {
    "type": "Point",
    "coordinates": [
     145.7043952,
     -37.74439105
    ]
   },
   "properties": {
    "name": "90 YUONGA ROAD WARBURTON 3799",
    "locID": "ChIJkZ7gUfgyKGsR9JhgEgdSqso",
    "tech": "SATELLITE",
    "upgrade": "UNKNOWN",
    "gnaf_pid": "GAVIC414610109"
   }
  },
  {
   "type": "Feature",
   "geometry": {
    "type": "Point",
    "coordinates": [
     145.7043053,
     -37.74479483
    ]
   },
   "properties": {
    "name": "100 YUONGA ROAD WARBURTON 3799",
    "locID": "ChIJGb7psfkyKGsRzcwHtkPK5rE",
    "tech": "SATELLITE",
    "upgrade": "UNKNOWN",
    "gnaf_pid": "GAVIC414610110"
   }
  },
  {
   "type": "Feature",
   "geometry": {
    "type": "Point",
    "coordinates": [
     145.7054985,
     -37.74074374
    ]
   },
   "properties": {
    "name": "150 YUONGA ROAD WARBURTON 3799",
    "locID": "ChIJpRdhlFYyKGsRdpPndtADWF4",
    "tech": "SATELLITE",
    "upgrade": "UNKNOWN",
    "gnaf_pid": "GAVIC414610112"
   }
  },
  {
   "type": "Feature",
   "geometry": {
    "type": "Point",
    "coordinates": [
     145.6909656,
     -37.75234703
    ]
   },
   "properties": {
    "name": "UNIT 2, 38 DAMMANS ROAD WARBURTON 3799",
    "locID": "LOC000010127886",
    "tech": "FTTN",
    "upgrade": "NULL_NA",
    "gnaf_pid": "GAVIC414610134"
   }
  },
  {
   "type": "Feature",
   "geometry": {
    "type": "Point",
    "coordinates": [
     145.70666776,
     -37.75013355
    ]
   },
   "properties": {
    "name": "2 YUONGA ROAD WARBURTON 3799",
    "locID": "LOC000008875379",
    "tech": "FTTN",
    "upgrade": "NULL_NA",
    "gnaf_pid": "GAVIC414612279"
   }
  },
  {
   "type": "Feature",
   "geometry": {
    "type": "Point",
    "coordinates": [
     145.69436075,
     -37.74945721
    ]
   },
   "properties": {
    "name": "12 BRISBANE PARADE WARBURTON 3799",
    "locID": "LOC000073617503",
    "tech": "FTTN",
    "upgrade": "NULL_NA",
    "gnaf_pid": "GAVIC414615722"
   }
  },
  {
   "type": "Feature",
   "geometry": {
    "type": "Point",
    "coordinates": [
     145.6949736,
     -37.7490888
    ]
   },
   "properties": {
    "name": "7 BRISBANE PARADE WARBURTON 3799",
    "locID": "ChIJMy_yi-0yKGsR2pF2ldjAW0k",
    "tech": "FTTN",
    "upgrade": "UNKNOWN",
    "gnaf_pid": "GAVIC414615724"
   }
  },
  {
   "type": "Feature",
   "geometry": {
    "type": "Point",
    "coordinates": [
     145.7089843,
     -37.75469496
    ]
   },
   "properties": {
    "name": "3 GIFFORDS ROAD WARBURTON 3799",
    "locID": "LOC000096385613",
    "tech": "FTTN",
    "upgrade": "NULL_NA",
    "gnaf_pid": "GAVIC414619321"
   }
  },
  {
   "type": "Feature",
   "geometry": {
    "type": "Point",
    "coordinates": [
     145.710009,
     -37.754244
    ]
   },
   "properties": {
    "name": "15B GIFFORDS ROAD WARBURTON 3799",
    "locID": "ChIJN5CfJOMyKGsRInX6mefdn4I",
    "tech": "FTTN",
    "upgrade": "UNKNOWN",
    "gnaf_pid": "GAVIC414619329"
   }
  },
  {
   "type": "Feature",
   "geometry": {
    "type": "Point",
    "coordinates": [
     145.710881,
     -37.753739
    ]
   },
   "properties": {
    "name": "17A GIFFORDS ROAD WARBURTON 3799",
    "locID": "LOC000176785027",
    "tech": "FTTN",
    "upgrade": "NULL_NA",
    "gnaf_pid": "GAVIC414622778"
   }
  },
  {
   "type": "Feature",
   "geometry": {
    "type": "Point",
    "coordinates": [
     145.6851683,
     -37.75665376
    ]
   },
   "properties": {
    "name": "7 GLENBROOK ROAD WARBURTON 3799",
    "locID": "LOC000015609344",
    "tech": "FTTN",
    "upgrade": "NULL_NA",
    "gnaf_pid": "GAVIC414622784"
   }
  },
  {
   "type": "Feature",
   "geometry": {
    "type": "Point",
    "coordinates": [
     145.70043296,
     -37.75672982
    ]
   },
   "properties": {
    "name": "8-10 HORNERS ROAD WARBURTON 3799",
    "locID": "ChIJqb3G8egyKGsRjVdtXlZ9D2Y",
    "tech": "FTTN",
    "upgrade": "UNKNOWN",
    "gnaf_pid": "GAVIC414622836"
   }
  },
  {
   "type": "Feature",
   "geometry": {
    "type": "Point",
    "coordinates": [
     145.70367115,
     -37.75472945
    ]
   },
   "properties": {
    "name": "12 KELLYS ROAD WARBURTON 3799",
    "locID": "ChIJzz7fv-UyKGsRAu40e_iGXV8",
    "tech": "FTTN",
    "upgrade": "UNKNOWN",
    "gnaf_pid": "GAVIC414622838"
   }
  },
  {
   "type": "Feature",
   "geometry": {
    "type": "Point",
    "coordinates": [
     145.70356178,
     -37.75494132
    ]
   },
   "properties": {
    "name": "30 KELLYS ROAD WARBURTON 3799",
    "locID": "LOC000001955100",
    "tech": "FTTN",
    "upgrade": "NULL_NA",
    "gnaf_pid": "GAVIC414622845"
   }
  },
  {
   "type": "Feature",
   "geometry": {
    "type": "Point",
    "coordinates": [
     145.67768879,
     -37.74614573
    ]
   },
   "properties": {
    "name": "7 KENT STREET WARBURTON 3799",
    "locID": "ChIJu8uSSZoyKGsRC2Pd7zupKZQ",
    "tech": "FTTP",
    "upgrade": "UNKNOWN",
    "gnaf_pid": "GAVIC414622862"
   }
  },
  {
   "type": "Feature",
   "geometry": {
    "type": "Point",
    "coordinates": [
     145.67705466,
     -37.74558744
    ]
   },
   "properties": {
    "name": "24 KENT STREET WARBURTON 3799",
    "locID": "ChIJLzqzs5syKGsRm95IJWSy6x4",
    "tech": "FTTN",
    "upgrade": "UNKNOWN",
    "gnaf_pid": "GAVIC414622863"
   }
  },
  {
   "type": "Feature",
   "geometry": {
    "type": "Point",
    "coordinates": [
     145.67481764,
     -37.75347831
    ]
   },
   "properties": {
    "name": "9 LINCOLN ROAD WARBURTON 3799",
    "locID": "LOC000082450204",
    "tech": "FTTN",
    "upgrade": "NULL_NA",
    "gnaf_pid": "GAVIC414622897"
   }
  },
  {
   "type": "Feature",
   "geometry": {
    "type": "Point",
    "coordinates": [
     145.70563636,
     -37.75724388
    ]
   },
   "properties": {
    "name": "26 LITHGOW AVENUE WARBURTON 3799",
    "locID": "ChIJjVCOj-YyKGsRrhOI8uLTyyk",
    "tech": "FTTN",
    "upgrade": "UNKNOWN",
    "gnaf_pid": "GAVIC414622902"
   }
  },
  {
   "type": "Feature",
   "geometry": {
    "type": "Point",
    "coordinates": [
     145.70494612,
     -37.75583046
    ]
   },
   "properties": {
    "name": "7 LITHGOW AVENUE WARBURTON 3799",
    "locID": "ChIJQ_Sb0uUyKGsRfbzXcEEH2II",
    "tech": "FTTN",
    "upgrade": "UNKNOWN",
    "gnaf_pid": "GAVIC414622903"
   }
  },
  {
   "type": "Feature",
   "geometry": {
    "type": "Point",
    "coordinates": [
     145.70442693,
     -37.75541753
    ]
   },
   "properties": {
    "name": "4 LITHGOW AVENUE WARBURTON 3799",
    "locID": "LOC000071599690",
    "tech": "FTTN",
    "upgrade": "NULL_NA",
    "gnaf_pid": "GAVIC414622910"
   }
  },
  {
   "type": "Feature",
   "geometry": {
    "type": "Point",
    "coordinates": [
     145.70477538,
     -37.75691745
    ]
   },
   "properties": {
    "name": "17 LITHGOW AVENUE WARBURTON 3799",
    "locID": "LOC000079331025",
    "tech": "FTTN",
    "upgrade": "NULL_NA",
    "gnaf_pid": "GAVIC414622912"
   }
  },
  {
   "type": "Feature",
   "geometry": {
    "type": "Point",
    "coordinates": [
     145.70563636,
     -37.75724388
    ]
   },
   "properties": {
    "name": "UNIT 1, 26 LITHGOW AVENUE WARBURTON 3799",
    "locID": "ChIJjVCOj-YyKGsRrhOI8uLTyyk",
    "tech": "FTTN",
    "upgrade": "UNKNOWN",
    "gnaf_pid": "GAVIC414622913"
   }
  },
  {
   "type": "Feature",
   "geometry": {
    "type": "Point",
    "coordinates": [
     145.70563636,
     -37.75724388
    ]
   },
   "properties": {
    "name": "UNIT 2, 26 LITHGOW AVENUE WARBURTON 3799",
    "locID": "ChIJjVCOj-YyKGsRrhOI8uLTyyk",
    "tech": "FTTN",
    "upgrade": "UNKNOWN",
    "gnaf_pid": "GAVIC414622914"
   }
  },
  {
   "type": "Feature",
   "geometry": {
    "type": "Point",
    "coordinates": [
     145.68667694,
     -37.75456315
    ]
   },
   "properties": {
    "name": "3360 WARBURTON HIGHWAY WARBURTON 3799",
    "locID": "LOC000090904374",
    "tech": "FTTN",
    "upgrade": "NULL_NA",
    "gnaf_pid": "GAVIC414622926"
   }
  },
  {
   "type": "Feature",
   "geometry": {
    "type": "Point",
    "coordinates": [
     145.6868735,
     -37.75422026
    ]
   },
   "properties": {
    "name": "3365 WARBURTON HIGHWAY WARBURTON 3799",
    "locID": "LOC000042442462",
    "tech": "FTTN",
    "upgrade": "NULL_NA",
    "gnaf_pid": "GAVIC414622927"
   }
  },
  {
   "type": "Feature",
   "geometry": {
    "type": "Point",
    "coordinates": [
     145.68763021,
     -37.75398459
    ]
   },
   "properties": {
    "name": "3379 WARBURTON HIGHWAY WARBURTON 3799",
    "locID": "LOC000011813828",
    "tech": "FTTN",
    "upgrade": "NULL_NA",
    "gnaf_pid": "GAVIC414626338"
   }
  },
  {
   "type": "Feature",
   "geometry": {
    "type": "Point",
    "coordinates": [
     145.68397198,
     -37.75193259
    ]
   },
   "properties": {
    "name": "55 MARTYR ROAD WARBURTON 3799",
    "locID": "ChIJlRQWX5YyKGsRMo2BruHX9W0",
    "tech": "FTTP",
    "upgrade": "UNKNOWN",
    "gnaf_pid": "GAVIC414626340"
   }
  },
  {
   "type": "Feature",
   "geometry": {
    "type": "Point",
    "coordinates": [
     145.68397198,
     -37.75193259
    ]
   },
   "properties": {
    "name": "57 MARTYR ROAD WARBURTON 3799",
    "locID": "ChIJlRQWX5YyKGsRyKrgAFKqki8",
    "tech": "FTTP",
    "upgrade": "UNKNOWN",
    "gnaf_pid": "GAVIC414626341"
   }
  },
  {
   "type": "Feature",
   "geometry": {
    "type": "Point",
    "coordinates": [
     145.68397198,
     -37.75193259
    ]
   },
   "properties": {
    "name": "53 MARTYR ROAD WARBURTON 3799",
    "locID": "ChIJlRQWX5YyKGsReMwC-tTS8lE",
    "tech": "FTTP",
    "upgrade": "UNKNOWN",
    "gnaf_pid": "GAVIC414626342"
   }
  },
  {
   "type": "Feature",
   "geometry": {
    "type": "Point",
    "coordinates": [
     145.68397198,
     -37.75193259
    ]
   },
   "properties": {
    "name": "51 MARTYR ROAD WARBURTON 3799",
    "locID": "ChIJlRQWX5YyKGsRfd3iEgr0_Fo",
    "tech": "FTTP",
    "upgrade": "UNKNOWN",
    "gnaf_pid": "GAVIC414626343"
   }
  },
  {
   "type": "Feature",
   "geometry": {
    "type": "Point",
    "coordinates": [
     145.69726045,
     -37.75003071
    ]
   },
   "properties": {
    "name": "2 RIVER ROAD WARBURTON 3799",
    "locID": "LOC000030216218",
    "tech": "FTTN",
    "upgrade": "NULL_NA",
    "gnaf_pid": "GAVIC414626368"
   }
  },
  {
   "type": "Feature",
   "geometry": {
    "type": "Point",
    "coordinates": [
     145.69730555,
     -37.74979935
    ]
   },
   "properties": {
    "name": "4 RIVER ROAD WARBURTON 3799",
    "locID": "LOC000002917718",
    "tech": "FTTN",
    "upgrade": "NULL_NA",
    "gnaf_pid": "GAVIC414626369"
   }
  },
  {
   "type": "Feature",
   "geometry": {
    "type": "Point",
    "coordinates": [
     145.69218625,
     -37.76465546
    ]
   },
   "properties": {
    "name": "166 OLD WARBURTON ROAD WARBURTON 3799",
    "locID": "ChIJIf23hccyKGsRirHwjXaQqFY",
    "tech": "SATELLITE",
    "upgrade": "UNKNOWN",
    "gnaf_pid": "GAVIC414626385"
   }
  },
  {
   "type": "Feature",
   "geometry": {
    "type": "Point",
    "coordinates": [
     145.66794458,
     -37.76974064
    ]
   },
   "properties": {
    "name": "526 OLD WARBURTON ROAD WARBURTON 3799",
    "locID": "ChIJtbODi6rSKWsRJozFSmF11Oc",
    "tech": "SATELLITE",
    "upgrade": "UNKNOWN",
    "gnaf_pid": "GAVIC414626396"
   }
  },
  {
   "type": "Feature",
   "geometry": {
    "type": "Point",
    "coordinates": [
     145.66716251,
     -37.77351016
    ]
   },
   "properties": {
    "name": "530 OLD WARBURTON ROAD WARBURTON 3799",
    "locID": "LOC000125535799",
    "tech": "SATELLITE",
    "upgrade": "NULL_NA",
    "gnaf_pid": "GAVIC414626397"
   }
  },
  {
   "type": "Feature",
   "geometry": {
    "type": "Point",
    "coordinates": [
     145.67565516,
     -37.7536065
    ]
   },
   "properties": {
    "name": "12 SURREY ROAD WARBURTON 3799",
    "locID": "LOC000005154926",
    "tech": "FTTN",
    "upgrade": "NULL_NA",
    "gnaf_pid": "GAVIC414626930"
   }
  },
  {
   "type": "Feature",
   "geometry": {
    "type": "Point",
    "coordinates": [
     145.67600188,
     -37.75367766
    ]
   },
   "properties": {
    "name": "13 SURREY ROAD WARBURTON 3799",
    "locID": "ChIJ9U7wS6IyKGsRXothlLp_G-c",
    "tech": "FTTN",
    "upgrade": "UNKNOWN",
    "gnaf_pid": "GAVIC414626931"
   }
  },
  {
   "type": "Feature",
   "geometry": {
    "type": "Point",
    "coordinates": [
     145.70847207,
     -37.7480191
    ]
   },
   "properties": {
    "name": "21 WATTLETREE ROAD WARBURTON 3799",
    "locID": "ChIJh1aIqP4yKGsR96hie7-Aqww",
    "tech": "FTTN",
    "upgrade": "UNKNOWN",
    "gnaf_pid": "GAVIC414626975"
   }
  },
  {
   "type": "Feature",
   "geometry": {
    "type": "Point",
    "coordinates": [
     145.70847207,
     -37.7480191
    ]
   },
   "properties": {
    "name": "42 WATTLETREE ROAD WARBURTON 3799",
    "locID": "ChIJh1aIqP4yKGsRbQMVQjrS-Q8",
    "tech": "FTTN",
    "upgrade": "UNKNOWN",
    "gnaf_pid": "GAVIC414626976"
   }
  },
  {
   "type": "Feature",
   "geometry": {
    "type": "Point",
    "coordinates": [
     145.7000829,
     -37.74937831
    ]
   },
   "properties": {
    "name": "60 BLACKWOOD AVENUE WARBURTON 3799",
    "locID": "ChIJKZNeKvAyKGsR_noTByD6L8E",
    "tech": "FTTN",
    "upgrade": "UNKNOWN",
    "gnaf_pid": "GAVIC414626989"
   }
  },
  {
   "type": "Feature",
   "geometry": {
    "type": "Point",
    "coordinates": [
     145.697812,
     -37.764262
    ]
   },
   "properties": {
    "name": "9 BORONIA ROAD WARBURTON 3799",
    "locID": "LOC000044722509",
    "tech": "FTTN",
    "upgrade": "NULL_NA",
    "gnaf_pid": "GAVIC414626990"
   }
  },
  {
   "type": "Feature",
   "geometry": {
    "type": "Point",
    "coordinates": [
     145.6996355,
     -37.7648455
    ]
   },
   "properties": {
    "name": "4 BORONIA ROAD WARBURTON 3799",
    "locID": "ChIJfz2eicQyKGsR1Td9rmxMWVY",
    "tech": "FTTN",
    "upgrade": "UNKNOWN",
    "gnaf_pid": "GAVIC414627002"
   }
  },
  {
   "type": "Feature",
   "geometry": {
    "type": "Point",
    "coordinates": [
     145.6896363,
     -37.74884377
    ]
   },
   "properties": {
    "name": "UNIT 1, 18 BRETT ROAD WARBURTON 3799",
    "locID": "LOC000040232901",
    "tech": "FTTN",
    "upgrade": "NULL_NA",
    "gnaf_pid": "GAVIC414627007"
   }
  },
  {
   "type": "Feature",
   "geometry": {
    "type": "Point",
    "coordinates": [
     145.69834487,
     -37.74928296
    ]
   },
   "properties": {
    "name": "12 CORNISH ROAD WARBURTON 3799",
    "locID": "ChIJ5dyQ3vEyKGsRtYP2UfprWUQ",
    "tech": "FTTN",
    "upgrade": "UNKNOWN",
    "gnaf_pid": "GAVIC414628245"
   }
  },
  {
   "type": "Feature",
   "geometry": {
    "type": "Point",
    "coordinates": [
     145.70057836,
     -37.74702581
    ]
   },
   "properties": {
    "name": "40 ANDERSONS AVENUE WARBURTON 3799",
    "locID": "LOC000031715248",
    "tech": "FTTN",
    "upgrade": "NULL_NA",
    "gnaf_pid": "GAVIC414630395"
   }
  },
  {
   "type": "Feature",
   "geometry": {
    "type": "Point",
    "coordinates": [
     145.697817,
     -37.749729
    ]
   },
   "properties": {
    "name": "27 BLACKWOOD AVENUE WARBURTON 3799",
    "locID": "LOC000028458591",
    "tech": "FTTN",
    "upgrade": "NULL_NA",
    "gnaf_pid": "GAVIC414630405"
   }
  },
  {
   "type": "Feature",
   "geometry": {
    "type": "Point",
    "coordinates": [
     145.69983409,
     -37.74930817
    ]
   },