{
 "type": "FeatureCollection",
 "generated": "2024-09-16T03:22:24.135751",
 "suburb": "WARBURTON",
 "features": [
  {
   "type": "Feature",
   "geometry": {
    "type": "Point",
    "coordinates": [
     145.68702175,
     -37.75523
    ]
   },
   "properties": {
    "name": "30 STATION ROAD WARBURTON 3799",
    "locID": "LOC000041464743",
    "tech": "FTTN",
    "upgrade": "FTTP_NA",
    "gnaf_pid": "GAVIC412525878",
    "tech_change_status": "In Design",
    "program_type": "On-Demand N2P SDU/MDU Simple",
    "target_eligibility_quarter": "Dec 2025"
   }
  },
  {
   "type": "Feature",
   "geometry": {
    "type": "Point",
    "coordinates": [
     145.70247686,
     -37.75230147
    ]
   },
   "properties": {
    "name": "5 WOODS POINT ROAD WARBURTON 3799",
    "locID": "LOC000153316557",
    "tech": "FTTN",
    "upgrade": "FTTP_NA",
    "gnaf_pid": "GAVIC412525879",
    "tech_change_status": "In Design",
    "program_type": "Customer-initiated N2P MDU Complex",
    "target_eligibility_quarter": "Dec 2025"
   }
  },
  {
   "type": "Feature",
   "geometry": {
    "type": "Point",
    "coordinates": [
     145.70781969,
     -37.7466567
    ]
   },
   "properties": {
    "name": "53 DONNA BUANG ROAD WARBURTON 3799",
    "locID": "LOC000023458017",
    "tech": "FTTN",
    "upgrade": "FTTP_NA",
    "gnaf_pid": "GAVIC412525883",
    "tech_change_status": "In Design",
    "program_type": "On-Demand N2P SDU/MDU Simple",
    "target_eligibility_quarter": "Dec 2025"
   }
  },
  {
   "type": "Feature",
   "geometry": {
    "type": "Point",
    "coordinates": [
     145.70538046,
     -37.74966444
    ]
   },
   "properties": {
    "name": "12 SALISBURY AVENUE WARBURTON 3799",
    "locID": "LOC000094104721",
    "tech": "FTTN",
    "upgrade": "FTTP_NA",
    "gnaf_pid": "GAVIC412525885",
    "tech_change_status": "In Design",
    "program_type": "On-Demand N2P SDU/MDU Simple",
    "target_eligibility_quarter": "Dec 2025"
   }
  },
  {
   "type": "Feature",
   "geometry": {
    "type": "Point",
    "coordinates": [
     145.6914228,
     -37.75064135
    ]
   },
   "properties": {
    "name": "7 HAND STREET WARBURTON 3799",
    "locID": "LOC000046079184",
    "tech": "FTTN",
    "upgrade": "FTTP_NA",
    "gnaf_pid": "GAVIC412525892",
    "tech_change_status": "In Design",
    "program_type": "On-Demand N2P SDU/MDU Simple",
    "target_eligibility_quarter": "Dec 2025"
   }
  },
  {
   "type": "Feature",
   "geometry": {
    "type": "Point",
    "coordinates": [
     145.69118575,
     -37.75056661
    ]
   },
   "properties": {
    "name": "9 HAND STREET WARBURTON 3799",
    "locID": "LOC000061168755",
    "tech": "FTTN",
    "upgrade": "FTTP_NA",
    "gnaf_pid": "GAVIC412525896",
    "tech_change_status": "In Design",
    "program_type": "On-Demand N2P SDU/MDU Simple",
    "target_eligibility_quarter": "Dec 2025"
   }
  },
  {
   "type": "Feature",
   "geometry": {
    "type": "Point",
    "coordinates": [
     145.70839656,
     -37.75521426
    ]
   },
   "properties": {
    "name": "2 GIFFORDS ROAD WARBURTON 3799",
    "locID": "LOC000011919567",
    "tech": "FTTN",
    "upgrade": "FTTP_NA",
    "gnaf_pid": "GAVIC412525901",
    "tech_change_status": "In Design",
    "program_type": "On-Demand N2P SDU/MDU Simple",
    "target_eligibility_quarter": "Dec 2025"
   }
  },
  {
   "type": "Feature",
   "geometry": {
    "type": "Point",
    "coordinates": [
     145.68834143,
     -37.75551313
    ]
   },
   "properties": {
    "name": "2A CROOM STREET WARBURTON 3799",
    "locID": "LOC000031057664",
    "tech": "FTTN",
    "upgrade": "FTTP_NA",
    "gnaf_pid": "GAVIC412529339",
    "tech_change_status": "In Design",
    "program_type": "On-Demand N2P SDU/MDU Simple",
    "target_eligibility_quarter": "Dec 2025"
   }
  },
  {
   "type": "Feature",
   "geometry": {
    "type": "Point",
    "coordinates": [
     145.71788729,
     -37.75310078
    ]
   },
   "properties": {
    "name": "40 GIFFORDS ROAD WARBURTON 3799",
    "locID": "LOC000078087695",
    "tech": "NULL",
    "upgrade": "NULL_NA",
    "gnaf_pid": "GAVIC412529358",
    "tech_change_status": "Not Planned"
   }
  },
  {
   "type": "Feature",
   "geometry": {
    "type": "Point",
    "coordinates": [
     145.68385654,
     -37.75870454
    ]
   },
   "properties": {
    "name": "25 ALPINE STREET WARBURTON 3799",
    "locID": "LOC000054346678",
    "tech": "FTTN",
    "upgrade": "FTTP_NA",
    "gnaf_pid": "GAVIC412529371",
    "tech_change_status": "In Design",
    "program_type": "On-Demand N2P SDU/MDU Simple",
    "target_eligibility_quarter": "Dec 2025"
   }
  },
  {
   "type": "Feature",
   "geometry": {
    "type": "Point",
    "coordinates": [
     145.68493724,
     -37.75009221
    ]
   },
   "properties": {
    "name": "42 WELLINGTON ROAD WARBURTON 3799",
    "locID": "LOC000101130249",
    "tech": "FTTN",
    "upgrade": "FTTP_NA",
    "gnaf_pid": "GAVIC412534287",
    "tech_change_status": "In Design",
    "program_type": "On-Demand N2P SDU/MDU Simple",
    "target_eligibility_quarter": "Dec 2025"
   }
  },
  {
   "type": "Feature",
   "geometry": {
    "type": "Point",
    "coordinates": [
     145.6921251,
     -37.75011313
    ]
   },
   "properties": {
    "name": "6 HAND STREET WARBURTON 3799",
    "locID": "LOC000100635428",
    "tech": "FTTN",
    "upgrade": "FTTP_NA",
    "gnaf_pid": "GAVIC412534290",
    "tech_change_status": "In Design",
    "program_type": "On-Demand N2P SDU/MDU Simple",
    "target_eligibility_quarter": "Dec 2025"
   }
  },
  {
   "type": "Feature",
   "geometry": {
    "type": "Point",
    "coordinates": [
     145.68361478,
     -37.75818745
    ]
   },
   "properties": {
    "name": "45 SCOTCHMANS CREEK ROAD WARBURTON 3799",
    "locID": "LOC000067677680",
    "tech": "FTTN",
    "upgrade": "FTTP_NA",
    "gnaf_pid": "GAVIC412534477",
    "tech_change_status": "In Design",
    "program_type": "On-Demand N2P SDU/MDU Simple",
    "target_eligibility_quarter": "Dec 2025"
   }
  },
  {
   "type": "Feature",
   "geometry": {
    "type": "Point",
    "coordinates": [
     145.68769951,
     -37.75515135
    ]
   },
   "properties": {
    "name": "36 STATION ROAD WARBURTON 3799",
    "locID": "LOC000005287501",
    "tech": "FTTN",
    "upgrade": "FTTP_NA",
    "gnaf_pid": "GAVIC412534478",
    "tech_change_status": "In Design",
    "program_type": "On-Demand N2P SDU/MDU Simple",
    "target_eligibility_quarter": "Dec 2025"
   }
  },
  {
   "type": "Feature",
   "geometry": {
    "type": "Point",
    "coordinates": [
     145.70616398,
     -37.7495713
    ]
   },
   "properties": {
    "name": "3 SALISBURY AVENUE WARBURTON 3799",
    "locID": "LOC000015612839",
    "tech": "FTTN",
    "upgrade": "FTTP_NA",
    "gnaf_pid": "GAVIC412534479",
    "tech_change_status": "In Design",
    "program_type": "On-Demand N2P SDU/MDU Simple",
    "target_eligibility_quarter": "Dec 2025"
   }
  },
  {
   "type": "Feature",
   "geometry": {
    "type": "Point",
    "coordinates": [
     145.70293188,
     -37.74745836
    ]
   },
   "properties": {
    "name": "10 ANDERSONS AVENUE WARBURTON 3799",
    "locID": "LOC000103231126",
    "tech": "FTTN",
    "upgrade": "NULL_NA",
    "gnaf_pid": "GAVIC412534502",
    "tech_change_status": "Not Planned"
   }
  },
  {
   "type": "Feature",
   "geometry": {
    "type": "Point",
    "coordinates": [
     145.71438704,
     -37.74724428
    ]
   },
   "properties": {
    "name": "135 WOODS POINT ROAD WARBURTON 3799",
    "locID": "LOC000083188360",
    "tech": "FTTN",
    "upgrade": "FTTP_NA",
    "gnaf_pid": "GAVIC412534515",
    "tech_change_status": "In Design",
    "program_type": "On-Demand N2P SDU/MDU Simple",
    "target_eligibility_quarter": "Dec 2025"
   }
  },
  {
   "type": "Feature",
   "geometry": {
    "type": "Point",
    "coordinates": [
     145.6689144,
     -37.75439969
    ]
   },
   "properties": {
    "name": "3195 WARBURTON HIGHWAY WARBURTON 3799",
    "locID": "LOC000041142050",
    "tech": "FTTN",
    "upgrade": "FTTP_NA",
    "gnaf_pid": "GAVIC412534648",
    "tech_change_status": "Committed",
    "program_type": "On-Demand N2P SDU/MDU Simple",
    "target_eligibility_quarter": "Dec 2025"
   }
  },
  {
   "type": "Feature",
   "geometry": {
    "type": "Point",
    "coordinates": [
     145.70889701,
     -37.74773981
    ]
   },
   "properties": {
    "name": "2A FERNDALE ROAD WARBURTON 3799",
    "locID": "LOC000034956666",
    "tech": "FTTN",
    "upgrade": "FTTP_NA",
    "gnaf_pid": "GAVIC412534654",
    "tech_change_status": "In Design",
    "program_type": "On-Demand N2P SDU/MDU Simple",
    "target_eligibility_quarter": "Dec 2025"
   }
  },
  {
   "type": "Feature",
   "geometry": {
    "type": "Point",
    "coordinates": [
     145.70112651,
     -37.75979739
    ]
   },
   "properties": {
    "name": "11A OLD WARBURTON ROAD WARBURTON 3799",
    "locID": "LOC000046497577",
    "tech": "FTTN",
    "upgrade": "FTTP_NA",
    "gnaf_pid": "GAVIC412534661",
    "tech_change_status": "In Design",
    "program_type": "On-Demand N2P SDU/MDU Simple",
    "target_eligibility_quarter": "Dec 2025"
   }
  },
  {
   "type": "Feature",
   "geometry": {
    "type": "Point",
    "coordinates": [
     145.70484037,
     -37.74702208
    ]
   },
   "properties": {
    "name": "25 YUONGA ROAD WARBURTON 3799",
    "locID": "LOC000029251730",
    "tech": "FTTN",
    "upgrade": "FTTP_NA",
    "gnaf_pid": "GAVIC412536688",
    "tech_change_status": "In Design",
    "program_type": "On-Demand N2P SDU/MDU Simple",
    "target_eligibility_quarter": "Dec 2025"
   }
  },
  {
   "type": "Feature",
   "geometry": {
    "type": "Point",
    "coordinates": [
     145.69874562,
     -37.74990228
    ]
   },
   "properties": {
    "name": "50A BLACKWOOD AVENUE WARBURTON 3799",
    "locID": "LOC000001940715",
    "tech": "FTTN",
    "upgrade": "FTTP_NA",
    "gnaf_pid": "GAVIC412536694",
    "tech_change_status": "In Design",
    "program_type": "On-Demand N2P SDU/MDU Simple",
    "target_eligibility_quarter": "Dec 2025"
   }
  },
  {
   "type": "Feature",
   "geometry": {
    "type": "Point",
    "coordinates": [
     145.7075521,
     -37.74986201
    ]
   },
   "properties": {
    "name": "1 YUONGA ROAD WARBURTON 3799",
    "locID": "LOC000102342949",
    "tech": "FTTN",
    "upgrade": "FTTP_NA",
    "gnaf_pid": "GAVIC412536697",
    "tech_change_status": "In Design",
    "program_type": "On-Demand N2P SDU/MDU Simple",
    "target_eligibility_quarter": "Dec 2025"
   }
  },
  {
   "type": "Feature",
   "geometry": {
    "type": "Point",
    "coordinates": [
     145.67546018,
     -37.75441706
    ]
   },
   "properties": {
    "name": "4 SURREY ROAD WARBURTON 3799",
    "locID": "LOC000002758076",
    "tech": "FTTN",
    "upgrade": "FTTP_NA",
    "gnaf_pid": "GAVIC412538369",
    "tech_change_status": "In Design",
    "program_type": "On-Demand N2P SDU/MDU Simple",
    "target_eligibility_quarter": "Dec 2025"
   }
  },
  {
   "type": "Feature",
   "geometry": {
    "type": "Point",
    "coordinates": [
     145.6805946,
     -37.75533851
    ]
   },
   "properties": {
    "name": "3312 WARBURTON HIGHWAY WARBURTON 3799",
    "locID": "LOC000060654184",
    "tech": "FTTN",
    "upgrade": "FTTP_NA",
    "gnaf_pid": "GAVIC412538379",
    "tech_change_status": "In Design",
    "program_type": "On-Demand N2P SDU/MDU Simple",
    "target_eligibility_quarter": "Dec 2025"
   }
  },
  {
   "type": "Feature",
   "geometry": {
    "type": "Point",
    "coordinates": [
     145.69092116,
     -37.75137055
    ]
   },
   "properties": {
    "name": "13 RICHARDS ROAD WARBURTON 3799",
    "locID": "LOC000047888430",
    "tech": "FTTN",
    "upgrade": "FTTP_NA",
    "gnaf_pid": "GAVIC412539922",
    "tech_change_status": "In Design",
    "program_type": "On-Demand N2P SDU/MDU Simple",
    "target_eligibility_quarter": "Dec 2025"
   }
  },
  {
   "type": "Feature",
   "geometry": {
    "type": "Point",
    "coordinates": [
     145.69211384,
     -37.7507117
    ]
   },
   "properties": {
    "name": "3 HAND STREET WARBURTON 3799",
    "locID": "LOC000042362870",
    "tech": "FTTN",
    "upgrade": "FTTP_NA",
    "gnaf_pid": "GAVIC412539979",
    "tech_change_status": "In Design",
    "program_type": "On-Demand N2P SDU/MDU Simple",
    "target_eligibility_quarter": "Dec 2025"
   }
  },
  {
   "type": "Feature",
   "geometry": {
    "type": "Point",
    "coordinates": [
     145.69303151,
     -37.74975459
    ]
   },
   "properties": {
    "name": "2 BRISBANE HILL ROAD WARBURTON 3799",
    "locID": "LOC000039026544",
    "tech": "FTTN",
    "upgrade": "FTTP_NA",
    "gnaf_pid": "GAVIC412540446",
    "tech_change_status": "In Design",
    "program_type": "On-Demand N2P SDU/MDU Simple",
    "target_eligibility_quarter": "Dec 2025"
   }
  },
  {
   "type": "Feature",
   "geometry": {
    "type": "Point",
    "coordinates": [
     145.68887346,
     -37.75359623
    ]
   },
   "properties": {
    "name": "3399 WARBURTON HIGHWAY WARBURTON 3799",
    "locID": "LOC000042482989",
    "tech": "FTTN",
    "upgrade": "FTTP_NA",
    "gnaf_pid": "GAVIC412540514",
    "tech_change_status": "In Design",
    "program_type": "On-Demand N2P SDU/MDU Simple",
    "target_eligibility_quarter": "Dec 2025"
   }
  },
  {
   "type": "Feature",
   "geometry": {
    "type": "Point",
    "coordinates": [
     145.6778463,
     -37.74696215
    ]
   },
   "properties": {
    "name": "58 SURREY ROAD WARBURTON 3799",
    "locID": "LOC000046695325",
    "tech": "FTTP",
    "upgrade": "NULL_NA",
    "gnaf_pid": "GAVIC412540516"
   }
  },
  {
   "type": "Feature",
   "geometry": {
    "type": "Point",
    "coordinates": [
     145.68713824,
     -37.75415371
    ]
   },
   "properties": {
    "name": "3371 WARBURTON HIGHWAY WARBURTON 3799",
    "locID": "LOC000090859925",
    "tech": "FTTN",
    "upgrade": "FTTP_NA",
    "gnaf_pid": "GAVIC412543603",
    "tech_change_status": "In Design",
    "program_type": "On-Demand N2P SDU/MDU Simple",
    "target_eligibility_quarter": "Dec 2025"
   }
  },
  {
   "type": "Feature",
   "geometry": {
    "type": "Point",
    "coordinates": [
     145.68469221,
     -37.75494586
    ]
   },
   "properties": {
    "name": "UNIT 2, 3344 WARBURTON HIGHWAY WARBURTON 3799",
    "locID": "LOC000052518676",
    "tech": "FTTN",
    "upgrade": "FTTP_NA",
    "gnaf_pid": "GAVIC412543604",
    "tech_change_status": "In Design",
    "program_type": "On-Demand N2P SDU/MDU Simple",
    "target_eligibility_quarter": "Dec 2025"
   }
  },
  {
   "type": "Feature",
   "geometry": {
    "type": "Point",
    "coordinates": [
     145.68725517,
     -37.75522044
    ]
   },
   "properties": {
    "name": "32 STATION ROAD WARBURTON 3799",
    "locID": "LOC000024334956",
    "tech": "FTTN",
    "upgrade": "FTTP_NA",
    "gnaf_pid": "GAVIC412545743",
    "tech_change_status": "In Design",
    "program_type": "On-Demand N2P SDU/MDU Simple",
    "target_eligibility_quarter": "Dec 2025"
   }
  },
  {
   "type": "Feature",
   "geometry": {
    "type": "Point",
    "coordinates": [
     145.6985282,
     -37.7636081
    ]
   },
   "properties": {
    "name": "5 AZALEA COURT WARBURTON 3799",
    "locID": "LOC000045036536",
    "tech": "FTTN",
    "upgrade": "FTTP_NA",
    "gnaf_pid": "GAVIC412545744",
    "tech_change_status": "In Design",
    "program_type": "On-Demand N2P SDU/MDU Simple",
    "target_eligibility_quarter": "Dec 2025"
   }
  },
  {
   "type": "Feature",
   "geometry": {
    "type": "Point",
    "coordinates": [
     145.71074042,
     -37.74598435
    ]
   },
   "properties": {
    "name": "11 FERNDALE ROAD WARBURTON 3799",
    "locID": "LOC000092682464",
    "tech": "FTTN",
    "upgrade": "FTTP_NA",
    "gnaf_pid": "GAVIC412545746",
    "tech_change_status": "In Design",
    "program_type": "On-Demand N2P SDU/MDU Simple",
    "target_eligibility_quarter": "Dec 2025"
   }
  },
  {
   "type": "Feature",
   "geometry": {
    "type": "Point",
    "coordinates": [
     145.69606956,
     -37.74913559
    ]
   },
   "properties": {
    "name": "15 BRISBANE PARADE WARBURTON 3799",
    "locID": "LOC000065704684",
    "tech": "FTTN",
    "upgrade": "FTTP_NA",
    "gnaf_pid": "GAVIC412545753",
    "tech_change_status": "In Design",
    "program_type": "On-Demand N2P SDU/MDU Simple",
    "target_eligibility_quarter": "Dec 2025"
   }
  },
  {
   "type": "Feature",
   "geometry": {
    "type": "Point",
    "coordinates": [
     145.69297915,
     -37.74734194
    ]
   },
   "properties": {
    "name": "3 CLINCH STREET WARBURTON 3799",
    "locID": "LOC000100069191",
    "tech": "FTTN",
    "upgrade": "FTTP_NA",
    "gnaf_pid": "GAVIC412549468",
    "tech_change_status": "In Design",
    "program_type": "On-Demand N2P SDU/MDU Simple",
    "target_eligibility_quarter": "Dec 2025"
   }
  },
  {
   "type": "Feature",
   "geometry": {
    "type": "Point",
    "coordinates": [
     145.70694186,
     -37.74990075
    ]
   },
   "properties": {
    "name": "2 SALISBURY AVENUE WARBURTON 3799",
    "locID": "LOC000043065919",
    "tech": "FTTN",
    "upgrade": "FTTP_NA",
    "gnaf_pid": "GAVIC412550849",
    "tech_change_status": "In Design",
    "program_type": "On-Demand N2P SDU/MDU Simple",
    "target_eligibility_quarter": "Dec 2025"
   }
  },
  {
   "type": "Feature",
   "geometry": {
    "type": "Point",
    "coordinates": [
     145.70575177,
     -37.74880639
    ]
   },
   "properties": {
    "name": "10 ELLIS COURT WARBURTON 3799",
    "locID": "LOC000024723702",
    "tech": "FTTN",
    "upgrade": "FTTP_NA",
    "gnaf_pid": "GAVIC412550851",
    "tech_change_status": "In Design",
    "program_type": "On-Demand N2P SDU/MDU Simple",
    "target_eligibility_quarter": "Dec 2025"
   }
  },
  {
   "type": "Feature",
   "geometry": {
    "type": "Point",
    "coordinates": [
     145.69301905,
     -37.7508443
    ]
   },
   "properties": {
    "name": "UNIT 1, 15 BRISBANE HILL ROAD WARBURTON 3799",
    "locID": "LOC000039068563",
    "tech": "FTTN",
    "upgrade": "FTTP_NA",
    "gnaf_pid": "GAVIC412550894",
    "tech_change_status": "In Design",
    "program_type": "On-Demand N2P SDU/MDU Simple",
    "target_eligibility_quarter": "Dec 2025"
   }
  },
  {
   "type": "Feature",
   "geometry": {
    "type": "Point",
    "coordinates": [
     145.69768626,
     -37.75437112
    ]
   },
   "properties": {
    "name": "1A PARK ROAD WARBURTON 3799",
    "locID": "LOC000036614819",
    "tech": "FTTN",
    "upgrade": "FTTP_NA",
    "gnaf_pid": "GAVIC412550900",
    "tech_change_status": "In Design",
    "program_type": "On-Demand N2P SDU/MDU Simple",
    "target_eligibility_quarter": "Dec 2025"
   }
  },
  {
   "type": "Feature",
   "geometry": {
    "type": "Point",
    "coordinates": [
     145.70575177,
     -37.74880639
    ]
   },
   "properties": {
    "name": "14 ELLIS COURT WARBURTON 3799",
    "locID": "LOC000173022615",
    "tech": "FTTN",
    "upgrade": "FTTP_NA",
    "gnaf_pid": "GAVIC412550903",
    "tech_change_status": "In Design",
    "program_type": "On-Demand N2P SDU/MDU Simple",
    "target_eligibility_quarter": "Dec 2025"
   }
  },
  {
   "type": "Feature",
   "geometry": {
    "type": "Point",
    "coordinates": [
     145.70663928,
     -37.74961597
    ]
   },
   "properties": {
    "name": "1 SALISBURY AVENUE WARBURTON 3799",
    "locID": "LOC000101005348",
    "tech": "FTTN",
    "upgrade": "FTTP_NA",
    "gnaf_pid": "GAVIC412555472",
    "tech_change_status": "In Design",
    "program_type": "On-Demand N2P SDU/MDU Simple",
    "target_eligibility_quarter": "Dec 2025"
   }
  },
  {
   "type": "Feature",
   "geometry": {
    "type": "Point",
    "coordinates": [
     145.70575669,
     -37.74949474
    ]
   },
   "properties": {
    "name": "7 SALISBURY AVENUE WARBURTON 3799",
    "locID": "LOC000056872801",
    "tech": "FTTN",
    "upgrade": "FTTP_NA",
    "gnaf_pid": "GAVIC412555658",
    "tech_change_status": "In Design",
    "program_type": "On-Demand N2P SDU/MDU Simple",
    "target_eligibility_quarter": "Dec 2025"
   }
  },
  {
   "type": "Feature",
   "geometry": {
    "type": "Point",
    "coordinates": [
     145.69918423,
     -37.76507741
    ]
   },
   "properties": {
    "name": "100 OLD WARBURTON ROAD WARBURTON 3799",
    "locID": "LOC000058171258",
    "tech": "FTTN",
    "upgrade": "FTTP_NA",
    "gnaf_pid": "GAVIC412555663",
    "tech_change_status": "In Design",
    "program_type": "On-Demand N2P SDU/MDU Simple",
    "target_eligibility_quarter": "Dec 2025"
   }
  },
  {
   "type": "Feature",
   "geometry": {
    "type": "Point",
    "coordinates": [
     145.7121871,
     -37.75308014
    ]
   },
   "properties": {
    "name": "25 GIFFORDS ROAD WARBURTON 3799",
    "locID": "LOC000098305156",
    "tech": "FTTN",
    "upgrade": "FTTP_NA",
    "gnaf_pid": "GAVIC412555691",
    "tech_change_status": "In Design",
    "program_type": "On-Demand N2P SDU/MDU Simple",
    "target_eligibility_quarter": "Dec 2025"
   }
  },
  {
   "type": "Feature",
   "geometry": {
    "type": "Point",
    "coordinates": [
     145.70631378,
     -37.74980567
    ]
   },
   "properties": {
    "name": "6 SALISBURY AVENUE WARBURTON 3799",
    "locID": "LOC000018618676",
    "tech": "FTTN",
    "upgrade": "FTTP_NA",
    "gnaf_pid": "GAVIC412555697",
    "tech_change_status": "In Design",
    "program_type": "On-Demand N2P SDU/MDU Simple",
    "target_eligibility_quarter": "Dec 2025"
   }
  },
  {
   "type": "Feature",
   "geometry": {
    "type": "Point",
    "coordinates": [
     145.7044771,
     -37.74866954
    ]
   },
   "properties": {
    "name": "12 ELLIS COURT WARBURTON 3799",
    "locID": "LOC000075117560",
    "tech": "FTTN",
    "upgrade": "FTTP_NA",
    "gnaf_pid": "GAVIC412555698",
    "tech_change_status": "In Design",
    "program_type": "On-Demand N2P SDU/MDU Simple",
    "target_eligibility_quarter": "Dec 2025"
   }
  },
  {
   "type": "Feature",
   "geometry": {
    "type": "Point",
    "coordinates": [
     145.7029682,
     -37.74732807
    ]
   },
   "properties": {
    "name": "9A ANDERSONS AVENUE WARBURTON 3799",
    "locID": "LOC000073331449",
    "tech": "FTTN",
    "upgrade": "FTTP_NA",
    "gnaf_pid": "GAVIC412555772",
    "tech_change_status": "In Design",
    "program_type": "On-Demand N2P SDU/MDU Simple",
    "target_eligibility_quarter": "Dec 2025"
   }
  },
  {
   "type": "Feature",
   "geometry": {
    "type": "Point",
    "coordinates": [
     145.6809987,
     -37.7558986
    ]
   },
   "properties": {
    "name": "2 STATION ROAD WARBURTON 3799",
    "locID": "LOC000002911068",
    "tech": "FTTN",
    "upgrade": "FTTP_NA",
    "gnaf_pid": "GAVIC412555776",
    "tech_change_status": "In Design",
    "program_type": "On-Demand N2P SDU/MDU Simple",
    "target_eligibility_quarter": "Dec 2025"
   }
  },
  {
   "type": "Feature",
   "geometry": {
    "type": "Point",
    "coordinates": [
     145.67286325,
     -37.75449119
    ]
   },
   "properties": {
    "name": "3233 WARBURTON HIGHWAY WARBURTON 3799",
    "locID": "LOC000095381364",
    "tech": "FTTN",
    "upgrade": "FTTP_NA",
    "gnaf_pid": "GAVIC412556879",
    "tech_change_status": "Committed",
    "program_type": "On-Demand N2P SDU/MDU Simple",
    "target_eligibility_quarter": "Dec 2025"
   }
  },
  {
   "type": "Feature",
   "geometry": {
    "type": "Point",
    "coordinates": [
     145.69463558,
     -37.76546671
    ]
   },
   "properties": {
    "name": "145 OLD WARBURTON ROAD WARBURTON 3799",
    "locID": "LOC000020253304",
    "tech": "NULL",
    "upgrade": "NULL_NA",
    "gnaf_pid": "GAVIC412556888",
    "tech_change_status": "Not Planned"
   }
  },
  {
   "type": "Feature",
   "geometry": {
    "type": "Point",
    "coordinates": [
     145.67228864,
     -37.75437689
    ]
   },
   "properties": {
    "name": "3229 WARBURTON HIGHWAY WARBURTON 3799",
    "locID": "LOC000104533422",
    "tech": "FTTN",
    "upgrade": "FTTP_NA",
    "gnaf_pid": "GAVIC412556891",
    "tech_change_status": "Committed",
    "program_type": "On-Demand N2P SDU/MDU Simple",
    "target_eligibility_quarter": "Dec 2025"
   }
  },
  {
   "type": "Feature",
   "geometry": {
    "type": "Point",
    "coordinates": [
     145.70249019,
     -37.76501192
    ]
   },
   "properties": {
    "name": "25 IRRUKA ROAD WARBURTON 3799",
    "locID": "LOC000105883193",
    "tech": "NULL",
    "upgrade": "NULL_NA",
    "gnaf_pid": "GAVIC412556895",
    "tech_change_status": "Not Planned"
   }
  },
  {
   "type": "Feature",
   "geometry": {
    "type": "Point",
    "coordinates": [
     145.68837083,
     -37.75380885
    ]
   },
   "properties": {
    "name": "UNIT 1, 3391 WARBURTON HIGHWAY WARBURTON 3799",
    "locID": "LOC000091552564",
    "tech": "FTTN",
    "upgrade": "FTTP_NA",
    "gnaf_pid": "GAVIC412559469",
    "tech_change_status": "In Design",
    "program_type": "Customer-initiated N2P MDU Complex",
    "target_eligibility_quarter": "Dec 2025"
   }
  },
  {
   "type": "Feature",
   "geometry": {
    "type": "Point",
    "coordinates": [
     145.69179154,
     -37.74730542
    ]
   },
   "properties": {
    "name": "14 CLINCH STREET WARBURTON 3799",
    "locID": "LOC000048728191",
    "tech": "FTTN",
    "upgrade": "FTTP_NA",
    "gnaf_pid": "GAVIC412559470",
    "tech_change_status": "In Design",
    "program_type": "On-Demand N2P SDU/MDU Simple",
    "target_eligibility_quarter": "Dec 2025"
   }
  },
  {
   "type": "Feature",
   "geometry": {
    "type": "Point",
    "coordinates": [
     145.71322375,
     -37.74974695
    ]
   },
   "properties": {
    "name": "210 RIVERSIDE DRIVE WARBURTON 3799",
    "locID": "LOC000070933245",
    "tech": "SATELLITE",
    "upgrade": "NULL_NA",
    "gnaf_pid": "GAVIC412559471",
    "tech_change_status": "Not Planned"
   }
  },
  {
   "type": "Feature",
   "geometry": {
    "type": "Point",
    "coordinates": [
     145.6909656,
     -37.75234703
    ]
   },
   "properties": {
    "name": "UNIT 3, 38 DAMMANS ROAD WARBURTON 3799",
    "locID": "LOC000010127886",
    "tech": "FTTN",
    "upgrade": "FTTP_NA",
    "gnaf_pid": "GAVIC412559475",
    "tech_change_status": "In Design",
    "program_type": "Customer-initiated N2P MDU Complex",
    "target_eligibility_quarter": "Dec 2025"
   }
  },
  {
   "type": "Feature",
   "geometry": {
    "type": "Point",
    "coordinates": [
     145.69196074,
     -37.74848621
    ]
   },
   "properties": {
    "name": "12 COMONGIN AVENUE WARBURTON 3799",
    "locID": "LOC000006230590",
    "tech": "FTTN",
    "upgrade": "FTTP_NA",
    "gnaf_pid": "GAVIC412559483",
    "tech_change_status": "In Design",
    "program_type": "On-Demand N2P SDU/MDU Simple",
    "target_eligibility_quarter": "Dec 2025"
   }
  },
  {
   "type": "Feature",
   "geometry": {
    "type": "Point",
    "coordinates": [
     145.68469221,
     -37.75494586
    ]
   },
   "properties": {
    "name": "UNIT 1, 3346 WARBURTON HIGHWAY WARBURTON 3799",
    "locID": "LOC000016548053",
    "tech": "FTTN",
    "upgrade": "FTTP_NA",
    "gnaf_pid": "GAVIC412559503",
    "tech_change_status": "In Design",
    "program_type": "On-Demand N2P SDU/MDU Simple",
    "target_eligibility_quarter": "Dec 2025"
   }
  },
  {
   "type": "Feature",
   "geometry": {
    "type": "Point",
    "coordinates": [
     145.69095901,
     -37.74897195
    ]
   },
   "properties": {
    "name": "20 WEBB STREET WARBURTON 3799",
    "locID": "LOC000070750741",
    "tech": "FTTN",
    "upgrade": "FTTP_NA",
    "gnaf_pid": "GAVIC412559511",
    "tech_change_status": "In Design",
    "program_type": "On-Demand N2P SDU/MDU Simple",
    "target_eligibility_quarter": "Dec 2025"
   }
  },
  {
   "type": "Feature",
   "geometry": {
    "type": "Point",
    "coordinates": [
     145.67570606,
     -37.75233146
    ]
   },
   "properties": {
    "name": "4 DERBY STREET WARBURTON 3799",
    "locID": "LOC000051209837",
    "tech": "FTTN",
    "upgrade": "FTTP_NA",
    "gnaf_pid": "GAVIC412559515",
    "tech_change_status": "In Design",
    "program_type": "On-Demand N2P SDU/MDU Simple",
    "target_eligibility_quarter": "Dec 2025"
   }
  },
  {
   "type": "Feature",
   "geometry": {
    "type": "Point",
    "coordinates": [
     145.6886876,
     -37.75400826
    ]
   },
   "properties": {
    "name": "3390 WARBURTON HIGHWAY WARBURTON 3799",
    "locID": "LOC000074262674",
    "tech": "FTTN",
    "upgrade": "FTTP_NA",
    "gnaf_pid": "GAVIC412562931",
    "tech_change_status": "In Design",
    "program_type": "On-Demand N2P SDU/MDU Simple",
    "target_eligibility_quarter": "Dec 2025"
   }
  },
  {
   "type": "Feature",
   "geometry": {
    "type": "Point",
    "coordinates": [
     145.69914265,
     -37.764473
    ]
   },
   "properties": {
    "name": "3 BORONIA ROAD WARBURTON 3799",
    "locID": "LOC000007013365",
    "tech": "FTTN",
    "upgrade": "FTTP_NA",
    "gnaf_pid": "GAVIC412562936",
    "tech_change_status": "In Design",
    "program_type": "On-Demand N2P SDU/MDU Simple",
    "target_eligibility_quarter": "Dec 2025"
   }
  },
  {
   "type": "Feature",
   "geometry": {
    "type": "Point",
    "coordinates": [
     145.69709795,
     -37.76489011
    ]
   },
   "properties": {
    "name": "24 BORONIA ROAD WARBURTON 3799",
    "locID": "LOC000009479198",
    "tech": "FTTN",
    "upgrade": "NULL_NA",
    "gnaf_pid": "GAVIC412562937",
    "tech_change_status": "Not Planned"
   }
  },
  {
   "type": "Feature",
   "geometry": {
    "type": "Point",
    "coordinates": [
     145.69979378,
     -37.7645681
    ]
   },
   "properties": {
    "name": "1 BORONIA ROAD WARBURTON 3799",
    "locID": "LOC000051205085",
    "tech": "FTTN",
    "upgrade": "FTTP_NA",
    "gnaf_pid": "GAVIC412562940",
    "tech_change_status": "In Design",
    "program_type": "On-Demand N2P SDU/MDU Simple",
    "target_eligibility_quarter": "Dec 2025"
   }
  },
  {
   "type": "Feature",
   "geometry": {
    "type": "Point",
    "coordinates": [
     145.69179435,
     -37.7501678
    ]
   },
   "properties": {
    "name": "8 HILL ROAD WARBURTON 3799",
    "locID": "LOC000081041040",
    "tech": "FTTN",
    "upgrade": "FTTP_NA",
    "gnaf_pid": "GAVIC412562948",
    "tech_change_status": "In Design",
    "program_type": "On-Demand N2P SDU/MDU Simple",
    "target_eligibility_quarter": "Dec 2025"
   }
  },
  {
   "type": "Feature",
   "geometry": {
    "type": "Point",
    "coordinates": [
     145.69180174,
     -37.74910438
    ]
   },
   "properties": {
    "name": "12 WEBB STREET WARBURTON 3799",
    "locID": "LOC000057978464",
    "tech": "FTTN",
    "upgrade": "FTTP_NA",
    "gnaf_pid": "GAVIC412562950",
    "tech_change_status": "In Design",
    "program_type": "On-Demand N2P SDU/MDU Simple",
    "target_eligibility_quarter": "Dec 2025"
   }
  },
  {
   "type": "Feature",
   "geometry": {
    "type": "Point",
    "coordinates": [
     145.690631,
     -37.75112825
    ]
   },
   "properties": {
    "name": "5 BRETT ROAD WARBURTON 3799",
    "locID": "LOC000081056940",
    "tech": "FTTN",
    "upgrade": "FTTP_NA",
    "gnaf_pid": "GAVIC412562952",
    "tech_change_status": "In Design",
    "program_type": "On-Demand N2P SDU/MDU Simple",
    "target_eligibility_quarter": "Dec 2025"
   }
  },
  {
   "type": "Feature",
   "geometry": {
    "type": "Point",
    "coordinates": [
     145.7077096,
     -37.75141785
    ]
   },
   "properties": {
    "name": "22A DONNA BUANG ROAD WARBURTON 3799",
    "locID": "LOC000010179511",
    "tech": "FTTN",
    "upgrade": "FTTP_NA",
    "gnaf_pid": "GAVIC412563144",
    "tech_change_status": "In Design",
    "program_type": "On-Demand N2P SDU/MDU Simple",
    "target_eligibility_quarter": "Dec 2025"
   }
  },
  {
   "type": "Feature",
   "geometry": {
    "type": "Point",
    "coordinates": [
     145.69766009,
     -37.75419835
    ]
   },
   "properties": {
    "name": "12 PARK ROAD WARBURTON 3799",
    "locID": "LOC000047103212",
    "tech": "FTTN",
    "upgrade": "FTTP_NA",
    "gnaf_pid": "GAVIC412563146",
    "tech_change_status": "In Design",
    "program_type": "On-Demand N2P SDU/MDU Simple",
    "target_eligibility_quarter": "Dec 2025"
   }
  },
  {
   "type": "Feature",
   "geometry": {
    "type": "Point",
    "coordinates": [
     145.68415366,
     -37.7550009
    ]
   },
   "properties": {
    "name": "UNIT 3, 3342 WARBURTON HIGHWAY WARBURTON 3799",
    "locID": "LOC000051995501",
    "tech": "FTTN",
    "upgrade": "FTTP_NA",
    "gnaf_pid": "GAVIC412563154",
    "tech_change_status": "In Design",
    "program_type": "Customer-initiated N2P MDU Complex",
    "target_eligibility_quarter": "Dec 2025"
   }
  },
  {
   "type": "Feature",
   "geometry": {
    "type": "Point",
    "coordinates": [
     145.68415366,
     -37.7550009
    ]
   },
   "properties": {
    "name": "UNIT 2, 3342 WARBURTON HIGHWAY WARBURTON 3799",
    "locID": "LOC000051995501",
    "tech": "FTTN",
    "upgrade": "FTTP_NA",
    "gnaf_pid": "GAVIC412563158",
    "tech_change_status": "In Design",
    "program_type": "Customer-initiated N2P MDU Complex",
    "target_eligibility_quarter": "Dec 2025"
   }
  },
  {
   "type": "Feature",
   "geometry": {
    "type": "Point",
    "coordinates": [
     145.70318604,
     -37.75041988
    ]
   },
   "properties": {
    "name": "24 UPPER BLACKWOOD AVENUE WARBURTON 3799",
    "locID": "LOC000002894706",
    "tech": "FTTN",
    "upgrade": "FTTP_NA",
    "gnaf_pid": "GAVIC412563224",
    "tech_change_status": "In Design",
    "program_type": "On-Demand N2P SDU/MDU Simple",
    "target_eligibility_quarter": "Dec 2025"
   }
  },
  {
   "type": "Feature",
   "geometry": {
    "type": "Point",
    "coordinates": [
     145.70656284,
     -37.75112491
    ]
   },
   "properties": {
    "name": "14 UPPER BLACKWOOD AVENUE WARBURTON 3799",
    "locID": "LOC000004760175",
    "tech": "FTTN",
    "upgrade": "FTTP_NA",
    "gnaf_pid": "GAVIC412563228",
    "tech_change_status": "In Design",
    "program_type": "Customer-initiated N2P MDU Complex",
    "target_eligibility_quarter": "Dec 2025"
   }
  },
  {
   "type": "Feature",
   "geometry": {
    "type": "Point",
    "coordinates": [
     145.70656284,
     -37.75112491
    ]
   },
   "properties": {
    "name": "16 UPPER BLACKWOOD AVENUE WARBURTON 3799",
    "locID": "LOC000011096911",
    "tech": "FTTN",
    "upgrade": "FTTP_NA",
    "gnaf_pid": "GAVIC412563229",
    "tech_change_status": "In Design",
    "program_type": "Customer-initiated N2P MDU Complex",
    "target_eligibility_quarter": "Dec 2025"
   }
  },
  {
   "type": "Feature",
   "geometry": {
    "type": "Point",
    "coordinates": [
     145.69112555,
     -37.75337083
    ]
   },
   "properties": {
    "name": "3426 WARBURTON HIGHWAY WARBURTON 3799",
    "locID": "LOC000069633451",
    "tech": "FTTN",
    "upgrade": "FTTP_NA",
    "gnaf_pid": "GAVIC412563230",
    "tech_change_status": "In Design",
    "program_type": "On-Demand N2P SDU/MDU Simple",
    "target_eligibility_quarter": "Dec 2025"
   }
  },
  {
   "type": "Feature",
   "geometry": {
    "type": "Point",
    "coordinates": [
     145.70956292,
     -37.75050223
    ]
   },
   "properties": {
    "name": "UNIT 2, 9 SHERWOOD AVENUE WARBURTON 3799",
    "locID": "LOC000154571202",
    "tech": "FTTN",
    "upgrade": "FTTP_NA",
    "gnaf_pid": "GAVIC412563232",
    "tech_change_status": "In Design",
    "program_type": "On-Demand N2P SDU/MDU Simple",
    "target_eligibility_quarter": "Dec 2025"
   }
  },
  {
   "type": "Feature",
   "geometry": {
    "type": "Point",
    "coordinates": [
     145.68144324,
     -37.75586785
    ]
   },
   "properties": {
    "name": "4 STATION ROAD WARBURTON 3799",
    "locID": "LOC000024378416",
    "tech": "FTTN",
    "upgrade": "FTTP_NA",
    "gnaf_pid": "GAVIC412563252",
    "tech_change_status": "In Design",
    "program_type": "On-Demand N2P SDU/MDU Simple",
    "target_eligibility_quarter": "Dec 2025"
   }
  },
  {
   "type": "Feature",
   "geometry": {
    "type": "Point",
    "coordinates": [
     145.69030803,
     -37.75013326
    ]
   },
   "properties": {
    "name": "11 BRETT ROAD WARBURTON 3799",
    "locID": "LOC000084788264",
    "tech": "FTTN",
    "upgrade": "FTTP_NA",
    "gnaf_pid": "GAVIC412566587",
    "tech_change_status": "In Design",
    "program_type": "On-Demand N2P SDU/MDU Simple",
    "target_eligibility_quarter": "Dec 2025"
   }
  },
  {
   "type": "Feature",
   "geometry": {
    "type": "Point",
    "coordinates": [
     145.70435898,
     -37.75570931
    ]
   },
   "properties": {
    "name": "3 LITHGOW AVENUE WARBURTON 3799",
    "locID": "LOC000102006516",
    "tech": "FTTN",
    "upgrade": "FTTP_NA",
    "gnaf_pid": "GAVIC412566615",
    "tech_change_status": "In Design",
    "program_type": "On-Demand N2P SDU/MDU Simple",
    "target_eligibility_quarter": "Dec 2025"
   }
  },
  {
   "type": "Feature",
   "geometry": {
    "type": "Point",
    "coordinates": [
     145.70529261,
     -37.74876863
    ]
   },
   "properties": {
    "name": "6 ELLIS COURT WARBURTON 3799",
    "locID": "LOC000012736424",
    "tech": "FTTN",
    "upgrade": "FTTP_NA",
    "gnaf_pid": "GAVIC412566623",
    "tech_change_status": "In Design",
    "program_type": "On-Demand N2P SDU/MDU Simple",
    "target_eligibility_quarter": "Dec 2025"
   }
  },
  {
   "type": "Feature",
   "geometry": {
    "type": "Point",
    "coordinates": [
     145.69152263,
     -37.75012873
    ]
   },
   "properties": {
    "name": "10 HILL ROAD WARBURTON 3799",
    "locID": "LOC000067605574",
    "tech": "FTTN",
    "upgrade": "FTTP_NA",
    "gnaf_pid": "GAVIC412566626",
    "tech_change_status": "In Design",
    "program_type": "On-Demand N2P SDU/MDU Simple",
    "target_eligibility_quarter": "Dec 2025"
   }
  },
  {
   "type": "Feature",
   "geometry": {
    "type": "Point",
    "coordinates": [
     145.68427435,
     -37.75644085
    ]
   },
   "properties": {
    "name": "7 ALPINE STREET WARBURTON 3799",
    "locID": "LOC000106390583",
    "tech": "FTTN",
    "upgrade": "FTTP_NA",
    "gnaf_pid": "GAVIC412566648",
    "tech_change_status": "In Design",
    "program_type": "On-Demand N2P SDU/MDU Simple",
    "target_eligibility_quarter": "Dec 2025"
   }
  },
  {
   "type": "Feature",
   "geometry": {
    "type": "Point",
    "coordinates": [
     145.70343191,
     -37.74608072
    ]
   },
   "properties": {
    "name": "4 LOUIS AVENUE WARBURTON 3799",
    "locID": "LOC000069858305",
    "tech": "FTTN",
    "upgrade": "FTTP_NA",
    "gnaf_pid": "GAVIC412566652",
    "tech_change_status": "In Design",
    "program_type": "On-Demand N2P SDU/MDU Simple",
    "target_eligibility_quarter": "Dec 2025"
   }
  },
  {
   "type": "Feature",
   "geometry": {
    "type": "Point",
    "coordinates": [
     145.7009721,
     -37.747205
    ]
   },
   "properties": {
    "name": "24 ANDERSONS AVENUE WARBURTON 3799",
    "locID": "LOC000038914368",
    "tech": "FTTN",
    "upgrade": "FTTP_NA",
    "gnaf_pid": "GAVIC412566653",
    "tech_change_status": "In Design",
    "program_type": "On-Demand N2P SDU/MDU Simple",
    "target_eligibility_quarter": "Dec 2025"
   }
  },
  {
   "type": "Feature",
   "geometry": {
    "type": "Point",
    "coordinates": [
     145.68803342,
     -37.7550842
    ]
   },
   "properties": {
    "name": "38 STATION ROAD WARBURTON 3799",
    "locID": "LOC000060556946",
    "tech": "FTTN",
    "upgrade": "FTTP_NA",
    "gnaf_pid": "GAVIC412570223",
    "tech_change_status": "In Design",
    "program_type": "On-Demand N2P SDU/MDU Simple",
    "target_eligibility_quarter": "Dec 2025"
   }
  },
  {
   "type": "Feature",
   "geometry": {
    "type": "Point",
    "coordinates": [
     145.6876727,
     -37.76258725
    ]
   },
   "properties": {
    "name": "110 SCOTCHMANS CREEK ROAD WARBURTON 3799",
    "locID": "LOC000016982288",
    "tech": "SATELLITE",
    "upgrade": "NULL_NA",
    "gnaf_pid": "GAVIC412570224",
    "tech_change_status": "Not Planned"
   }
  },
  {
   "type": "Feature",
   "geometry": {
    "type": "Point",
    "coordinates": [
     145.70472668,
     -37.75710619
    ]
   },
   "properties": {
    "name": "19 LITHGOW AVENUE WARBURTON 3799",
    "locID": "LOC000075610137",
    "tech": "FTTN",
    "upgrade": "FTTP_NA",
    "gnaf_pid": "GAVIC412570230",
    "tech_change_status": "In Design",
    "program_type": "On-Demand N2P SDU/MDU Simple",
    "target_eligibility_quarter": "Dec 2025"
   }
  },
  {
   "type": "Feature",
   "geometry": {
    "type": "Point",
    "coordinates": [
     145.68469221,
     -37.75494586
    ]
   },
   "properties": {
    "name": "UNIT 1, 3344 WARBURTON HIGHWAY WARBURTON 3799",
    "locID": "LOC000055107082",
    "tech": "FTTN",
    "upgrade": "FTTP_NA",
    "gnaf_pid": "GAVIC412570283",
    "tech_change_status": "In Design",
    "program_type": "On-Demand N2P SDU/MDU Simple",
    "target_eligibility_quarter": "Dec 2025"
   }
  },
  {
   "type": "Feature",
   "geometry": {
    "type": "Point",
    "coordinates": [
     145.68469221,
     -37.75494586
    ]
   },
   "properties": {
    "name": "UNIT 2, 3346 WARBURTON HIGHWAY WARBURTON 3799",
    "locID": "LOC000016436178",
    "tech": "FTTN",
    "upgrade": "FTTP_NA",
    "gnaf_pid": "GAVIC412570285",
    "tech_change_status": "In Design",
    "program_type": "On-Demand N2P SDU/MDU Simple",
    "target_eligibility_quarter": "Dec 2025"
   }
  },
  {
   "type": "Feature",
   "geometry": {
    "type": "Point",
    "coordinates": [
     145.7033004,
     -37.75120385
    ]
   },
   "properties": {
    "name": "15 UPPER BLACKWOOD AVENUE WARBURTON 3799",
    "locID": "LOC000085033762",
    "tech": "FTTN",
    "upgrade": "FTTP_NA",
    "gnaf_pid": "GAVIC412570289",
    "tech_change_status": "In Design",
    "program_type": "On-Demand N2P SDU/MDU Simple",
    "target_eligibility_quarter": "Dec 2025"
   }
  },
  {
   "type": "Feature",
   "geometry": {
    "type": "Point",
    "coordinates": [
     145.69622136,
     -37.76307796
    ]
   },
   "properties": {
    "name": "34 CLARKE AVENUE WARBURTON 3799",
    "locID": "LOC000051153862",
    "tech": "NULL",
    "upgrade": "NULL_NA",
    "gnaf_pid": "GAVIC412570291",
    "tech_change_status": "Not Planned"
   }
  },
  {
   "type": "Feature",
   "geometry": {
    "type": "Point",
    "coordinates": [
     145.69713774,
     -37.75311752
    ]
   },
   "properties": {
    "name": "3471 WARBURTON HIGHWAY WARBURTON 3799",
    "locID": "LOC000049300536",
    "tech": "FTTN",
    "upgrade": "FTTP_NA",
    "gnaf_pid": "GAVIC412573504",
    "tech_change_status": "In Design",
    "program_type": "On-Demand N2P SDU/MDU Simple",
    "target_eligibility_quarter": "Dec 2025"
   }
  },
  {
   "type": "Feature",
   "geometry": {
    "type": "Point",
    "coordinates": [
     145.6931351,
     -37.75072266
    ]
   },
   "properties": {
    "name": "UNIT 2, 15 BRISBANE HILL ROAD WARBURTON 3799",
    "locID": "LOC000039026544",
    "tech": "FTTN",
    "upgrade": "FTTP_NA",
    "gnaf_pid": "GAVIC412573515",
    "tech_change_status": "In Design",
    "program_type": "On-Demand N2P SDU/MDU Simple",
    "target_eligibility_quarter": "Dec 2025"
   }
  },
  {
   "type": "Feature",
   "geometry": {
    "type": "Point",
    "coordinates": [
     145.69267194,
     -37.75189896
    ]
   },
   "properties": {
    "name": "1 BRISBANE HILL ROAD WARBURTON 3799",
    "locID": "LOC000028658013",
    "tech": "FTTN",
    "upgrade": "FTTP_NA",
    "gnaf_pid": "GAVIC412573516",
    "tech_change_status": "In Design",
    "program_type": "On-Demand N2P SDU/MDU Simple",
    "target_eligibility_quarter": "Dec 2025"
   }
  },
  {
   "type": "Feature",
   "geometry": {
    "type": "Point",
    "coordinates": [
     145.70412666,
     -37.74619255
    ]
   },
   "properties": {
    "name": "2B LOUIS AVENUE WARBURTON 3799",
    "locID": "LOC000007024663",
    "tech": "FTTN",
    "upgrade": "FTTP_NA",
    "gnaf_pid": "GAVIC412573519",
    "tech_change_status": "In Design",
    "program_type": "On-Demand N2P SDU/MDU Simple",
    "target_eligibility_quarter": "Dec 2025"
   }
  },
  {
   "type": "Feature",
   "geometry": {
    "type": "Point",
    "coordinates": [
     145.70352325,
     -37.749344
    ]
   },
   "properties": {
    "name": "20 SALISBURY AVENUE WARBURTON 3799",
    "locID": "LOC000068051440",
    "tech": "FTTN",
    "upgrade": "FTTP_NA",
    "gnaf_pid": "GAVIC412573524",
    "tech_change_status": "In Design",
    "program_type": "On-Demand N2P SDU/MDU Simple",
    "target_eligibility_quarter": "Dec 2025"
   }
  },
  {
   "type": "Feature",
   "geometry": {
    "type": "Point",
    "coordinates": [
     145.7050999,
     -37.7494064
    ]
   },
   "properties": {
    "name": "11 SALISBURY AVENUE WARBURTON 3799",
    "locID": "LOC000086799318",
    "tech": "FTTN",
    "upgrade": "FTTP_NA",
    "gnaf_pid": "GAVIC412573527",
    "tech_change_status": "In Design",
    "program_type": "On-Demand N2P SDU/MDU Simple",
    "target_eligibility_quarter": "Dec 2025"
   }
  },
  {
   "type": "Feature",
   "geometry": {
    "type": "Point",
    "coordinates": [
     145.69594508,
     -37.74939971
    ]
   },
   "properties": {
    "name": "26 BRISBANE PARADE WARBURTON 3799",
    "locID": "LOC000180720634",
    "tech": "FTTN",
    "upgrade": "FTTP_NA",
    "gnaf_pid": "GAVIC412573533",
    "tech_change_status": "In Design",
    "program_type": "On-Demand N2P SDU/MDU Simple",
    "target_eligibility_quarter": "Dec 2025"
   }
  },
  {
   "type": "Feature",
   "geometry": {
    "type": "Point",
    "coordinates": [
     145.6956456,
     -37.75450053
    ]
   },
   "properties": {
    "name": "47 HIGHFIELD ROAD WARBURTON 3799",
    "locID": "LOC000081401018",
    "tech": "FTTN",
    "upgrade": "FTTP_NA",
    "gnaf_pid": "GAVIC412573742",
    "tech_change_status": "In Design",
    "program_type": "On-Demand N2P SDU/MDU Simple",
    "target_eligibility_quarter": "Dec 2025"
   }
  },
  {
   "type": "Feature",
   "geometry": {
    "type": "Point",
    "coordinates": [
     145.69909846,
     -37.75305709
    ]
   },
   "properties": {
    "name": "3484 WARBURTON HIGHWAY WARBURTON 3799",
    "locID": "LOC000016161333",
    "tech": "FTTN",
    "upgrade": "FTTP_NA",
    "gnaf_pid": "GAVIC412573745",
    "tech_change_status": "In Design",
    "program_type": "On-Demand N2P SDU/MDU Simple",
    "target_eligibility_quarter": "Dec 2025"
   }
  },
  {
   "type": "Feature",
   "geometry": {
    "type": "Point",
    "coordinates": [
     145.68795589,
     -37.7554442
    ]
   },
   "properties": {
    "name": "1 CROOM STREET WARBURTON 3799",
    "locID": "LOC000057559511",
    "tech": "FTTN",
    "upgrade": "FTTP_NA",
    "gnaf_pid": "GAVIC412574954",
    "tech_change_status": "In Design",
    "program_type": "On-Demand N2P SDU/MDU Simple",
    "target_eligibility_quarter": "Dec 2025"
   }
  },
  {
   "type": "Feature",
   "geometry": {
    "type": "Point",
    "coordinates": [
     145.68415366,
     -37.7550009
    ]
   },
   "properties": {
    "name": "UNIT 1, 3342 WARBURTON HIGHWAY WARBURTON 3799",
    "locID": "LOC000051020664",
    "tech": "FTTN",
    "upgrade": "FTTP_NA",
    "gnaf_pid": "GAVIC412574955",
    "tech_change_status": "In Design",
    "program_type": "Customer-initiated N2P MDU Complex",
    "target_eligibility_quarter": "Dec 2025"
   }
  },
  {
   "type": "Feature",
   "geometry": {
    "type": "Point",
    "coordinates": [
     145.6952464,
     -37.7578398
    ]
   },
   "properties": {
    "name": "35 FANTAIL RISE WARBURTON 3799",
    "locID": "LOC000084540759",
    "tech": "SATELLITE",
    "upgrade": "NULL_NA",
    "gnaf_pid": "GAVIC412574959",
    "tech_change_status": "Not Planned"
   }
  },
  {
   "type": "Feature",
   "geometry": {
    "type": "Point",
    "coordinates": [
     145.70484376,
     -37.75552943
    ]
   },
   "properties": {
    "name": "8 LITHGOW AVENUE WARBURTON 3799",
    "locID": "LOC000044281037",
    "tech": "FTTN",
    "upgrade": "FTTP_NA",
    "gnaf_pid": "GAVIC412574961",
    "tech_change_status": "In Design",
    "program_type": "On-Demand N2P SDU/MDU Simple",
    "target_eligibility_quarter": "Dec 2025"
   }
  },
  {
   "type": "Feature",
   "geometry": {
    "type": "Point",
    "coordinates": [
     145.69503008,
     -37.75984919
    ]
   },
   "properties": {
    "name": "40 STORY ROAD WARBURTON 3799",
    "locID": "LOC000034221027",
    "tech": "NULL",
    "upgrade": "NULL_NA",
    "gnaf_pid": "GAVIC412574973",
    "tech_change_status": "Not Planned"
   }
  },
  {
   "type": "Feature",
   "geometry": {
    "type": "Point",
    "coordinates": [
     145.69942408,
     -37.75296893
    ]
   },
   "properties": {
    "name": "3486 WARBURTON HIGHWAY WARBURTON 3799",
    "locID": "LOC000056460596",
    "tech": "FTTN",
    "upgrade": "FTTP_NA",
    "gnaf_pid": "GAVIC412574975",
    "tech_change_status": "In Design",
    "program_type": "On-Demand N2P SDU/MDU Simple",
    "target_eligibility_quarter": "Dec 2025"
   }
  },
  {
   "type": "Feature",
   "geometry": {
    "type": "Point",
    "coordinates": [
     145.70522482,
     -37.75331028
    ]
   },
   "properties": {
    "name": "30 WOODS POINT ROAD WARBURTON 3799",
    "locID": "LOC000019344370",
    "tech": "FTTN",
    "upgrade": "FTTP_NA",
    "gnaf_pid": "GAVIC412577517",
    "tech_change_status": "In Design",
    "program_type": "Customer-initiated N2P MDU Complex",
    "target_eligibility_quarter": "Dec 2025"
   }
  },
  {
   "type": "Feature",
   "geometry": {
    "type": "Point",
    "coordinates": [
     145.68433884,
     -37.7519865
    ]
   },
   "properties": {
    "name": "4 WATERLOO AVENUE WARBURTON 3799",
    "locID": "LOC000066257250",
    "tech": "FTTP",
    "upgrade": "NULL_NA",
    "gnaf_pid": "GAVIC412577519",
    "tech_change_status": "Previous Tech Disconnected"
   }
  },
  {
   "type": "Feature",
   "geometry": {
    "type": "Point",
    "coordinates": [
     145.70450977,
     -37.75606326
    ]
   },
   "properties": {
    "name": "UNIT 2, 26 RIVERSIDE DRIVE WARBURTON 3799",
    "locID": "LOC000016483374",
    "tech": "FTTN",
    "upgrade": "FTTP_NA",
    "gnaf_pid": "GAVIC412577522",
    "tech_change_status": "In Design",
    "program_type": "On-Demand N2P SDU/MDU Simple",
    "target_eligibility_quarter": "Dec 2025"
   }
  },
  {
   "type": "Feature",
   "geometry": {
    "type": "Point",
    "coordinates": [
     145.70518567,
     -37.74765714
    ]
   },
   "properties": {
    "name": "43 DONNA BUANG ROAD WARBURTON 3799",
    "locID": "LOC000085382811",
    "tech": "FTTN",
    "upgrade": "FTTP_NA",
    "gnaf_pid": "GAVIC412577523",
    "tech_change_status": "In Design",
    "program_type": "On-Demand N2P SDU/MDU Simple",
    "target_eligibility_quarter": "Dec 2025"
   }
  },
  {
   "type": "Feature",
   "geometry": {
    "type": "Point",
    "coordinates": [
     145.70569138,
     -37.74868288
    ]
   },
   "properties": {
    "name": "14 YUONGA ROAD WARBURTON 3799",
    "locID": "LOC000098255068",
    "tech": "FTTN",
    "upgrade": "FTTP_NA",
    "gnaf_pid": "GAVIC412580913",
    "tech_change_status": "In Design",
    "program_type": "On-Demand N2P SDU/MDU Simple",
    "target_eligibility_quarter": "Dec 2025"
   }
  },
  {
   "type": "Feature",
   "geometry": {
    "type": "Point",
    "coordinates": [
     145.66965453,
     -37.75589684
    ]
   },
   "properties": {
    "name": "7 HOOKS ROAD WARBURTON 3799",
    "locID": "LOC000002913481",
    "tech": "FTTN",
    "upgrade": "FTTP_NA",
    "gnaf_pid": "GAVIC412581126",
    "tech_change_status": "In Design",
    "program_type": "On-Demand N2P SDU/MDU Simple",
    "target_eligibility_quarter": "Dec 2025"
   }
  },
  {
   "type": "Feature",
   "geometry": {
    "type": "Point",
    "coordinates": [
     145.67094231,
     -37.75412533
    ]
   },
   "properties": {
    "name": "3223 WARBURTON HIGHWAY WARBURTON 3799",
    "locID": "LOC000042388678",
    "tech": "FTTN",
    "upgrade": "FTTP_NA",
    "gnaf_pid": "GAVIC412581127",
    "tech_change_status": "Committed",
    "program_type": "On-Demand N2P SDU/MDU Simple",
    "target_eligibility_quarter": "Dec 2025"
   }
  },
  {
   "type": "Feature",
   "geometry": {
    "type": "Point",
    "coordinates": [
     145.6703522,
     -37.75294696
    ]
   },
   "properties": {
    "name": "3227 WARBURTON HIGHWAY WARBURTON 3799",
    "locID": "LOC000106975426",
    "tech": "FTTN",
    "upgrade": "FTTP_NA",
    "gnaf_pid": "GAVIC412581128",
    "tech_change_status": "Committed",
    "program_type": "On-Demand N2P SDU/MDU Simple",
    "target_eligibility_quarter": "Dec 2025"
   }
  },
  {
   "type": "Feature",
   "geometry": {
    "type": "Point",
    "coordinates": [
     145.71007797,
     -37.75901781
    ]
   },
   "properties": {
    "name": "45 BRIDES PARADE WARBURTON 3799",
    "locID": "LOC000071445052",
    "tech": "NULL",
    "upgrade": "NULL_NA",
    "gnaf_pid": "GAVIC412581142",
    "tech_change_status": "Not Planned"
   }
  },
  {
   "type": "Feature",
   "geometry": {
    "type": "Point",
    "coordinates": [
     145.70599394,
     -37.74975727
    ]
   },
   "properties": {
    "name": "8 SALISBURY AVENUE WARBURTON 3799",
    "locID": "LOC000038497283",
    "tech": "FTTN",
    "upgrade": "FTTP_NA",
    "gnaf_pid": "GAVIC412581183",
    "tech_change_status": "In Design",
    "program_type": "On-Demand N2P SDU/MDU Simple",
    "target_eligibility_quarter": "Dec 2025"
   }
  },
  {
   "type": "Feature",
   "geometry": {
    "type": "Point",
    "coordinates": [
     145.705036,
     -37.74961232
    ]
   },
   "properties": {
    "name": "14 SALISBURY AVENUE WARBURTON 3799",
    "locID": "LOC000067705509",
    "tech": "FTTN",
    "upgrade": "FTTP_NA",
    "gnaf_pid": "GAVIC412581187",
    "tech_change_status": "In Design",
    "program_type": "On-Demand N2P SDU/MDU Simple",
    "target_eligibility_quarter": "Dec 2025"
   }
  },
  {
   "type": "Feature",
   "geometry": {
    "type": "Point",
    "coordinates": [
     145.690267,
     -37.753235
    ]
   },
   "properties": {
    "name": "UNIT 1, 3415 WARBURTON HIGHWAY WARBURTON 3799",
    "locID": "LOC000125527381",
    "tech": "FTTN",
    "upgrade": "FTTP_NA",
    "gnaf_pid": "GAVIC412581234",
    "tech_change_status": "In Design",
    "program_type": "On-Demand N2P SDU/MDU Simple",
    "target_eligibility_quarter": "Dec 2025"
   }
  },
  {
   "type": "Feature",
   "geometry": {
    "type": "Point",
    "coordinates": [
     145.69730735,
     -37.75687779
    ]
   },
   "properties": {
    "name": "5 GABLE LANE WARBURTON 3799",
    "locID": "LOC000085745011",
    "tech": "FTTN",
    "upgrade": "FTTP_NA",
    "gnaf_pid": "GAVIC412581235",
    "tech_change_status": "In Design",
    "program_type": "On-Demand N2P SDU/MDU Simple",
    "target_eligibility_quarter": "Dec 2025"
   }
  },
  {
   "type": "Feature",
   "geometry": {
    "type": "Point",
    "coordinates": [
     145.68655371,
     -37.7617023
    ]
   },
   "properties": {
    "name": "100 SCOTCHMANS CREEK ROAD WARBURTON 3799",
    "locID": "LOC000008534752",
    "tech": "NULL",
    "upgrade": "NULL_NA",
    "gnaf_pid": "GAVIC412588367",
    "tech_change_status": "Not Planned"
   }
  },
  {
   "type": "Feature",
   "geometry": {
    "type": "Point",
    "coordinates": [
     145.69604144,
     -37.75652374
    ]
   },
   "properties": {
    "name": "11 LEILA ROAD WARBURTON 3799",
    "locID": "LOC000061739035",
    "tech": "FTTN",
    "upgrade": "FTTP_NA",
    "gnaf_pid": "GAVIC412588368",
    "tech_change_status": "In Design",
    "program_type": "On-Demand N2P SDU/MDU Simple",
    "target_eligibility_quarter": "Dec 2025"
   }
  },
  {
   "type": "Feature",
   "geometry": {
    "type": "Point",
    "coordinates": [
     145.68469221,
     -37.75494586
    ]
   },
   "properties": {
    "name": "UNIT 3, 3346 WARBURTON HIGHWAY WARBURTON 3799",
    "locID": "LOC000016548053",
    "tech": "FTTN",
    "upgrade": "FTTP_NA",
    "gnaf_pid": "GAVIC412588371",
    "tech_change_status": "In Design",
    "program_type": "On-Demand N2P SDU/MDU Simple",
    "target_eligibility_quarter": "Dec 2025"
   }
  },
  {
   "type": "Feature",
   "geometry": {
    "type": "Point",
    "coordinates": [
     145.68187436,
     -37.75549389
    ]
   },
   "properties": {
    "name": "1 STATION ROAD WARBURTON 3799",
    "locID": "LOC000048063515",
    "tech": "FTTN",
    "upgrade": "FTTP_NA",
    "gnaf_pid": "GAVIC412588372",
    "tech_change_status": "In Design",
    "program_type": "On-Demand N2P SDU/MDU Simple",
    "target_eligibility_quarter": "Dec 2025"
   }
  },
  {
   "type": "Feature",
   "geometry": {
    "type": "Point",
    "coordinates": [
     145.67596713,
     -37.74630151
    ]
   },
   "properties": {
    "name": "12 YORK STREET WARBURTON 3799",
    "locID": "LOC000054283871",
    "tech": "FTTN",
    "upgrade": "FTTP_NA",
    "gnaf_pid": "GAVIC412591645",
    "tech_change_status": "In Design",
    "program_type": "On-Demand N2P SDU/MDU Simple",
    "target_eligibility_quarter": "Dec 2025"
   }
  },
  {
   "type": "Feature",
   "geometry": {
    "type": "Point",
    "coordinates": [
     145.70562848,
     -37.74574209
    ]
   },
   "properties": {
    "name": "35 YUONGA ROAD WARBURTON 3799",
    "locID": "LOC000059991840",
    "tech": "FTTN",
    "upgrade": "FTTP_NA",
    "gnaf_pid": "GAVIC412591649",
    "tech_change_status": "In Design",
    "program_type": "On-Demand N2P SDU/MDU Simple",
    "target_eligibility_quarter": "Dec 2025"
   }
  },
  {
   "type": "Feature",
   "geometry": {
    "type": "Point",
    "coordinates": [
     145.69097355,
     -37.74972608
    ]
   },
   "properties": {
    "name": "15 HILL ROAD WARBURTON 3799",
    "locID": "LOC000108718548",
    "tech": "FTTN",
    "upgrade": "FTTP_NA",
    "gnaf_pid": "GAVIC412591686",
    "tech_change_status": "In Design",
    "program_type": "On-Demand N2P SDU/MDU Simple",
    "target_eligibility_quarter": "Dec 2025"
   }
  },
  {
   "type": "Feature",
   "geometry": {
    "type": "Point",
    "coordinates": [
     145.6909656,
     -37.75234703
    ]
   },
   "properties": {
    "name": "UNIT 5, 38 DAMMANS ROAD WARBURTON 3799",
    "locID": "LOC000010113947",
    "tech": "FTTN",
    "upgrade": "FTTP_NA",
    "gnaf_pid": "GAVIC412591742",
    "tech_change_status": "In Design",
    "program_type": "Customer-initiated N2P MDU Complex",
    "target_eligibility_quarter": "Dec 2025"
   }
  },
  {
   "type": "Feature",
   "geometry": {
    "type": "Point",
    "coordinates": [
     145.70508548,
     -37.75645745
    ]
   },
   "properties": {
    "name": "1 LITHGOW AVENUE WARBURTON 3799",
    "locID": "LOC000079331025",
    "tech": "FTTN",
    "upgrade": "FTTP_NA",
    "gnaf_pid": "GAVIC412591752",
    "tech_change_status": "In Design",
    "program_type": "On-Demand N2P SDU/MDU Simple",
    "target_eligibility_quarter": "Dec 2025"
   }
  },
  {
   "type": "Feature",
   "geometry": {
    "type": "Point",
    "coordinates": [
     145.69642776,
     -37.75942477
    ]
   },
   "properties": {
    "name": "27 LEILA ROAD WARBURTON 3799",
    "locID": "LOC000016493086",
    "tech": "SATELLITE",
    "upgrade": "NULL_NA",
    "gnaf_pid": "GAVIC412591773",
    "tech_change_status": "Not Planned"
   }
  },
  {
   "type": "Feature",
   "geometry": {
    "type": "Point",
    "coordinates": [
     145.68948584,
     -37.75533462
    ]
   },
   "properties": {
    "name": "6 CROOM STREET WARBURTON 3799",
    "locID": "LOC000009704027",
    "tech": "FTTN",
    "upgrade": "FTTP_NA",
    "gnaf_pid": "GAVIC412591774",
    "tech_change_status": "In Design",
    "program_type": "On-Demand N2P SDU/MDU Simple",
    "target_eligibility_quarter": "Dec 2025"
   }
  },
  {
   "type": "Feature",
   "geometry": {
    "type": "Point",
    "coordinates": [
     145.70575177,
     -37.74880639
    ]
   },
   "properties": {
    "name": "8 ELLIS COURT WARBURTON 3799",
    "locID": "LOC000046065897",
    "tech": "FTTN",
    "upgrade": "NULL_NA",
    "gnaf_pid": "GAVIC412593090",
    "tech_change_status": "Not Planned"
   }
  },
  {
   "type": "Feature",
   "geometry": {
    "type": "Point",
    "coordinates": [
     145.7000755,
     -37.75698288
    ]
   },
   "properties": {
    "name": "4 HORNERS ROAD WARBURTON 3799",
    "locID": "LOC000091446015",
    "tech": "FTTN",
    "upgrade": "FTTP_NA",
    "gnaf_pid": "GAVIC412593091",
    "tech_change_status": "In Design",
    "program_type": "On-Demand N2P SDU/MDU Simple",
    "target_eligibility_quarter": "Dec 2025"
   }
  },
  {
   "type": "Feature",
   "geometry": {
    "type": "Point",
    "coordinates": [
     145.6855701,
     -37.75360658
    ]
   },
   "properties": {
    "name": "28 DAMMANS ROAD WARBURTON 3799",
    "locID": "LOC000067084538",
    "tech": "FTTP",
    "upgrade": "NULL_NA",
    "gnaf_pid": "GAVIC412593098"
   }
  },
  {
   "type": "Feature",
   "geometry": {
    "type": "Point",
    "coordinates": [
     145.69146339,
     -37.75234328
    ]
   },
   "properties": {
    "name": "40 DAMMANS ROAD WARBURTON 3799",
    "locID": "LOC000004409800",
    "tech": "FTTN",
    "upgrade": "FTTP_NA",
    "gnaf_pid": "GAVIC412593099",
    "tech_change_status": "In Design",
    "program_type": "On-Demand N2P SDU/MDU Simple",
    "target_eligibility_quarter": "Dec 2025"
   }
  },
  {
   "type": "Feature",
   "geometry": {
    "type": "Point",
    "coordinates": [
     145.70502697,
     -37.74735335
    ]
   },
   "properties": {
    "name": "23 YUONGA ROAD WARBURTON 3799",
    "locID": "LOC000057163874",
    "tech": "FTTN",
    "upgrade": "FTTP_NA",
    "gnaf_pid": "GAVIC412595061",
    "tech_change_status": "In Design",
    "program_type": "On-Demand N2P SDU/MDU Simple",
    "target_eligibility_quarter": "Dec 2025"
   }
  },
  {
   "type": "Feature",
   "geometry": {
    "type": "Point",
    "coordinates": [
     145.709653,
     -37.754501
    ]
   },
   "properties": {
    "name": "9 GIFFORDS ROAD WARBURTON 3799",
    "locID": "LOC000069763124",
    "tech": "FTTN",
    "upgrade": "FTTP_NA",
    "gnaf_pid": "GAVIC412595065",
    "tech_change_status": "In Design",
    "program_type": "On-Demand N2P SDU/MDU Simple",
    "target_eligibility_quarter": "Dec 2025"
   }
  },
  {
   "type": "Feature",
   "geometry": {
    "type": "Point",
    "coordinates": [
     145.70604715,
     -37.75689536
    ]
   },
   "properties": {
    "name": "8 FERNTREE AVENUE WARBURTON 3799",
    "locID": "LOC000006132334",
    "tech": "FTTN",
    "upgrade": "FTTP_NA",
    "gnaf_pid": "GAVIC412595067",
    "tech_change_status": "In Design",
    "program_type": "On-Demand N2P SDU/MDU Simple",
    "target_eligibility_quarter": "Dec 2025"
   }
  },
  {
   "type": "Feature",
   "geometry": {
    "type": "Point",
    "coordinates": [
     145.70507405,
     -37.75557512
    ]
   },
   "properties": {
    "name": "10 LITHGOW AVENUE WARBURTON 3799",
    "locID": "LOC000007134758",
    "tech": "FTTN",
    "upgrade": "FTTP_NA",
    "gnaf_pid": "GAVIC412595071",
    "tech_change_status": "In Design",
    "program_type": "On-Demand N2P SDU/MDU Simple",
    "target_eligibility_quarter": "Dec 2025"
   }
  },
  {
   "type": "Feature",
   "geometry": {
    "type": "Point",
    "coordinates": [
     145.70853034,
     -37.75515062
    ]
   },
   "properties": {
    "name": "2A GIFFORDS ROAD WARBURTON 3799",
    "locID": "LOC000011968735",
    "tech": "FTTN",
    "upgrade": "FTTP_NA",
    "gnaf_pid": "GAVIC412595073",
    "tech_change_status": "In Design",
    "program_type": "On-Demand N2P SDU/MDU Simple",
    "target_eligibility_quarter": "Dec 2025"
   }
  },
  {
   "type": "Feature",
   "geometry": {
    "type": "Point",
    "coordinates": [
     145.68362393,
     -37.75753832
    ]
   },
   "properties": {
    "name": "12 ALPINE STREET WARBURTON 3799",
    "locID": "LOC000074548990",
    "tech": "FTTN",
    "upgrade": "FTTP_NA",
    "gnaf_pid": "GAVIC412595348",
    "tech_change_status": "In Design",
    "program_type": "On-Demand N2P SDU/MDU Simple",
    "target_eligibility_quarter": "Dec 2025"
   }
  },
  {
   "type": "Feature",
   "geometry": {
    "type": "Point",
    "coordinates": [
     145.706346,
     -37.748814
    ]
   },
   "properties": {
    "name": "9A YUONGA ROAD WARBURTON 3799",
    "locID": "LOC000030304689",
    "tech": "FTTN",
    "upgrade": "FTTP_NA",
    "gnaf_pid": "GAVIC412595350",
    "tech_change_status": "In Design",
    "program_type": "On-Demand N2P SDU/MDU Simple",
    "target_eligibility_quarter": "Dec 2025"
   }
  },
  {
   "type": "Feature",
   "geometry": {
    "type": "Point",
    "coordinates": [
     145.70374975,
     -37.74937354
    ]
   },
   "properties": {
    "name": "16 SALISBURY AVENUE WARBURTON 3799",
    "locID": "LOC000018093295",
    "tech": "FTTN",
    "upgrade": "FTTP_NA",
    "gnaf_pid": "GAVIC412595355",
    "tech_change_status": "In Design",
    "program_type": "On-Demand N2P SDU/MDU Simple",
    "target_eligibility_quarter": "Dec 2025"
   }
  },
  {
   "type": "Feature",
   "geometry": {
    "type": "Point",
    "coordinates": [
     145.70596195,
     -37.74951371
    ]
   },
   "properties": {
    "name": "5 SALISBURY AVENUE WARBURTON 3799",
    "locID": "LOC000060981744",
    "tech": "FTTN",
    "upgrade": "FTTP_NA",
    "gnaf_pid": "GAVIC412595359",
    "tech_change_status": "In Design",
    "program_type": "On-Demand N2P SDU/MDU Simple",
    "target_eligibility_quarter": "Dec 2025"
   }
  },
  {
   "type": "Feature",
   "geometry": {
    "type": "Point",
    "coordinates": [
     145.71670243,
     -37.74179878
    ]
   },
   "properties": {
    "name": "88 DONNA BUANG ROAD WARBURTON 3799",
    "locID": "LOC000048203742",
    "tech": "NULL",
    "upgrade": "NULL_NA",
    "gnaf_pid": "GAVIC412595360",
    "tech_change_status": "Not Planned"
   }
  },
  {
   "type": "Feature",
   "geometry": {
    "type": "Point",
    "coordinates": [
     145.70075059,
     -37.74886112
    ]
   },
   "properties": {
    "name": "41A BLACKWOOD AVENUE WARBURTON 3799",
    "locID": "LOC000106359387",
    "tech": "FTTN",
    "upgrade": "FTTP_NA",
    "gnaf_pid": "GAVIC412595362",
    "tech_change_status": "In Design",
    "program_type": "On-Demand N2P SDU/MDU Simple",
    "target_eligibility_quarter": "Dec 2025"
   }
  },
  {
   "type": "Feature",
   "geometry": {
    "type": "Point",
    "coordinates": [
     145.7054733,
     -37.7494736
    ]
   },
   "properties": {
    "name": "9 SALISBURY AVENUE WARBURTON 3799",
    "locID": "LOC000107404486",
    "tech": "FTTN",
    "upgrade": "FTTP_NA",
    "gnaf_pid": "GAVIC412595364",
    "tech_change_status": "In Design",
    "program_type": "On-Demand N2P SDU/MDU Simple",
    "target_eligibility_quarter": "Dec 2025"
   }
  },
  {
   "type": "Feature",
   "geometry": {
    "type": "Point",
    "coordinates": [
     145.70565902,
     -37.74970659
    ]
   },
   "properties": {
    "name": "10 SALISBURY AVENUE WARBURTON 3799",
    "locID": "LOC000060365886",
    "tech": "FTTN",
    "upgrade": "FTTP_NA",
    "gnaf_pid": "GAVIC412598985",
    "tech_change_status": "In Design",
    "program_type": "On-Demand N2P SDU/MDU Simple",
    "target_eligibility_quarter": "Dec 2025"
   }
  },
  {
   "type": "Feature",
   "geometry": {
    "type": "Point",
    "coordinates": [
     145.7049161,
     -37.74171655
    ]
   },
   "properties": {
    "name": "120 YUONGA ROAD WARBURTON 3799",
    "locID": "LOC000102242427",
    "tech": "NULL",
    "upgrade": "NULL_NA",
    "gnaf_pid": "GAVIC412599150",
    "tech_change_status": "Not Planned"
   }
  },
  {
   "type": "Feature",
   "geometry": {
    "type": "Point",
    "coordinates": [
     145.66693426,
     -37.75454601
    ]
   },
   "properties": {
    "name": "3175 WARBURTON HIGHWAY WARBURTON 3799",
    "locID": "LOC000074030291",
    "tech": "FTTN",
    "upgrade": "FTTP_NA",
    "gnaf_pid": "GAVIC412599151",
    "tech_change_status": "Committed",
    "program_type": "On-Demand N2P SDU/MDU Simple",
    "target_eligibility_quarter": "Dec 2025"
   }
  },
  {
   "type": "Feature",
   "geometry": {
    "type": "Point",
    "coordinates": [
     145.66992337,
     -37.75264884
    ]
   },
   "properties": {
    "name": "3185 WARBURTON HIGHWAY WARBURTON 3799",
    "locID": "LOC000019390745",
    "tech": "FTTN",
    "upgrade": "FTTP_NA",
    "gnaf_pid": "GAVIC412599152",
    "tech_change_status": "Committed",
    "program_type": "On-Demand N2P SDU/MDU Simple",
    "target_eligibility_quarter": "Dec 2025"
   }
  },
  {
   "type": "Feature",
   "geometry": {
    "type": "Point",
    "coordinates": [
     145.68887346,
     -37.75359623
    ]
   },
   "properties": {
    "name": "UNIT 1, 3399 WARBURTON HIGHWAY WARBURTON 3799",
    "locID": "LOC000042731447",
    "tech": "FTTN",
    "upgrade": "FTTP_NA",
    "gnaf_pid": "GAVIC412599328",
    "tech_change_status": "In Design",
    "program_type": "On-Demand N2P SDU/MDU Simple",
    "target_eligibility_quarter": "Dec 2025"
   }
  },
  {
   "type": "Feature",
   "geometry": {
    "type": "Point",
    "coordinates": [
     145.69721028,
     -37.75029101
    ]
   },
   "properties": {
    "name": "UNIT 1, 60 DAMMANS ROAD WARBURTON 3799",
    "locID": "LOC000079667487",
    "tech": "FTTN",
    "upgrade": "FTTP_NA",
    "gnaf_pid": "GAVIC412599331",
    "tech_change_status": "In Design",
    "program_type": "On-Demand N2P SDU/MDU Simple",
    "target_eligibility_quarter": "Dec 2025"
   }
  },
  {
   "type": "Feature",
   "geometry": {
    "type": "Point",
    "coordinates": [
     145.69026586,
     -37.7512095
    ]
   },
   "properties": {
    "name": "8 BRETT ROAD WARBURTON 3799",
    "locID": "LOC000076075339",
    "tech": "FTTN",
    "upgrade": "FTTP_NA",
    "gnaf_pid": "GAVIC412599338",
    "tech_change_status": "In Design",
    "program_type": "On-Demand N2P SDU/MDU Simple",
    "target_eligibility_quarter": "Dec 2025"
   }
  },
  {
   "type": "Feature",
   "geometry": {
    "type": "Point",
    "coordinates": [
     145.70474888,
     -37.74935749
    ]
   },
   "properties": {
    "name": "13 SALISBURY AVENUE WARBURTON 3799",
    "locID": "LOC000067925071",
    "tech": "FTTN",
    "upgrade": "FTTP_NA",
    "gnaf_pid": "GAVIC412599347",
    "tech_change_status": "In Design",
    "program_type": "On-Demand N2P SDU/MDU Simple",
    "target_eligibility_quarter": "Dec 2025"
   }
  },
  {
   "type": "Feature",
   "geometry": {
    "type": "Point",
    "coordinates": [
     145.70417972,
     -37.75255752
    ]
   },
   "properties": {
    "name": "4 DONNA BUANG ROAD WARBURTON 3799",
    "locID": "LOC000016821528",
    "tech": "FTTN",
    "upgrade": "FTTP_NA",
    "gnaf_pid": "GAVIC412599350",
    "tech_change_status": "In Design",
    "program_type": "On-Demand N2P SDU/MDU Simple",
    "target_eligibility_quarter": "Dec 2025"
   }
  },
  {
   "type": "Feature",
   "geometry": {
    "type": "Point",
    "coordinates": [
     145.70431841,
     -37.74930769
    ]
   },
   "properties": {
    "name": "15 SALISBURY AVENUE WARBURTON 3799",
    "locID": "LOC000060491581",
    "tech": "FTTN",
    "upgrade": "FTTP_NA",
    "gnaf_pid": "GAVIC412599361",
    "tech_change_status": "In Design",
    "program_type": "On-Demand N2P SDU/MDU Simple",
    "target_eligibility_quarter": "Dec 2025"
   }
  },
  {
   "type": "Feature",
   "geometry": {
    "type": "Point",
    "coordinates": [
     145.70412666,
     -37.74619255
    ]
   },
   "properties": {
    "name": "2 LOUIS AVENUE WARBURTON 3799",
    "locID": "LOC000006958156",
    "tech": "FTTN",
    "upgrade": "FTTP_NA",
    "gnaf_pid": "GAVIC412599367",
    "tech_change_status": "In Design",
    "program_type": "On-Demand N2P SDU/MDU Simple",
    "target_eligibility_quarter": "Dec 2025"
   }
  },
  {
   "type": "Feature",
   "geometry": {
    "type": "Point",
    "coordinates": [
     145.69858388,
     -37.7643862
    ]
   },
   "properties": {
    "name": "5 BORONIA ROAD WARBURTON 3799",
    "locID": "LOC000030061776",
    "tech": "FTTN",
    "upgrade": "FTTP_NA",
    "gnaf_pid": "GAVIC412602777",
    "tech_change_status": "In Design",
    "program_type": "On-Demand N2P SDU/MDU Simple",
    "target_eligibility_quarter": "Dec 2025"
   }
  },
  {
   "type": "Feature",
   "geometry": {
    "type": "Point",
    "coordinates": [
     145.68556427,
     -37.76149961
    ]
   },
   "properties": {
    "name": "90 SCOTCHMANS CREEK ROAD WARBURTON 3799",
    "locID": "LOC000070873239",
    "tech": "NULL",
    "upgrade": "NULL_NA",
    "gnaf_pid": "GAVIC412602781",
    "tech_change_status": "Not Planned"
   }
  },
  {
   "type": "Feature",
   "geometry": {
    "type": "Point",
    "coordinates": [
     145.70882752,
     -37.75472521
    ]
   },
   "properties": {
    "name": "UNIT 2, 1 GIFFORDS ROAD WARBURTON 3799",
    "locID": "LOC000073950657",
    "tech": "FTTN",
    "upgrade": "FTTP_NA",
    "gnaf_pid": "GAVIC412602784",
    "tech_change_status": "In Design",
    "program_type": "On-Demand N2P SDU/MDU Simple",
    "target_eligibility_quarter": "Dec 2025"
   }
  },
  {
   "type": "Feature",
   "geometry": {
    "type": "Point",
    "coordinates": [
     145.70360525,
     -37.7491627
    ]
   },
   "properties": {
    "name": "19 SALISBURY AVENUE WARBURTON 3799",
    "locID": "LOC000011165385",
    "tech": "FTTN",
    "upgrade": "FTTP_NA",
    "gnaf_pid": "GAVIC412602794",
    "tech_change_status": "In Design",
    "program_type": "On-Demand N2P SDU/MDU Simple",
    "target_eligibility_quarter": "Dec 2025"
   }
  },
  {
   "type": "Feature",
   "geometry": {
    "type": "Point",
    "coordinates": [
     145.70484037,
     -37.74702208
    ]
   },
   "properties": {
    "name": "25A YUONGA ROAD WARBURTON 3799",
    "locID": "LOC000029288637",
    "tech": "FTTN",
    "upgrade": "FTTP_NA",
    "gnaf_pid": "GAVIC412602920",
    "tech_change_status": "In Design",
    "program_type": "On-Demand N2P SDU/MDU Simple",
    "target_eligibility_quarter": "Dec 2025"
   }
  },
  {
   "type": "Feature",
   "geometry": {
    "type": "Point",
    "coordinates": [
     145.70495536,
     -37.74638331
    ]
   },
   "properties": {
    "name": "29 YUONGA ROAD WARBURTON 3799",
    "locID": "LOC000103387676",
    "tech": "FTTN",
    "upgrade": "FTTP_NA",
    "gnaf_pid": "GAVIC412602921",
    "tech_change_status": "In Design",
    "program_type": "On-Demand N2P SDU/MDU Simple",
    "target_eligibility_quarter": "Dec 2025"
   }
  },
  {
   "type": "Feature",
   "geometry": {
    "type": "Point",
    "coordinates": [
     145.67550615,
     -37.75422578
    ]
   },
   "properties": {
    "name": "6 SURREY ROAD WARBURTON 3799",
    "locID": "LOC000097133011",
    "tech": "FTTN",
    "upgrade": "FTTP_NA",
    "gnaf_pid": "GAVIC412602923",
    "tech_change_status": "In Design",
    "program_type": "On-Demand N2P SDU/MDU Simple",
    "target_eligibility_quarter": "Dec 2025"
   }
  },
  {
   "type": "Feature",
   "geometry": {
    "type": "Point",
    "coordinates": [
     145.69039011,
     -37.75214355
    ]
   },
   "properties": {
    "name": "UNIT 8, 38 DAMMANS ROAD WARBURTON 3799",
    "locID": "LOC000010185306",
    "tech": "FTTN",
    "upgrade": "FTTP_NA",
    "gnaf_pid": "GAVIC412606443",
    "tech_change_status": "In Design",
    "program_type": "Customer-initiated N2P MDU Complex",
    "target_eligibility_quarter": "Dec 2025"
   }
  },
  {
   "type": "Feature",
   "geometry": {
    "type": "Point",
    "coordinates": [
     145.67622151,
     -37.75270678
    ]
   },
   "properties": {
    "name": "23 SURREY ROAD WARBURTON 3799",
    "locID": "LOC000057784887",
    "tech": "FTTN",
    "upgrade": "FTTP_NA",
    "gnaf_pid": "GAVIC412606449",
    "tech_change_status": "In Design",
    "program_type": "On-Demand N2P SDU/MDU Simple",
    "target_eligibility_quarter": "Dec 2025"
   }
  },
  {
   "type": "Feature",
   "geometry": {
    "type": "Point",
    "coordinates": [
     145.68082815,
     -37.75498524
    ]
   },
   "properties": {
    "name": "3315 WARBURTON HIGHWAY WARBURTON 3799",
    "locID": "LOC000096867013",
    "tech": "FTTN",
    "upgrade": "FTTP_NA",
    "gnaf_pid": "GAVIC412606461",
    "tech_change_status": "In Design",
    "program_type": "On-Demand N2P SDU/MDU Simple",
    "target_eligibility_quarter": "Dec 2025"
   }
  },
  {
   "type": "Feature",
   "geometry": {
    "type": "Point",
    "coordinates": [
     145.6839045,
     -37.76524878
    ]
   },
   "properties": {
    "name": "LOT 104 OLD WARBURTON ROAD WARBURTON 3799",
    "locID": "LOC000107542838",
    "tech": "NULL",
    "upgrade": "NULL_NA",
    "gnaf_pid": "GAVIC412698171",
    "tech_change_status": "Not Planned"
   }
  },
  {
   "type": "Feature",
   "geometry": {
    "type": "Point",
    "coordinates": [
     145.70062223,
     -37.76007123
    ]
   },
   "properties": {
    "name": "20 OLD WARBURTON ROAD WARBURTON 3799",
    "locID": "LOC000050299646",
    "tech": "FTTN",
    "upgrade": "FTTP_NA",
    "gnaf_pid": "GAVIC414531818",
    "tech_change_status": "In Design",
    "program_type": "On-Demand N2P SDU/MDU Simple",
    "target_eligibility_quarter": "Dec 2025"
   }
  },
  {
   "type": "Feature",
   "geometry": {
    "type": "Point",
    "coordinates": [
     145.68587124,
     -37.76115465
    ]
   },
   "properties": {
    "name": "95 SCOTCHMANS CREEK ROAD WARBURTON 3799",
    "locID": "LOC000054865168",
    "tech": "SATELLITE",
    "upgrade": "NULL_NA",
    "gnaf_pid": "GAVIC414532157",
    "tech_change_status": "Not Planned"
   }
  },
  {
   "type": "Feature",
   "geometry": {
    "type": "Point",
    "coordinates": [
     145.70894128,
     -37.7507906
    ]
   },
   "properties": {
    "name": "5 SHERWOOD AVENUE WARBURTON 3799",
    "locID": "LOC000086618412",
    "tech": "FTTN",
    "upgrade": "FTTP_NA",
    "gnaf_pid": "GAVIC414532163",
    "tech_change_status": "In Design",
    "program_type": "On-Demand N2P SDU/MDU Simple",
    "target_eligibility_quarter": "Dec 2025"
   }
  },
  {
   "type": "Feature",
   "geometry": {
    "type": "Point",
    "coordinates": [
     145.69460529,
     -37.76008585
    ]
   },
   "properties": {
    "name": "45 STORY ROAD WARBURTON 3799",
    "locID": "LOC000026023750",
    "tech": "SATELLITE",
    "upgrade": "NULL_NA",
    "gnaf_pid": "GAVIC414532206",
    "tech_change_status": "Not Planned"
   }
  },
  {
   "type": "Feature",
   "geometry": {
    "type": "Point",
    "coordinates": [
     145.68753764,
     -37.75460784
    ]
   },
   "properties": {
    "name": "37 STATION ROAD WARBURTON 3799",
    "locID": "LOC000015207976",
    "tech": "FTTN",
    "upgrade": "FTTP_NA",
    "gnaf_pid": "GAVIC414568424",
    "tech_change_status": "In Design",
    "program_type": "On-Demand N2P SDU/MDU Simple",
    "target_eligibility_quarter": "Dec 2025"
   }
  },
  {
   "type": "Feature",
   "geometry": {
    "type": "Point",
    "coordinates": [
     145.71001904,
     -37.75736678
    ]
   },
   "properties": {
    "name": "19 PHEASANT PARADE WARBURTON 3799",
    "locID": "LOC000047734484",
    "tech": "FTTN",
    "upgrade": "FTTP_NA",
    "gnaf_pid": "GAVIC414568433",
    "tech_change_status": "In Design",
    "program_type": "On-Demand N2P SDU/MDU Simple",
    "target_eligibility_quarter": "Dec 2025"
   }
  },
  {
   "type": "Feature",
   "geometry": {
    "type": "Point",
    "coordinates": [
     145.7114618,
     -37.75920278
    ]
   },
   "properties": {
    "name": "30 PHEASANT PARADE WARBURTON 3799",
    "locID": "LOC000040253208",
    "tech": "NULL",
    "upgrade": "NULL_NA",
    "gnaf_pid": "GAVIC414568439",
    "tech_change_status": "Not Planned"
   }
  },
  {
   "type": "Feature",
   "geometry": {
    "type": "Point",
    "coordinates": [
     145.70719403,
     -37.74528364
    ]
   },
   "properties": {
    "name": "11 PIEDMONT AVENUE WARBURTON 3799",
    "locID": "LOC000014263533",
    "tech": "FTTN",
    "upgrade": "FTTP_NA",
    "gnaf_pid": "GAVIC414568440",
    "tech_change_status": "In Design",
    "program_type": "On-Demand N2P SDU/MDU Simple",
    "target_eligibility_quarter": "Dec 2025"
   }
  },
  {
   "type": "Feature",
   "geometry": {
    "type": "Point",
    "coordinates": [
     145.70170339,
     -37.75814148
    ]
   },
   "properties": {
    "name": "8 PROSPECT AVENUE WARBURTON 3799",
    "locID": "LOC000060415330",
    "tech": "FTTN",
    "upgrade": "FTTP_NA",
    "gnaf_pid": "GAVIC414568451",
    "tech_change_status": "In Design",
    "program_type": "On-Demand N2P SDU/MDU Simple",
    "target_eligibility_quarter": "Dec 2025"
   }
  },
  {
   "type": "Feature",
   "geometry": {
    "type": "Point",
    "coordinates": [
     145.70217982,
     -37.75798845
    ]
   },
   "properties": {
    "name": "12 PROSPECT AVENUE WARBURTON 3799",
    "locID": "LOC000045070779",
    "tech": "FTTN",
    "upgrade": "FTTP_NA",
    "gnaf_pid": "GAVIC414571859",
    "tech_change_status": "In Design",
    "program_type": "On-Demand N2P SDU/MDU Simple",
    "target_eligibility_quarter": "Dec 2025"
   }
  },
  {
   "type": "Feature",
   "geometry": {
    "type": "Point",
    "coordinates": [
     145.6880815,
     -37.7500649
    ]
   },
   "properties": {
    "name": "15 MARLINO AVENUE WARBURTON 3799",
    "locID": "LOC000080762769",
    "tech": "FTTN",
    "upgrade": "FTTP_NA",
    "gnaf_pid": "GAVIC414590022",
    "tech_change_status": "In Design",
    "program_type": "On-Demand N2P SDU/MDU Simple",
    "target_eligibility_quarter": "Dec 2025"
   }
  },
  {
   "type": "Feature",
   "geometry": {
    "type": "Point",
    "coordinates": [
     145.68540885,
     -37.74924955
    ]
   },
   "properties": {
    "name": "23 MARLINO AVENUE WARBURTON 3799",
    "locID": "LOC000112920732",
    "tech": "FTTN",
    "upgrade": "FTTP_NA",
    "gnaf_pid": "GAVIC414590025",
    "tech_change_status": "In Design",
    "program_type": "On-Demand N2P SDU/MDU Simple",
    "target_eligibility_quarter": "Dec 2025"
   }
  },
  {
   "type": "Feature",
   "geometry": {
    "type": "Point",
    "coordinates": [
     145.6896363,
     -37.74884377
    ]
   },
   "properties": {
    "name": "UNIT 2, 18 BRETT ROAD WARBURTON 3799",
    "locID": "LOC000040082303",
    "tech": "FTTN",
    "upgrade": "FTTP_NA",
    "gnaf_pid": "GAVIC414590652",
    "tech_change_status": "In Design",
    "program_type": "Customer-initiated N2P MDU Complex",
    "target_eligibility_quarter": "Dec 2025"
   }
  },
  {
   "type": "Feature",
   "geometry": {
    "type": "Point",
    "coordinates": [
     145.6896363,
     -37.74884377
    ]
   },
   "properties": {
    "name": "UNIT 3, 18 BRETT ROAD WARBURTON 3799",
    "locID": "LOC000039504407",
    "tech": "FTTN",
    "upgrade": "FTTP_NA",
    "gnaf_pid": "GAVIC414590653",
    "tech_change_status": "In Design",
    "program_type": "Customer-initiated N2P MDU Complex",
    "target_eligibility_quarter": "Dec 2025"
   }
  },
  {
   "type": "Feature",
   "geometry": {
    "type": "Point",
    "coordinates": [
     145.68709776,
     -37.75257915
    ]
   },
   "properties": {
    "name": "10 WELLINGTON ROAD WARBURTON 3799",
    "locID": "LOC000084914357",
    "tech": "FTTN",
    "upgrade": "FTTP_NA",
    "gnaf_pid": "GAVIC414590656",
    "tech_change_status": "In Design",
    "program_type": "On-Demand N2P SDU/MDU Simple",
    "target_eligibility_quarter": "Dec 2025"
   }
  },
  {
   "type": "Feature",
   "geometry": {
    "type": "Point",
    "coordinates": [
     145.70935296,
     -37.75102621
    ]
   },
   "properties": {
    "name": "38 WOODS POINT ROAD WARBURTON 3799",
    "locID": "LOC000153317081",
    "tech": "FTTN",
    "upgrade": "FTTP_NA",
    "gnaf_pid": "GAVIC414590666",
    "tech_change_status": "In Design",
    "program_type": "Customer-initiated N2P MDU Complex",
    "target_eligibility_quarter": "Dec 2025"
   }
  },
  {
   "type": "Feature",
   "geometry": {
    "type": "Point",
    "coordinates": [
     145.70935296,
     -37.75102621
    ]
   },
   "properties": {
    "name": "34 WOODS POINT ROAD WARBURTON 3799",
    "locID": "LOC000153317047",
    "tech": "FTTN",
    "upgrade": "FTTP_NA",
    "gnaf_pid": "GAVIC414590677",
    "tech_change_status": "In Design",
    "program_type": "Customer-initiated N2P MDU Complex",
    "target_eligibility_quarter": "Dec 2025"
   }
  },
  {
   "type": "Feature",
   "geometry": {
    "type": "Point",
    "coordinates": [
     145.69303151,
     -37.74975459
    ]
   },
   "properties": {
    "name": "4 BRISBANE HILL ROAD WARBURTON 3799",
    "locID": "LOC000005152364",
    "tech": "FTTN",
    "upgrade": "FTTP_NA",
    "gnaf_pid": "GAVIC414590696",
    "tech_change_status": "In Design",
    "program_type": "On-Demand N2P SDU/MDU Simple",
    "target_eligibility_quarter": "Dec 2025"
   }
  },
  {
   "type": "Feature",
   "geometry": {
    "type": "Point",
    "coordinates": [
     145.69843963,
     -37.75887215
    ]
   },
   "properties": {
    "name": "14 CLARKE AVENUE WARBURTON 3799",
    "locID": "LOC000034949952",
    "tech": "FTTN",
    "upgrade": "FTTP_NA",
    "gnaf_pid": "GAVIC414591933",
    "tech_change_status": "In Design",
    "program_type": "On-Demand N2P SDU/MDU Simple",
    "target_eligibility_quarter": "Dec 2025"
   }
  },
  {
   "type": "Feature",
   "geometry": {
    "type": "Point",
    "coordinates": [
     145.68333153,
     -37.7536746
    ]
   },
   "properties": {
    "name": "21 DAMMANS ROAD WARBURTON 3799",
    "locID": "LOC000036137822",
    "tech": "FTTN",
    "upgrade": "FTTP_NA",
    "gnaf_pid": "GAVIC414591991",
    "tech_change_status": "In Design",
    "program_type": "On-Demand N2P SDU/MDU Simple",
    "target_eligibility_quarter": "Dec 2025"
   }
  },
  {
   "type": "Feature",
   "geometry": {
    "type": "Point",
    "coordinates": [
     145.6901025,
     -37.75196032
    ]
   },
   "properties": {
    "name": "36 DAMMANS ROAD WARBURTON 3799",
    "locID": "LOC000095919445",
    "tech": "FTTN",
    "upgrade": "FTTP_NA",
    "gnaf_pid": "GAVIC414591995",
    "tech_change_status": "In Design",
    "program_type": "On-Demand N2P SDU/MDU Simple",
    "target_eligibility_quarter": "Dec 2025"
   }
  },
  {
   "type": "Feature",
   "geometry": {
    "type": "Point",
    "coordinates": [
     145.6909656,
     -37.75234703
    ]
   },
   "properties": {
    "name": "UNIT 1, 38 DAMMANS ROAD WARBURTON 3799",
    "locID": "LOC000010127886",
    "tech": "FTTN",
    "upgrade": "FTTP_NA",
    "gnaf_pid": "GAVIC414591999",
    "tech_change_status": "In Design",
    "program_type": "Customer-initiated N2P MDU Complex",
    "target_eligibility_quarter": "Dec 2025"
   }
  },
  {
   "type": "Feature",
   "geometry": {
    "type": "Point",
    "coordinates": [
     145.70630222,
     -37.7473339
    ]
   },
   "properties": {
    "name": "47 DONNA BUANG ROAD WARBURTON 3799",
    "locID": "LOC000075562406",
    "tech": "FTTN",
    "upgrade": "FTTP_NA",
    "gnaf_pid": "GAVIC414592049",
    "tech_change_status": "In Design",
    "program_type": "On-Demand N2P SDU/MDU Simple",
    "target_eligibility_quarter": "Dec 2025"
   }
  },
  {
   "type": "Feature",
   "geometry": {
    "type": "Point",
    "coordinates": [
     145.70411109,
     -37.75275051
    ]
   },
   "properties": {
    "name": "21 WOODS POINT ROAD WARBURTON 3799",
    "locID": "LOC000095469272",
    "tech": "FTTN",
    "upgrade": "FTTP_NA",
    "gnaf_pid": "GAVIC414594133",
    "tech_change_status": "In Design",
    "program_type": "On-Demand N2P SDU/MDU Simple",
    "target_eligibility_quarter": "Dec 2025"
   }
  },
  {
   "type": "Feature",
   "geometry": {
    "type": "Point",
    "coordinates": [
     145.7051299,
     -37.75323762
    ]
   },
   "properties": {
    "name": "28 WOODS POINT ROAD WARBURTON 3799",
    "locID": "LOC000153316981",
    "tech": "FTTN",
    "upgrade": "FTTP_NA",
    "gnaf_pid": "GAVIC414594134",
    "tech_change_status": "In Design",
    "program_type": "Customer-initiated N2P MDU Complex",
    "target_eligibility_quarter": "Dec 2025"
   }
  },
  {
   "type": "Feature",
   "geometry": {
    "type": "Point",
    "coordinates": [
     145.70925144,
     -37.75461664
    ]
   },
   "properties": {
    "name": "5 GIFFORDS ROAD WARBURTON 3799",
    "locID": "LOC000092468665",
    "tech": "FTTN",
    "upgrade": "FTTP_NA",
    "gnaf_pid": "GAVIC414601179",
    "tech_change_status": "In Design",
    "program_type": "On-Demand N2P SDU/MDU Simple",
    "target_eligibility_quarter": "Dec 2025"
   }
  },
  {
   "type": "Feature",
   "geometry": {
    "type": "Point",
    "coordinates": [
     145.70951857,
     -37.75453832
    ]
   },
   "properties": {
    "name": "7 GIFFORDS ROAD WARBURTON 3799",
    "locID": "LOC000021857956",
    "tech": "FTTN",
    "upgrade": "FTTP_NA",
    "gnaf_pid": "GAVIC414601185",
    "tech_change_status": "In Design",
    "program_type": "On-Demand N2P SDU/MDU Simple",
    "target_eligibility_quarter": "Dec 2025"
   }
  },
  {
   "type": "Feature",
   "geometry": {
    "type": "Point",
    "coordinates": [
     145.70930735,
     -37.75494883
    ]
   },
   "properties": {
    "name": "10 GIFFORDS ROAD WARBURTON 3799",
    "locID": "LOC000035716682",
    "tech": "FTTN",
    "upgrade": "FTTP_NA",
    "gnaf_pid": "GAVIC414601191",
    "tech_change_status": "In Design",
    "program_type": "On-Demand N2P SDU/MDU Simple",
    "target_eligibility_quarter": "Dec 2025"
   }
  },
  {
   "type": "Feature",
   "geometry": {
    "type": "Point",
    "coordinates": [
     145.71203123,
     -37.75315327
    ]
   },
   "properties": {
    "name": "23 GIFFORDS ROAD WARBURTON 3799",
    "locID": "LOC000041014964",
    "tech": "FTTN",
    "upgrade": "FTTP_NA",
    "gnaf_pid": "GAVIC414601205",
    "tech_change_status": "In Design",
    "program_type": "On-Demand N2P SDU/MDU Simple",
    "target_eligibility_quarter": "Dec 2025"
   }
  },
  {
   "type": "Feature",
   "geometry": {
    "type": "Point",
    "coordinates": [
     145.68785718,
     -37.75391533
    ]
   },
   "properties": {
    "name": "3383 WARBURTON HIGHWAY WARBURTON 3799",
    "locID": "LOC000125522957",
    "tech": "FTTN",
    "upgrade": "FTTP_NA",
    "gnaf_pid": "GAVIC414601284",
    "tech_change_status": "In Design",
    "program_type": "On-Demand N2P SDU/MDU Simple",
    "target_eligibility_quarter": "Dec 2025"
   }
  },
  {
   "type": "Feature",
   "geometry": {
    "type": "Point",
    "coordinates": [
     145.68915174,
     -37.75353103
    ]
   },
   "properties": {
    "name": "3403 WARBURTON HIGHWAY WARBURTON 3799",
    "locID": "LOC000125527323",
    "tech": "FTTN",
    "upgrade": "FTTP_NA",
    "gnaf_pid": "GAVIC414601297",
    "tech_change_status": "In Design",
    "program_type": "On-Demand N2P SDU/MDU Simple",
    "target_eligibility_quarter": "Dec 2025"
   }
  },
  {
   "type": "Feature",
   "geometry": {
    "type": "Point",
    "coordinates": [
     145.68045815,
     -37.75503026
    ]
   },
   "properties": {
    "name": "3305 WARBURTON HIGHWAY WARBURTON 3799",
    "locID": "LOC000090463653",
    "tech": "FTTN",
    "upgrade": "FTTP_NA",
    "gnaf_pid": "GAVIC414601302",
    "tech_change_status": "In Design",
    "program_type": "On-Demand N2P SDU/MDU Simple",
    "target_eligibility_quarter": "Dec 2025"
   }
  },
  {
   "type": "Feature",
   "geometry": {
    "type": "Point",
    "coordinates": [
     145.68845893,
     -37.75323165
    ]
   },
   "properties": {
    "name": "3395 WARBURTON HIGHWAY WARBURTON 3799",
    "locID": "LOC000154581096",
    "tech": "FTTN",
    "upgrade": "FTTP_NA",
    "gnaf_pid": "GAVIC414601312",
    "tech_change_status": "In Design",
    "program_type": "Customer-initiated N2P MDU Complex",
    "target_eligibility_quarter": "Dec 2025"
   }
  },
  {
   "type": "Feature",
   "geometry": {
    "type": "Point",
    "coordinates": [
     145.67315629,
     -37.75449604
    ]
   },
   "properties": {
    "name": "3235 WARBURTON HIGHWAY WARBURTON 3799",
    "locID": "LOC000062524144",
    "tech": "FTTN",
    "upgrade": "FTTP_NA",
    "gnaf_pid": "GAVIC414601318",
    "tech_change_status": "Committed",
    "program_type": "On-Demand N2P SDU/MDU Simple",
    "target_eligibility_quarter": "Dec 2025"
   }
  },
  {
   "type": "Feature",
   "geometry": {
    "type": "Point",
    "coordinates": [
     145.68198951,
     -37.7549097
    ]
   },
   "properties": {
    "name": "3325 WARBURTON HIGHWAY WARBURTON 3799",
    "locID": "LOC000022990971",
    "tech": "FTTN",
    "upgrade": "FTTP_NA",
    "gnaf_pid": "GAVIC414601328",
    "tech_change_status": "In Design",
    "program_type": "On-Demand N2P SDU/MDU Simple",
    "target_eligibility_quarter": "Dec 2025"
   }
  },
  {
   "type": "Feature",
   "geometry": {
    "type": "Point",
    "coordinates": [
     145.68263876,
     -37.7548798
    ]
   },
   "properties": {
    "name": "3335 WARBURTON HIGHWAY WARBURTON 3799",
    "locID": "LOC000125522926",
    "tech": "FTTN",
    "upgrade": "FTTP_NA",
    "gnaf_pid": "GAVIC414601330",
    "tech_change_status": "In Design",
    "program_type": "On-Demand N2P SDU/MDU Simple",
    "target_eligibility_quarter": "Dec 2025"
   }
  },
  {
   "type": "Feature",
   "geometry": {
    "type": "Point",
    "coordinates": [
     145.6685448,
     -37.75543224
    ]
   },
   "properties": {
    "name": "5 OAK AVENUE WARBURTON 3799",
    "locID": "LOC000006154441",
    "tech": "FTTN",
    "upgrade": "FTTP_NA",
    "gnaf_pid": "GAVIC414608187",
    "tech_change_status": "In Design",
    "program_type": "On-Demand N2P SDU/MDU Simple",
    "target_eligibility_quarter": "Dec 2025"
   }
  },
  {
   "type": "Feature",
   "geometry": {
    "type": "Point",
    "coordinates": [
     145.69884684,
     -37.75407002
    ]
   },
   "properties": {
    "name": "7 PARK ROAD WARBURTON 3799",
    "locID": "LOC000026024030",
    "tech": "FTTN",
    "upgrade": "FTTP_NA",
    "gnaf_pid": "GAVIC414608241",
    "tech_change_status": "In Design",
    "program_type": "On-Demand N2P SDU/MDU Simple",
    "target_eligibility_quarter": "Dec 2025"
   }
  },
  {
   "type": "Feature",
   "geometry": {
    "type": "Point",
    "coordinates": [
     145.68383,
     -37.75892055
    ]
   },
   "properties": {
    "name": "27 ALPINE STREET WARBURTON 3799",
    "locID": "LOC000077287833",
    "tech": "FTTN",
    "upgrade": "FTTP_NA",
    "gnaf_pid": "GAVIC414608823",
    "tech_change_status": "In Design",
    "program_type": "On-Demand N2P SDU/MDU Simple",
    "target_eligibility_quarter": "Dec 2025"
   }
  },
  {
   "type": "Feature",
   "geometry": {
    "type": "Point",
    "coordinates": [
     145.68348998,
     -37.75697003
    ]
   },
   "properties": {
    "name": "4 CECIL STREET WARBURTON 3799",
    "locID": "LOC000008599513",
    "tech": "FTTN",
    "upgrade": "FTTP_NA",
    "gnaf_pid": "GAVIC414610067",
    "tech_change_status": "In Design",
    "program_type": "On-Demand N2P SDU/MDU Simple",
    "target_eligibility_quarter": "Dec 2025"
   }
  },
  {
   "type": "Feature",
   "geometry": {
    "type": "Point",
    "coordinates": [
     145.6886361,
     -37.7554682
    ]
   },
   "properties": {
    "name": "4 CROOM STREET WARBURTON 3799",
    "locID": "LOC000023060818",
    "tech": "FTTN",
    "upgrade": "FTTP_NA",
    "gnaf_pid": "GAVIC414610088",
    "tech_change_status": "In Design",
    "program_type": "On-Demand N2P SDU/MDU Simple",
    "target_eligibility_quarter": "Dec 2025"
   }
  },
  {
   "type": "Feature",
   "geometry": {
    "type": "Point",
    "coordinates": [
     145.6909656,
     -37.75234703
    ]
   },
   "properties": {
    "name": "UNIT 2, 38 DAMMANS ROAD WARBURTON 3799",
    "locID": "LOC000010127886",
    "tech": "FTTN",
    "upgrade": "FTTP_NA",
    "gnaf_pid": "GAVIC414610134",
    "tech_change_status": "In Design",
    "program_type": "Customer-initiated N2P MDU Complex",
    "target_eligibility_quarter": "Dec 2025"
   }
  },
  {
   "type": "Feature",
   "geometry": {
    "type": "Point",
    "coordinates": [
     145.70665534,
     -37.75013436
    ]
   },
   "properties": {
    "name": "2 YUONGA ROAD WARBURTON 3799",
    "locID": "LOC000008875379",
    "tech": "FTTN",
    "upgrade": "FTTP_NA",
    "gnaf_pid": "GAVIC414612279",
    "tech_change_status": "In Design",
    "program_type": "Customer-initiated N2P MDU Complex",
    "target_eligibility_quarter": "Dec 2025"
   }
  },
  {
   "type": "Feature",
   "geometry": {
    "type": "Point",
    "coordinates": [
     145.69436075,
     -37.74945721
    ]
   },
   "properties": {
    "name": "12 BRISBANE PARADE WARBURTON 3799",
    "locID": "LOC000073617503",
    "tech": "FTTN",
    "upgrade": "FTTP_NA",
    "gnaf_pid": "GAVIC414615722",
    "tech_change_status": "In Design",
    "program_type": "On-Demand N2P SDU/MDU Simple",
    "target_eligibility_quarter": "Dec 2025"
   }
  },
  {
   "type": "Feature",
   "geometry": {
    "type": "Point",
    "coordinates": [
     145.7089843,
     -37.75469496
    ]
   },
   "properties": {
    "name": "3 GIFFORDS ROAD WARBURTON 3799",
    "locID": "LOC000096385613",
    "tech": "FTTN",
    "upgrade": "FTTP_NA",
    "gnaf_pid": "GAVIC414619321",
    "tech_change_status": "In Design",
    "program_type": "On-Demand N2P SDU/MDU Simple",
    "target_eligibility_quarter": "Dec 2025"
   }
  },
  {
   "type": "Feature",
   "geometry": {
    "type": "Point",
    "coordinates": [
     145.71087395,
     -37.75375097
    ]
   },
   "properties": {
    "name": "17A GIFFORDS ROAD WARBURTON 3799",
    "locID": "LOC000176785027",
    "tech": "FTTN",
    "upgrade": "FTTP_NA",
    "gnaf_pid": "GAVIC414622778",
    "tech_change_status": "In Design",
    "program_type": "On-Demand N2P SDU/MDU Simple",
    "target_eligibility_quarter": "Dec 2025"
   }
  },
  {
   "type": "Feature",
   "geometry": {
    "type": "Point",
    "coordinates": [
     145.68514898,
     -37.75666086
    ]
   },
   "properties": {
    "name": "7 GLENBROOK ROAD WARBURTON 3799",
    "locID": "LOC000015609344",
    "tech": "FTTN",
    "upgrade": "FTTP_NA",
    "gnaf_pid": "GAVIC414622784",
    "tech_change_status": "In Design",
    "program_type": "On-Demand N2P SDU/MDU Simple",
    "target_eligibility_quarter": "Dec 2025"
   }
  },
  {
   "type": "Feature",
   "geometry": {
    "type": "Point",
    "coordinates": [
     145.70356178,
     -37.75494132
    ]
   },
   "properties": {
    "name": "30 KELLYS ROAD WARBURTON 3799",
    "locID": "LOC000001955100",
    "tech": "FTTN",
    "upgrade": "FTTP_NA",
    "gnaf_pid": "GAVIC414622845",
    "tech_change_status": "In Design",
    "program_type": "On-Demand N2P SDU/MDU Simple",
    "target_eligibility_quarter": "Dec 2025"
   }
  },
  {
   "type": "Feature",
   "geometry": {
    "type": "Point",
    "coordinates": [
     145.67481764,
     -37.75347831
    ]
   },
   "properties": {
    "name": "9 LINCOLN ROAD WARBURTON 3799",
    "locID": "LOC000082450204",
    "tech": "FTTN",
    "upgrade": "FTTP_NA",
    "gnaf_pid": "GAVIC414622897",
    "tech_change_status": "In Design",
    "program_type": "On-Demand N2P SDU/MDU Simple",
    "target_eligibility_quarter": "Dec 2025"
   }
  },
  {
   "type": "Feature",
   "geometry": {
    "type": "Point",
    "coordinates": [
     145.70441916,
     -37.75543307
    ]
   },
   "properties": {
    "name": "4 LITHGOW AVENUE WARBURTON 3799",
    "locID": "LOC000071599690",
    "tech": "FTTN",
    "upgrade": "FTTP_NA",
    "gnaf_pid": "GAVIC414622910",
    "tech_change_status": "In Design",
    "program_type": "On-Demand N2P SDU/MDU Simple",
    "target_eligibility_quarter": "Dec 2025"
   }
  },
  {
   "type": "Feature",
   "geometry": {
    "type": "Point",
    "coordinates": [
     145.70476418,
     -37.75692574
    ]
   },
   "properties": {
    "name": "17 LITHGOW AVENUE WARBURTON 3799",
    "locID": "LOC000079331025",
    "tech": "FTTN",
    "upgrade": "FTTP_NA",
    "gnaf_pid": "GAVIC414622912",
    "tech_change_status": "In Design",
    "program_type": "On-Demand N2P SDU/MDU Simple",
    "target_eligibility_quarter": "Dec 2025"
   }
  },
  {
   "type": "Feature",
   "geometry": {
    "type": "Point",
    "coordinates": [
     145.68667694,
     -37.75456315
    ]
   },
   "properties": {
    "name": "3360 WARBURTON HIGHWAY WARBURTON 3799",
    "locID": "LOC000090904374",
    "tech": "FTTN",
    "upgrade": "FTTP_NA",
    "gnaf_pid": "GAVIC414622926",
    "tech_change_status": "In Design",
    "program_type": "On-Demand N2P SDU/MDU Simple",
    "target_eligibility_quarter": "Dec 2025"
   }
  },