{
 "type": "FeatureCollection",
 "generated": "2024-08-28T02:12:45.974189",
 "suburb": "WILLIAMSTOWN",
 "features": [
  {
   "type": "Feature",
   "geometry": {
    "type": "Point",
    "coordinates": [
     144.89776831,
     -37.85580115
    ]
   },
   "properties": {
    "name": "98A DOUGLAS PARADE WILLIAMSTOWN 3016",
    "locID": "LOC000067474973",
    "tech": "FTTN",
    "upgrade": "FTTP_SA",
    "gnaf_pid": "GAVIC412554450",
    "tech_change_status": "Eligible to Order",
    "program_type": "On-Demand N2P SDU/MDU Simple",
    "target_eligibility_quarter": "NA"
   }
  },
  {
   "type": "Feature",
   "geometry": {
    "type": "Point",
    "coordinates": [
     144.89688035,
     -37.85856341
    ]
   },
   "properties": {
    "name": "98A FERGUSON STREET WILLIAMSTOWN 3016",
    "locID": "LOC000104484387",
    "tech": "FTTN",
    "upgrade": "FTTP_SA",
    "gnaf_pid": "GAVIC412554456",
    "tech_change_status": "Eligible to Order",
    "program_type": "On-Demand N2P SDU/MDU Simple",
    "target_eligibility_quarter": "NA"
   }
  },
  {
   "type": "Feature",
   "geometry": {
    "type": "Point",
    "coordinates": [
     144.90125605,
     -37.8584727
    ]
   },
   "properties": {
    "name": "6 THE STRAND WILLIAMSTOWN 3016",
    "locID": "LOC000190334262",
    "tech": "FTTP",
    "upgrade": "FTTP_NA",
    "gnaf_pid": "GAVIC412578961",
    "tech_change_status": "Previous Tech Disconnected",
    "program_type": "On-Demand N2P SDU/MDU Simple",
    "target_eligibility_quarter": "NA"
   }
  },
  {
   "type": "Feature",
   "geometry": {
    "type": "Point",
    "coordinates": [
     144.891895,
     -37.853813
    ]
   },
   "properties": {
    "name": "UNIT 3, 37 RUSSELL PLACE WILLIAMSTOWN 3016",
    "locID": "LOC000102137967",
    "tech": "FTTN",
    "upgrade": "FTTP_NA",
    "gnaf_pid": "GAVIC412578973",
    "tech_change_status": "MDU Complex Eligible To Apply",
    "program_type": "Customer-initiated N2P MDU Complex"
   }
  },
  {
   "type": "Feature",
   "geometry": {
    "type": "Point",
    "coordinates": [
     144.8912165,
     -37.85258083
    ]
   },
   "properties": {
    "name": "78 ALBERT STREET WILLIAMSTOWN 3016",
    "locID": "LOC000146194522",
    "tech": "FTTN",
    "upgrade": "FTTP_SA",
    "gnaf_pid": "GAVIC412578975",
    "tech_change_status": "Eligible to Order",
    "program_type": "On-Demand N2P SDU/MDU Simple",
    "target_eligibility_quarter": "NA"
   }
  },
  {
   "type": "Feature",
   "geometry": {
    "type": "Point",
    "coordinates": [
     144.895662,
     -37.852844
    ]
   },
   "properties": {
    "name": "159 DOUGLAS PARADE WILLIAMSTOWN 3016",
    "locID": "LOC000050743133",
    "tech": "FTTN",
    "upgrade": "FTTP_SA",
    "gnaf_pid": "GAVIC412590157",
    "tech_change_status": "Eligible to Order",
    "program_type": "On-Demand N2P SDU/MDU Simple",
    "target_eligibility_quarter": "NA"
   }
  },
  {
   "type": "Feature",
   "geometry": {
    "type": "Point",
    "coordinates": [
     144.89734048,
     -37.85701115
    ]
   },
   "properties": {
    "name": "65 STEVEDORE STREET WILLIAMSTOWN 3016",
    "locID": "LOC000165798594",
    "tech": "FTTN",
    "upgrade": "FTTP_NA",
    "gnaf_pid": "GAVIC412593650",
    "tech_change_status": "MDU Complex Eligible To Apply",
    "program_type": "Customer-initiated N2P MDU Complex"
   }
  },
  {
   "type": "Feature",
   "geometry": {
    "type": "Point",
    "coordinates": [
     144.88289164,
     -37.85946381
    ]
   },
   "properties": {
    "name": "UNIT 18, 44 RIFLE RANGE DRIVE WILLIAMSTOWN 3016",
    "locID": "LOC000011006022",
    "tech": "FTTN",
    "upgrade": "FTTP_NA",
    "gnaf_pid": "GAVIC412593673",
    "tech_change_status": "MDU Complex Eligible To Apply",
    "program_type": "Customer-initiated N2P MDU Complex"
   }
  },
  {
   "type": "Feature",
   "geometry": {
    "type": "Point",
    "coordinates": [
     144.896983,
     -37.851957
    ]
   },
   "properties": {
    "name": "UNIT 1, 105 DOVER ROAD WILLIAMSTOWN 3016",
    "locID": "LOC000030118909",
    "tech": "FTTP",
    "upgrade": "FTTP_NA",
    "gnaf_pid": "GAVIC412594205",
    "tech_change_status": "Previous Tech Disconnected",
    "program_type": "On-Demand N2P SDU/MDU Simple",
    "target_eligibility_quarter": "NA"
   }
  },
  {
   "type": "Feature",
   "geometry": {
    "type": "Point",
    "coordinates": [
     144.88289164,
     -37.85946381
    ]
   },
   "properties": {
    "name": "UNIT 5, 44 RIFLE RANGE DRIVE WILLIAMSTOWN 3016",
    "locID": "LOC000011066621",
    "tech": "FTTN",
    "upgrade": "FTTP_NA",
    "gnaf_pid": "GAVIC412594208",
    "tech_change_status": "MDU Complex Eligible To Apply",
    "program_type": "Customer-initiated N2P MDU Complex"
   }
  },
  {
   "type": "Feature",
   "geometry": {
    "type": "Point",
    "coordinates": [
     144.88289164,
     -37.85946381
    ]
   },
   "properties": {
    "name": "UNIT 2, 44 RIFLE RANGE DRIVE WILLIAMSTOWN 3016",
    "locID": "LOC000011065620",
    "tech": "FTTN",
    "upgrade": "FTTP_NA",
    "gnaf_pid": "GAVIC412594209",
    "tech_change_status": "MDU Complex Eligible To Apply",
    "program_type": "Customer-initiated N2P MDU Complex"
   }
  },
  {
   "type": "Feature",
   "geometry": {
    "type": "Point",
    "coordinates": [
     144.88785629,
     -37.86034606
    ]
   },
   "properties": {
    "name": "UNIT 1, 100 HANNAN STREET WILLIAMSTOWN 3016",
    "locID": "LOC000023521543",
    "tech": "FTTN",
    "upgrade": "FTTP_SA",
    "gnaf_pid": "GAVIC412594230",
    "tech_change_status": "Eligible to Order",
    "program_type": "On-Demand N2P SDU/MDU Simple",
    "target_eligibility_quarter": "NA"
   }
  },
  {
   "type": "Feature",
   "geometry": {
    "type": "Point",
    "coordinates": [
     144.89232363,
     -37.85557714
    ]
   },
   "properties": {
    "name": "UNIT 1, 130 MELBOURNE ROAD WILLIAMSTOWN 3016",
    "locID": "LOC000075472316",
    "tech": "FTTN",
    "upgrade": "FTTP_SA",
    "gnaf_pid": "GAVIC412605671",
    "tech_change_status": "Eligible to Order",
    "program_type": "On-Demand N2P SDU/MDU Simple",
    "target_eligibility_quarter": "NA"
   }
  },
  {
   "type": "Feature",
   "geometry": {
    "type": "Point",
    "coordinates": [
     144.88289164,
     -37.85946381
    ]
   },
   "properties": {
    "name": "UNIT 23, 44 RIFLE RANGE DRIVE WILLIAMSTOWN 3016",
    "locID": "LOC000011088096",
    "tech": "FTTN",
    "upgrade": "FTTP_NA",
    "gnaf_pid": "GAVIC412605693",
    "tech_change_status": "MDU Complex Eligible To Apply",
    "program_type": "Customer-initiated N2P MDU Complex"
   }
  },
  {
   "type": "Feature",
   "geometry": {
    "type": "Point",
    "coordinates": [
     144.88289164,
     -37.85946381
    ]
   },
   "properties": {
    "name": "UNIT 7, 44 RIFLE RANGE DRIVE WILLIAMSTOWN 3016",
    "locID": "LOC000011166329",
    "tech": "FTTN",
    "upgrade": "FTTP_NA",
    "gnaf_pid": "GAVIC412605699",
    "tech_change_status": "MDU Complex Eligible To Apply",
    "program_type": "Customer-initiated N2P MDU Complex"
   }
  },
  {
   "type": "Feature",
   "geometry": {
    "type": "Point",
    "coordinates": [
     144.887808,
     -37.858434
    ]
   },
   "properties": {
    "name": "17 CASTLE STREET WILLIAMSTOWN 3016",
    "locID": "LOC000122810301",
    "tech": "FTTP",
    "upgrade": "NULL_NA",
    "gnaf_pid": "GAVIC412608814",
    "program_type": "On-Demand N2P SDU/MDU Simple",
    "target_eligibility_quarter": "NA"
   }
  },
  {
   "type": "Feature",
   "geometry": {
    "type": "Point",
    "coordinates": [
     144.89996104,
     -37.85383819
    ]
   },
   "properties": {
    "name": "UNIT 4, 6 BRONTE COURT WILLIAMSTOWN 3016",
    "locID": "LOC000077200490",
    "tech": "FTTN",
    "upgrade": "FTTP_NA",
    "gnaf_pid": "GAVIC412608970",
    "tech_change_status": "MDU Complex Eligible To Apply",
    "program_type": "Customer-initiated N2P MDU Complex"
   }
  },
  {
   "type": "Feature",
   "geometry": {
    "type": "Point",
    "coordinates": [
     144.897064,
     -37.855158
    ]
   },
   "properties": {
    "name": "UNIT 2, 39 JOHN STREET WILLIAMSTOWN 3016",
    "locID": "LOC000006217090",
    "tech": "FTTN",
    "upgrade": "FTTP_SA",
    "gnaf_pid": "GAVIC412608978",
    "tech_change_status": "Eligible to Order",
    "program_type": "On-Demand N2P SDU/MDU Simple",
    "target_eligibility_quarter": "NA"
   }
  },
  {
   "type": "Feature",
   "geometry": {
    "type": "Point",
    "coordinates": [
     144.88289164,
     -37.85946381
    ]
   },
   "properties": {
    "name": "UNIT 15, 44 RIFLE RANGE DRIVE WILLIAMSTOWN 3016",
    "locID": "LOC000011031624",
    "tech": "FTTN",
    "upgrade": "FTTP_NA",
    "gnaf_pid": "GAVIC412609014",
    "tech_change_status": "MDU Complex Eligible To Apply",
    "program_type": "Customer-initiated N2P MDU Complex"
   }
  },
  {
   "type": "Feature",
   "geometry": {
    "type": "Point",
    "coordinates": [
     144.89895986,
     -37.85883734
    ]
   },
   "properties": {
    "name": "56 FERGUSON STREET WILLIAMSTOWN 3016",
    "locID": "LOC000111823347",
    "tech": "FTTP",
    "upgrade": "FTTP_NA",
    "gnaf_pid": "GAVIC412609022",
    "tech_change_status": "Previous Tech Disconnected",
    "program_type": "On-Demand N2P SDU/MDU Simple",
    "target_eligibility_quarter": "NA"
   }
  },
  {
   "type": "Feature",
   "geometry": {
    "type": "Point",
    "coordinates": [
     144.89488666,
     -37.85428436
    ]
   },
   "properties": {
    "name": "10 QUEEN STREET WILLIAMSTOWN 3016",
    "locID": "LOC000074153521",
    "tech": "FTTN",
    "upgrade": "FTTP_SA",
    "gnaf_pid": "GAVIC412609039",
    "tech_change_status": "Eligible to Order",
    "program_type": "On-Demand N2P SDU/MDU Simple",
    "target_eligibility_quarter": "NA"
   }
  },
  {
   "type": "Feature",
   "geometry": {
    "type": "Point",
    "coordinates": [
     144.88289164,
     -37.85946381
    ]
   },
   "properties": {
    "name": "UNIT 22, 44 RIFLE RANGE DRIVE WILLIAMSTOWN 3016",
    "locID": "LOC000010962354",
    "tech": "FTTN",
    "upgrade": "FTTP_NA",
    "gnaf_pid": "GAVIC412609060",
    "tech_change_status": "MDU Complex Eligible To Apply",
    "program_type": "Customer-initiated N2P MDU Complex"
   }
  },
  {
   "type": "Feature",
   "geometry": {
    "type": "Point",
    "coordinates": [
     144.891895,
     -37.853813
    ]
   },
   "properties": {
    "name": "UNIT 2, 37 RUSSELL PLACE WILLIAMSTOWN 3016",
    "locID": "LOC000102303748",
    "tech": "FTTN",
    "upgrade": "FTTP_NA",
    "gnaf_pid": "GAVIC412609071",
    "tech_change_status": "MDU Complex Eligible To Apply",
    "program_type": "Customer-initiated N2P MDU Complex"
   }
  },
  {
   "type": "Feature",
   "geometry": {
    "type": "Point",
    "coordinates": [
     144.89804,
     -37.859158
    ]
   },
   "properties": {
    "name": "77A FERGUSON STREET WILLIAMSTOWN 3016",
    "locID": "LOC000049203752",
    "tech": "FTTN",
    "upgrade": "FTTP_SA",
    "gnaf_pid": "GAVIC412610042",
    "tech_change_status": "Eligible to Order",
    "program_type": "On-Demand N2P SDU/MDU Simple",
    "target_eligibility_quarter": "NA"
   }
  },
  {
   "type": "Feature",
   "geometry": {
    "type": "Point",
    "coordinates": [
     144.90176822,
     -37.86068318
    ]
   },
   "properties": {
    "name": "2 PASCO STREET WILLIAMSTOWN 3016",
    "locID": "LOC000110666519",
    "tech": "FTTN",
    "upgrade": "FTTP_SA",
    "gnaf_pid": "GAVIC412610063",
    "tech_change_status": "Eligible to Order",
    "program_type": "On-Demand N2P SDU/MDU Simple",
    "target_eligibility_quarter": "NA"
   }
  },
  {
   "type": "Feature",
   "geometry": {
    "type": "Point",
    "coordinates": [
     144.902211,
     -37.86119573
    ]
   },
   "properties": {
    "name": "UNIT 94, 235 NELSON PLACE WILLIAMSTOWN 3016",
    "locID": "LOC000095281755",
    "tech": "FTTN",
    "upgrade": "FTTP_NA",
    "gnaf_pid": "GAVIC412610102",
    "tech_change_status": "Committed",
    "program_type": "Customer-initiated N2P MDU Complex",
    "target_eligibility_quarter": "Dec 2024"
   }
  },
  {
   "type": "Feature",
   "geometry": {
    "type": "Point",
    "coordinates": [
     144.902211,
     -37.86119573
    ]
   },
   "properties": {
    "name": "UNIT 111, 235 NELSON PLACE WILLIAMSTOWN 3016",
    "locID": "LOC000095437473",
    "tech": "FTTN",
    "upgrade": "FTTP_NA",
    "gnaf_pid": "GAVIC412610103",
    "tech_change_status": "Committed",
    "program_type": "Customer-initiated N2P MDU Complex",
    "target_eligibility_quarter": "Dec 2024"
   }
  },
  {
   "type": "Feature",
   "geometry": {
    "type": "Point",
    "coordinates": [
     144.902211,
     -37.86119573
    ]
   },
   "properties": {
    "name": "UNIT 98, 235 NELSON PLACE WILLIAMSTOWN 3016",
    "locID": "LOC000095834346",
    "tech": "FTTN",
    "upgrade": "FTTP_NA",
    "gnaf_pid": "GAVIC412610104",
    "tech_change_status": "Committed",
    "program_type": "Customer-initiated N2P MDU Complex",
    "target_eligibility_quarter": "Dec 2024"
   }
  },
  {
   "type": "Feature",
   "geometry": {
    "type": "Point",
    "coordinates": [
     144.85913087,
     -37.85482101
    ]
   },
   "properties": {
    "name": "UNIT A4, 217 KOROROIT CREEK ROAD WILLIAMSTOWN 3016",
    "locID": "LOC100081585771",
    "tech": "FTTN",
    "upgrade": "NULL_NA",
    "gnaf_pid": "GAVIC412610118",
    "tech_change_status": "Not Planned"
   }
  },
  {
   "type": "Feature",
   "geometry": {
    "type": "Point",
    "coordinates": [
     144.85911707,
     -37.8571142
    ]
   },
   "properties": {
    "name": "UNIT 4, 12 TECHNO PARK DRIVE WILLIAMSTOWN 3016",
    "locID": "LOC000065709354",
    "tech": "FTTN",
    "upgrade": "NULL_NA",
    "gnaf_pid": "GAVIC412611331",
    "tech_change_status": "Not Planned"
   }
  },
  {
   "type": "Feature",
   "geometry": {
    "type": "Point",
    "coordinates": [
     144.902211,
     -37.86119573
    ]
   },
   "properties": {
    "name": "UNIT 15, 235 NELSON PLACE WILLIAMSTOWN 3016",
    "locID": "LOC000095192689",
    "tech": "FTTN",
    "upgrade": "FTTP_NA",
    "gnaf_pid": "GAVIC412611369",
    "tech_change_status": "Committed",
    "program_type": "Customer-initiated N2P MDU Complex",
    "target_eligibility_quarter": "Dec 2024"
   }
  },
  {
   "type": "Feature",
   "geometry": {
    "type": "Point",
    "coordinates": [
     144.87127881,
     -37.85596167
    ]
   },
   "properties": {
    "name": "211 KOROROIT CREEK ROAD WILLIAMSTOWN 3016",
    "locID": "LOC000159720478",
    "tech": "FTTN",
    "upgrade": "FTTP_SA",
    "gnaf_pid": "GAVIC412611377",
    "tech_change_status": "Eligible to Order",
    "program_type": "On-Demand N2P SDU/MDU Simple",
    "target_eligibility_quarter": "NA"
   }
  },
  {
   "type": "Feature",
   "geometry": {
    "type": "Point",
    "coordinates": [
     144.86896235,
     -37.85602265
    ]
   },
   "properties": {
    "name": "25 GRAY RESERVE ROAD WILLIAMSTOWN 3016",
    "locID": "LOC000159720421",
    "tech": "FTTN",
    "upgrade": "FTTP_NA",
    "gnaf_pid": "GAVIC412611378",
    "tech_change_status": "Committed",
    "program_type": "On-Demand N2P SDU/MDU Simple",
    "target_eligibility_quarter": "Dec 2025"
   }
  },
  {
   "type": "Feature",
   "geometry": {
    "type": "Point",
    "coordinates": [
     144.85832689,
     -37.85642223
    ]
   },
   "properties": {
    "name": "11 TECHNO PARK DRIVE WILLIAMSTOWN 3016",
    "locID": "LOC000045759378",
    "tech": "FTTN",
    "upgrade": "NULL_NA",
    "gnaf_pid": "GAVIC412611379",
    "tech_change_status": "Not Planned"
   }
  },
  {
   "type": "Feature",
   "geometry": {
    "type": "Point",
    "coordinates": [
     144.88176185,
     -37.8618296
    ]
   },
   "properties": {
    "name": "2 MADIGAN COURT WILLIAMSTOWN 3016",
    "locID": "LOC000122814444",
    "tech": "FTTN",
    "upgrade": "FTTP",
    "gnaf_pid": "GAVIC412612568",
    "tech_change_status": "Eligible to Order",
    "program_type": "On-Demand N2P SDU/MDU Simple",
    "target_eligibility_quarter": "NA"
   }
  },
  {
   "type": "Feature",
   "geometry": {
    "type": "Point",
    "coordinates": [
     144.85885829,
     -37.85466695
    ]
   },
   "properties": {
    "name": "UNIT A2, 217 KOROROIT CREEK ROAD WILLIAMSTOWN 3016",
    "locID": "LOC100081585771",
    "tech": "FTTN",
    "upgrade": "NULL_NA",
    "gnaf_pid": "GAVIC412612585",
    "tech_change_status": "Not Planned"
   }
  },
  {
   "type": "Feature",
   "geometry": {
    "type": "Point",
    "coordinates": [
     144.85905157,
     -37.85473956
    ]
   },
   "properties": {
    "name": "UNIT A3, 217 KOROROIT CREEK ROAD WILLIAMSTOWN 3016",
    "locID": "LOC100081585771",
    "tech": "FTTN",
    "upgrade": "NULL_NA",
    "gnaf_pid": "GAVIC412612586",
    "tech_change_status": "Not Planned"
   }
  },
  {
   "type": "Feature",
   "geometry": {
    "type": "Point",
    "coordinates": [
     144.90173014,
     -37.85963109
    ]
   },
   "properties": {
    "name": "UNIT 3, 263 NELSON PLACE WILLIAMSTOWN 3016",
    "locID": "LOC000106603892",
    "tech": "FTTN",
    "upgrade": "FTTP_NA",
    "gnaf_pid": "GAVIC412612613",
    "tech_change_status": "MDU Complex Eligible To Apply",
    "program_type": "Customer-initiated N2P MDU Complex"
   }
  },
  {
   "type": "Feature",
   "geometry": {
    "type": "Point",
    "coordinates": [
     144.89898344,
     -37.85348897
    ]
   },
   "properties": {
    "name": "7 DOVER LANE WILLIAMSTOWN 3016",
    "locID": "LOC000047568752",
    "tech": "FTTN",
    "upgrade": "FTTP_SA",
    "gnaf_pid": "GAVIC412612646",
    "tech_change_status": "Eligible to Order",
    "program_type": "On-Demand N2P SDU/MDU Simple",
    "target_eligibility_quarter": "NA"
   }
  },
  {
   "type": "Feature",
   "geometry": {
    "type": "Point",
    "coordinates": [
     144.902211,
     -37.86119573
    ]
   },
   "properties": {
    "name": "UNIT 35, 235 NELSON PLACE WILLIAMSTOWN 3016",
    "locID": "LOC000096004848",
    "tech": "FTTN",
    "upgrade": "FTTP_NA",
    "gnaf_pid": "GAVIC412612663",
    "tech_change_status": "Committed",
    "program_type": "Customer-initiated N2P MDU Complex",
    "target_eligibility_quarter": "Dec 2024"
   }
  },
  {
   "type": "Feature",
   "geometry": {
    "type": "Point",
    "coordinates": [
     144.902211,
     -37.86119573
    ]
   },
   "properties": {
    "name": "UNIT 117, 235 NELSON PLACE WILLIAMSTOWN 3016",
    "locID": "LOC000095236699",
    "tech": "FTTN",
    "upgrade": "FTTP_NA",
    "gnaf_pid": "GAVIC412612685",
    "tech_change_status": "Committed",
    "program_type": "Customer-initiated N2P MDU Complex",
    "target_eligibility_quarter": "Dec 2024"
   }
  },
  {
   "type": "Feature",
   "geometry": {
    "type": "Point",
    "coordinates": [
     144.902211,
     -37.86119573
    ]
   },
   "properties": {
    "name": "UNIT 125, 235 NELSON PLACE WILLIAMSTOWN 3016",
    "locID": "LOC000095300971",
    "tech": "FTTN",
    "upgrade": "FTTP_NA",
    "gnaf_pid": "GAVIC412612686",
    "tech_change_status": "Committed",
    "program_type": "Customer-initiated N2P MDU Complex",
    "target_eligibility_quarter": "Dec 2024"
   }
  },
  {
   "type": "Feature",
   "geometry": {
    "type": "Point",
    "coordinates": [
     144.902211,
     -37.86119573
    ]
   },
   "properties": {
    "name": "UNIT 21, 235 NELSON PLACE WILLIAMSTOWN 3016",
    "locID": "LOC000095727235",
    "tech": "FTTN",
    "upgrade": "FTTP_NA",
    "gnaf_pid": "GAVIC412612687",
    "tech_change_status": "Committed",
    "program_type": "Customer-initiated N2P MDU Complex",
    "target_eligibility_quarter": "Dec 2024"
   }
  },
  {
   "type": "Feature",
   "geometry": {
    "type": "Point",
    "coordinates": [
     144.89215277,
     -37.8580295
    ]
   },
   "properties": {
    "name": "154 FERGUSON STREET WILLIAMSTOWN 3016",
    "locID": "LOC000112729374",
    "tech": "FTTN",
    "upgrade": "FTTP_NA",
    "gnaf_pid": "GAVIC412614582",
    "tech_change_status": "MDU Complex Eligible To Apply",
    "program_type": "Customer-initiated N2P MDU Complex"
   }
  },
  {
   "type": "Feature",
   "geometry": {
    "type": "Point",
    "coordinates": [
     144.89020499,
     -37.85705283
    ]
   },
   "properties": {
    "name": "UNIT 6, 28 STATION ROAD WILLIAMSTOWN 3016",
    "locID": "LOC000080886697",
    "tech": "FTTN",
    "upgrade": "FTTP_NA",
    "gnaf_pid": "GAVIC412614583",
    "tech_change_status": "MDU Complex Eligible To Apply",
    "program_type": "Customer-initiated N2P MDU Complex"
   }
  },
  {
   "type": "Feature",
   "geometry": {
    "type": "Point",
    "coordinates": [
     144.89595003,
     -37.85535391
    ]
   },
   "properties": {
    "name": "24 MACQUARIE STREET WILLIAMSTOWN 3016",
    "locID": "LOC000061934189",
    "tech": "FTTN",
    "upgrade": "FTTP_SA",
    "gnaf_pid": "GAVIC412614610",
    "tech_change_status": "Eligible to Order",
    "program_type": "On-Demand N2P SDU/MDU Simple",
    "target_eligibility_quarter": "NA"
   }
  },
  {
   "type": "Feature",
   "geometry": {
    "type": "Point",
    "coordinates": [
     144.8910452,
     -37.85373366
    ]
   },
   "properties": {
    "name": "UNIT 1, 162 MELBOURNE ROAD WILLIAMSTOWN 3016",
    "locID": "LOC000083244550",
    "tech": "FTTP",
    "upgrade": "NULL_NA",
    "gnaf_pid": "GAVIC412614655",
    "program_type": "On-Demand N2P SDU/MDU Simple",
    "target_eligibility_quarter": "NA"
   }
  },
  {
   "type": "Feature",
   "geometry": {
    "type": "Point",
    "coordinates": [
     144.89140945,
     -37.85260345
    ]
   },
   "properties": {
    "name": "72 ALBERT STREET WILLIAMSTOWN 3016",
    "locID": "LOC000038513277",
    "tech": "FTTN",
    "upgrade": "FTTP_SA",
    "gnaf_pid": "GAVIC412614683",
    "tech_change_status": "Eligible to Order",
    "program_type": "On-Demand N2P SDU/MDU Simple",
    "target_eligibility_quarter": "NA"
   }
  },
  {
   "type": "Feature",
   "geometry": {
    "type": "Point",
    "coordinates": [
     144.89097871,
     -37.8585597
    ]
   },
   "properties": {
    "name": "3 LITTLE FERGUSON STREET WILLIAMSTOWN 3016",
    "locID": "LOC000082046169",
    "tech": "FTTN",
    "upgrade": "FTTP_NA",
    "gnaf_pid": "GAVIC412614725",
    "tech_change_status": "MDU Complex Eligible To Apply",
    "program_type": "Customer-initiated N2P MDU Complex"
   }
  },
  {
   "type": "Feature",
   "geometry": {
    "type": "Point",
    "coordinates": [
     144.89101839,
     -37.85867828
    ]
   },
   "properties": {
    "name": "19 LITTLE FERGUSON STREET WILLIAMSTOWN 3016",
    "locID": "LOC000082167386",
    "tech": "FTTN",
    "upgrade": "FTTP_NA",
    "gnaf_pid": "GAVIC412614726",
    "tech_change_status": "MDU Complex Eligible To Apply",
    "program_type": "Customer-initiated N2P MDU Complex"
   }
  },
  {
   "type": "Feature",
   "geometry": {
    "type": "Point",
    "coordinates": [
     144.902211,
     -37.86119573
    ]
   },
   "properties": {
    "name": "UNIT 86, 235 NELSON PLACE WILLIAMSTOWN 3016",
    "locID": "LOC000095232450",
    "tech": "FTTN",
    "upgrade": "FTTP_NA",
    "gnaf_pid": "GAVIC412614795",
    "tech_change_status": "Committed",
    "program_type": "Customer-initiated N2P MDU Complex",
    "target_eligibility_quarter": "Dec 2024"
   }
  },
  {
   "type": "Feature",
   "geometry": {
    "type": "Point",
    "coordinates": [
     144.902211,
     -37.86119573
    ]
   },
   "properties": {
    "name": "UNIT 115, 235 NELSON PLACE WILLIAMSTOWN 3016",
    "locID": "LOC000095633963",
    "tech": "FTTN",
    "upgrade": "FTTP_NA",
    "gnaf_pid": "GAVIC412614796",
    "tech_change_status": "Committed",
    "program_type": "Customer-initiated N2P MDU Complex",
    "target_eligibility_quarter": "Dec 2024"
   }
  },
  {
   "type": "Feature",
   "geometry": {
    "type": "Point",
    "coordinates": [
     144.902211,
     -37.86119573
    ]
   },
   "properties": {
    "name": "UNIT 38, 235 NELSON PLACE WILLIAMSTOWN 3016",
    "locID": "LOC000095946376",
    "tech": "FTTN",
    "upgrade": "FTTP_NA",
    "gnaf_pid": "GAVIC412614802",
    "tech_change_status": "Committed",
    "program_type": "Customer-initiated N2P MDU Complex",
    "target_eligibility_quarter": "Dec 2024"
   }
  },
  {
   "type": "Feature",
   "geometry": {
    "type": "Point",
    "coordinates": [
     144.902211,
     -37.86119573
    ]
   },
   "properties": {
    "name": "UNIT 128, 235 NELSON PLACE WILLIAMSTOWN 3016",
    "locID": "LOC000095122328",
    "tech": "FTTN",
    "upgrade": "FTTP_NA",
    "gnaf_pid": "GAVIC412614865",
    "tech_change_status": "Committed",
    "program_type": "Customer-initiated N2P MDU Complex",
    "target_eligibility_quarter": "Dec 2024"
   }
  },
  {
   "type": "Feature",
   "geometry": {
    "type": "Point",
    "coordinates": [
     144.902211,
     -37.86119573
    ]
   },
   "properties": {
    "name": "UNIT 96, 235 NELSON PLACE WILLIAMSTOWN 3016",
    "locID": "LOC000095245477",
    "tech": "FTTN",
    "upgrade": "FTTP_NA",
    "gnaf_pid": "GAVIC412614870",
    "tech_change_status": "Committed",
    "program_type": "Customer-initiated N2P MDU Complex",
    "target_eligibility_quarter": "Dec 2024"
   }
  },
  {
   "type": "Feature",
   "geometry": {
    "type": "Point",
    "coordinates": [
     144.90291837,
     -37.86750934
    ]
   },
   "properties": {
    "name": "12 NORVAL CLOSE WILLIAMSTOWN 3016",
    "locID": "LOC000044874536",
    "tech": "FTTN",
    "upgrade": "FTTP_NA",
    "gnaf_pid": "GAVIC412614874",
    "tech_change_status": "Committed",
    "program_type": "Customer-initiated N2P MDU Complex",
    "target_eligibility_quarter": "Dec 2024"
   }
  },
  {
   "type": "Feature",
   "geometry": {
    "type": "Point",
    "coordinates": [
     144.90291837,
     -37.86750934
    ]
   },
   "properties": {
    "name": "2 NORVAL CLOSE WILLIAMSTOWN 3016",
    "locID": "LOC000027741651",
    "tech": "FTTN",
    "upgrade": "FTTP_NA",
    "gnaf_pid": "GAVIC412614875",
    "tech_change_status": "Committed",
    "program_type": "Customer-initiated N2P MDU Complex",
    "target_eligibility_quarter": "Dec 2024"
   }
  },
  {
   "type": "Feature",
   "geometry": {
    "type": "Point",
    "coordinates": [
     144.90097047,
     -37.86691838
    ]
   },
   "properties": {
    "name": "10 CUMBERLAND CLOSE WILLIAMSTOWN 3016",
    "locID": "LOC000102084332",
    "tech": "FTTN",
    "upgrade": "FTTP_NA",
    "gnaf_pid": "GAVIC412614876",
    "tech_change_status": "Committed",
    "program_type": "Customer-initiated N2P MDU Complex",
    "target_eligibility_quarter": "Dec 2024"
   }
  },
  {
   "type": "Feature",
   "geometry": {
    "type": "Point",
    "coordinates": [
     144.89101839,
     -37.85867828
    ]
   },
   "properties": {
    "name": "27 LITTLE FERGUSON STREET WILLIAMSTOWN 3016",
    "locID": "LOC000082588242",
    "tech": "FTTN",
    "upgrade": "FTTP_NA",
    "gnaf_pid": "GAVIC412614880",
    "tech_change_status": "MDU Complex Eligible To Apply",
    "program_type": "Customer-initiated N2P MDU Complex"
   }
  },
  {
   "type": "Feature",
   "geometry": {
    "type": "Point",
    "coordinates": [
     144.89937952,
     -37.86683341
    ]
   },
   "properties": {
    "name": "UNIT 6, 80 OSBORNE STREET WILLIAMSTOWN 3016",
    "locID": "LOC000039823113",
    "tech": "FTTN",
    "upgrade": "FTTP_NA",
    "gnaf_pid": "GAVIC412614890",
    "tech_change_status": "Committed",
    "program_type": "Customer-initiated N2P MDU Complex",
    "target_eligibility_quarter": "Dec 2024"
   }
  },
  {
   "type": "Feature",
   "geometry": {
    "type": "Point",
    "coordinates": [
     144.89996104,
     -37.85383819
    ]
   },
   "properties": {
    "name": "UNIT 7, 5 BRONTE COURT WILLIAMSTOWN 3016",
    "locID": "LOC000030244098",
    "tech": "FTTN",
    "upgrade": "FTTP_NA",
    "gnaf_pid": "GAVIC412616166",
    "tech_change_status": "MDU Complex Eligible To Apply",
    "program_type": "Customer-initiated N2P MDU Complex"
   }
  },
  {
   "type": "Feature",
   "geometry": {
    "type": "Point",
    "coordinates": [
     144.8925296,
     -37.85056906
    ]
   },
   "properties": {
    "name": "UNIT 1, 54 YARRA STREET WILLIAMSTOWN 3016",
    "locID": "LOC000046038804",
    "tech": "FTTN",
    "upgrade": "FTTP_NA",
    "gnaf_pid": "GAVIC412616177",
    "tech_change_status": "MDU Complex Eligible To Apply",
    "program_type": "Customer-initiated N2P MDU Complex"
   }
  },
  {
   "type": "Feature",
   "geometry": {
    "type": "Point",
    "coordinates": [
     144.89260361,
     -37.85808375
    ]
   },
   "properties": {
    "name": "148A FERGUSON STREET WILLIAMSTOWN 3016",
    "locID": "LOC000006908292",
    "tech": "FTTN",
    "upgrade": "FTTP_SA",
    "gnaf_pid": "GAVIC412616189",
    "tech_change_status": "Eligible to Order",
    "program_type": "On-Demand N2P SDU/MDU Simple",
    "target_eligibility_quarter": "NA"
   }
  },
  {
   "type": "Feature",
   "geometry": {
    "type": "Point",
    "coordinates": [
     144.89996104,
     -37.85383819
    ]
   },
   "properties": {
    "name": "UNIT 9, 5 BRONTE COURT WILLIAMSTOWN 3016",
    "locID": "LOC000030259206",
    "tech": "FTTN",
    "upgrade": "FTTP_NA",
    "gnaf_pid": "GAVIC412616292",
    "tech_change_status": "MDU Complex Eligible To Apply",
    "program_type": "Customer-initiated N2P MDU Complex"
   }
  },
  {
   "type": "Feature",
   "geometry": {
    "type": "Point",
    "coordinates": [
     144.885484,
     -37.867329
    ]
   },
   "properties": {
    "name": "UNIT 3, 113 ESPLANADE WILLIAMSTOWN 3016",
    "locID": "LOC000059442065",
    "tech": "FTTN",
    "upgrade": "FTTP_NA",
    "gnaf_pid": "GAVIC412616305",
    "tech_change_status": "Committed",
    "program_type": "Customer-initiated N2P MDU Complex",
    "target_eligibility_quarter": "Dec 2024"
   }
  },
  {
   "type": "Feature",
   "geometry": {
    "type": "Point",
    "coordinates": [
     144.89593626,
     -37.85526424
    ]
   },
   "properties": {
    "name": "24A MACQUARIE STREET WILLIAMSTOWN 3016",
    "locID": "LOC000061947497",
    "tech": "FTTP",
    "upgrade": "FTTP_NA",
    "gnaf_pid": "GAVIC412616309",
    "tech_change_status": "Previous Tech Disconnected",
    "program_type": "On-Demand N2P SDU/MDU Simple",
    "target_eligibility_quarter": "NA"
   }
  },
  {
   "type": "Feature",
   "geometry": {
    "type": "Point",
    "coordinates": [
     144.90239996,
     -37.8618139
    ]
   },
   "properties": {
    "name": "225 NELSON PLACE WILLIAMSTOWN 3016",
    "locID": "LOC000045456891",
    "tech": "FTTN",
    "upgrade": "NULL_NA",
    "gnaf_pid": "GAVIC412616614",
    "tech_change_status": "Not Planned"
   }
  },
  {
   "type": "Feature",
   "geometry": {
    "type": "Point",
    "coordinates": [
     144.89996104,
     -37.85383819
    ]
   },
   "properties": {
    "name": "UNIT 1, 6 BRONTE COURT WILLIAMSTOWN 3016",
    "locID": "LOC000076961722",
    "tech": "FTTN",
    "upgrade": "FTTP_NA",
    "gnaf_pid": "GAVIC412617181",
    "tech_change_status": "MDU Complex Eligible To Apply",
    "program_type": "Customer-initiated N2P MDU Complex"
   }
  },
  {
   "type": "Feature",
   "geometry": {
    "type": "Point",
    "coordinates": [
     144.89996104,
     -37.85383819
    ]
   },
   "properties": {
    "name": "UNIT 3, 10 BRONTE COURT WILLIAMSTOWN 3016",
    "locID": "LOC000034583813",
    "tech": "FTTN",
    "upgrade": "FTTP_NA",
    "gnaf_pid": "GAVIC412617182",
    "tech_change_status": "MDU Complex Eligible To Apply",
    "program_type": "Customer-initiated N2P MDU Complex"
   }
  },
  {
   "type": "Feature",
   "geometry": {
    "type": "Point",
    "coordinates": [
     144.89996104,
     -37.85383819
    ]
   },
   "properties": {
    "name": "UNIT 2, 3 BRONTE COURT WILLIAMSTOWN 3016",
    "locID": "LOC000077057485",
    "tech": "FTTN",
    "upgrade": "FTTP_NA",
    "gnaf_pid": "GAVIC412617183",
    "tech_change_status": "MDU Complex Eligible To Apply",
    "program_type": "Customer-initiated N2P MDU Complex"
   }
  },
  {
   "type": "Feature",
   "geometry": {
    "type": "Point",
    "coordinates": [
     144.89996104,
     -37.85383819
    ]
   },
   "properties": {
    "name": "UNIT 3, 4 BRONTE COURT WILLIAMSTOWN 3016",
    "locID": "LOC000083173353",
    "tech": "FTTN",
    "upgrade": "FTTP_NA",
    "gnaf_pid": "GAVIC412617184",
    "tech_change_status": "MDU Complex Eligible To Apply",
    "program_type": "Customer-initiated N2P MDU Complex"
   }
  },
  {
   "type": "Feature",
   "geometry": {
    "type": "Point",
    "coordinates": [
     144.88979781,
     -37.85485779
    ]
   },
   "properties": {
    "name": "3 FEDERAL STREET WILLIAMSTOWN 3016",
    "locID": "LOC000146207367",
    "tech": "FTTN",
    "upgrade": "FTTP",
    "gnaf_pid": "GAVIC412617186",
    "tech_change_status": "Eligible to Order",
    "program_type": "On-Demand N2P SDU/MDU Simple",
    "target_eligibility_quarter": "NA"
   }
  },
  {
   "type": "Feature",
   "geometry": {
    "type": "Point",
    "coordinates": [
     144.88289164,
     -37.85946381
    ]
   },
   "properties": {
    "name": "UNIT 16, 44 RIFLE RANGE DRIVE WILLIAMSTOWN 3016",
    "locID": "LOC000011021473",
    "tech": "FTTN",
    "upgrade": "FTTP_NA",
    "gnaf_pid": "GAVIC412617204",
    "tech_change_status": "MDU Complex Eligible To Apply",
    "program_type": "Customer-initiated N2P MDU Complex"
   }
  },
  {
   "type": "Feature",
   "geometry": {
    "type": "Point",
    "coordinates": [
     144.891088,
     -37.865774
    ]
   },
   "properties": {
    "name": "UNIT 1, 8 GELLIBRAND STREET WILLIAMSTOWN 3016",
    "locID": "LOC000031022712",
    "tech": "FTTN",
    "upgrade": "FTTP_NA",
    "gnaf_pid": "GAVIC412617213",
    "tech_change_status": "Committed",
    "program_type": "Customer-initiated N2P MDU Complex",
    "target_eligibility_quarter": "Dec 2024"
   }
  },
  {
   "type": "Feature",
   "geometry": {
    "type": "Point",
    "coordinates": [
     144.88937971,
     -37.86524295
    ]
   },
   "properties": {
    "name": "24 GELLIBRAND STREET WILLIAMSTOWN 3016",
    "locID": "LOC000007112681",
    "tech": "FTTN",
    "upgrade": "FTTP_NA",
    "gnaf_pid": "GAVIC412617215",
    "tech_change_status": "Committed",
    "program_type": "On-Demand N2P SDU/MDU Simple",
    "target_eligibility_quarter": "Dec 2025"
   }
  },
  {
   "type": "Feature",
   "geometry": {
    "type": "Point",
    "coordinates": [
     144.88289164,
     -37.85946381
    ]
   },
   "properties": {
    "name": "UNIT 1, 44 RIFLE RANGE DRIVE WILLIAMSTOWN 3016",
    "locID": "LOC000010972380",
    "tech": "FTTN",
    "upgrade": "FTTP_NA",
    "gnaf_pid": "GAVIC412617248",
    "tech_change_status": "MDU Complex Eligible To Apply",
    "program_type": "Customer-initiated N2P MDU Complex"
   }
  },
  {
   "type": "Feature",
   "geometry": {
    "type": "Point",
    "coordinates": [
     144.88289164,
     -37.85946381
    ]
   },
   "properties": {
    "name": "UNIT 12, 44 RIFLE RANGE DRIVE WILLIAMSTOWN 3016",
    "locID": "LOC000011226029",
    "tech": "FTTN",
    "upgrade": "FTTP_NA",
    "gnaf_pid": "GAVIC412617249",
    "tech_change_status": "MDU Complex Eligible To Apply",
    "program_type": "Customer-initiated N2P MDU Complex"
   }
  },
  {
   "type": "Feature",
   "geometry": {
    "type": "Point",
    "coordinates": [
     144.88599158,
     -37.86312234
    ]
   },
   "properties": {
    "name": "2 BAYVIEW STREET WILLIAMSTOWN 3016",
    "locID": "LOC000092310413",
    "tech": "FTTN",
    "upgrade": "FTTP_SA",
    "gnaf_pid": "GAVIC412617256",
    "tech_change_status": "Eligible to Order",
    "program_type": "On-Demand N2P SDU/MDU Simple",
    "target_eligibility_quarter": "NA"
   }
  },
  {
   "type": "Feature",
   "geometry": {
    "type": "Point",
    "coordinates": [
     144.902211,
     -37.86119573
    ]
   },
   "properties": {
    "name": "UNIT 127, 235 NELSON PLACE WILLIAMSTOWN 3016",
    "locID": "LOC000095960572",
    "tech": "FTTN",
    "upgrade": "FTTP_NA",
    "gnaf_pid": "GAVIC412618213",
    "tech_change_status": "Committed",
    "program_type": "Customer-initiated N2P MDU Complex",
    "target_eligibility_quarter": "Dec 2024"
   }
  },
  {
   "type": "Feature",
   "geometry": {
    "type": "Point",
    "coordinates": [
     144.89676134,
     -37.85194089
    ]
   },
   "properties": {
    "name": "UNIT 2, 105 DOVER ROAD WILLIAMSTOWN 3016",
    "locID": "LOC000030118909",
    "tech": "FTTP",
    "upgrade": "FTTP_NA",
    "gnaf_pid": "GAVIC412618219",
    "tech_change_status": "Previous Tech Disconnected",
    "program_type": "On-Demand N2P SDU/MDU Simple",
    "target_eligibility_quarter": "NA"
   }
  },
  {
   "type": "Feature",
   "geometry": {
    "type": "Point",
    "coordinates": [
     144.89324535,
     -37.85175815
    ]
   },
   "properties": {
    "name": "UNIT 2, 19 CHANDLER STREET WILLIAMSTOWN 3016",
    "locID": "LOC000002950235",
    "tech": "FTTN",
    "upgrade": "FTTP_SA",
    "gnaf_pid": "GAVIC412618229",
    "tech_change_status": "Eligible to Order",
    "program_type": "On-Demand N2P SDU/MDU Simple",
    "target_eligibility_quarter": "NA"
   }
  },
  {
   "type": "Feature",
   "geometry": {
    "type": "Point",
    "coordinates": [
     144.89812445,
     -37.85846311
    ]
   },
   "properties": {
    "name": "UNIT 2, 12 DOUGLAS PARADE WILLIAMSTOWN 3016",
    "locID": "LOC000038880376",
    "tech": "FTTN",
    "upgrade": "FTTP_NA",
    "gnaf_pid": "GAVIC412618246",
    "tech_change_status": "MDU Complex Eligible To Apply",
    "program_type": "Customer-initiated N2P MDU Complex"
   }
  },
  {
   "type": "Feature",
   "geometry": {
    "type": "Point",
    "coordinates": [
     144.89996104,
     -37.85383819
    ]
   },
   "properties": {
    "name": "UNIT 6, 5 BRONTE COURT WILLIAMSTOWN 3016",
    "locID": "LOC000030005964",
    "tech": "FTTN",
    "upgrade": "FTTP_NA",
    "gnaf_pid": "GAVIC412618252",
    "tech_change_status": "MDU Complex Eligible To Apply",
    "program_type": "Customer-initiated N2P MDU Complex"
   }
  },
  {
   "type": "Feature",
   "geometry": {
    "type": "Point",
    "coordinates": [
     144.88924212,
     -37.85194884
    ]
   },
   "properties": {
    "name": "UNIT 1, 185 MELBOURNE ROAD WILLIAMSTOWN 3016",
    "locID": "LOC000052961157",
    "tech": "FTTN",
    "upgrade": "FTTP_NA",
    "gnaf_pid": "GAVIC412618281",
    "tech_change_status": "MDU Complex Eligible To Apply",
    "program_type": "Customer-initiated N2P MDU Complex"
   }
  },
  {
   "type": "Feature",
   "geometry": {
    "type": "Point",
    "coordinates": [
     144.886828,
     -37.859546
    ]
   },
   "properties": {
    "name": "UNIT 1, 110 BAYVIEW STREET WILLIAMSTOWN 3016",
    "locID": "LOC000092066948",
    "tech": "FTTP",
    "upgrade": "NULL_NA",
    "gnaf_pid": "GAVIC412618344",
    "program_type": "On-Demand N2P SDU/MDU Simple",
    "target_eligibility_quarter": "NA"
   }
  },
  {
   "type": "Feature",
   "geometry": {
    "type": "Point",
    "coordinates": [
     144.89598459,
     -37.8643212
    ]
   },
   "properties": {
    "name": "UNIT 10, 111 RAILWAY PLACE WILLIAMSTOWN 3016",
    "locID": "LOC000040862476",
    "tech": "FTTN",
    "upgrade": "FTTP_NA",
    "gnaf_pid": "GAVIC412620507",
    "tech_change_status": "MDU Complex Eligible To Apply",
    "program_type": "Customer-initiated N2P MDU Complex"
   }
  },
  {
   "type": "Feature",
   "geometry": {
    "type": "Point",
    "coordinates": [
     144.895242,
     -37.855474
    ]
   },
   "properties": {
    "name": "18A RENNIE STREET WILLIAMSTOWN 3016",
    "locID": "LOC000034708743",
    "tech": "FTTN",
    "upgrade": "FTTP_SA",
    "gnaf_pid": "GAVIC412620716",
    "tech_change_status": "Eligible to Order",
    "program_type": "On-Demand N2P SDU/MDU Simple",
    "target_eligibility_quarter": "NA"
   }
  },
  {
   "type": "Feature",
   "geometry": {
    "type": "Point",
    "coordinates": [
     144.89749693,
     -37.8586804
    ]
   },
   "properties": {
    "name": "84A FERGUSON STREET WILLIAMSTOWN 3016",
    "locID": "LOC000122786155",
    "tech": "FTTN",
    "upgrade": "FTTP_NA",
    "gnaf_pid": "GAVIC412620718",
    "tech_change_status": "MDU Complex Eligible To Apply",
    "program_type": "Customer-initiated N2P MDU Complex"
   }
  },
  {
   "type": "Feature",
   "geometry": {
    "type": "Point",
    "coordinates": [
     144.8924238,
     -37.85041185
    ]
   },
   "properties": {
    "name": "UNIT 4, 54 YARRA STREET WILLIAMSTOWN 3016",
    "locID": "LOC000045443205",
    "tech": "FTTN",
    "upgrade": "FTTP_NA",
    "gnaf_pid": "GAVIC412620744",
    "tech_change_status": "MDU Complex Eligible To Apply",
    "program_type": "Customer-initiated N2P MDU Complex"
   }
  },
  {
   "type": "Feature",
   "geometry": {
    "type": "Point",
    "coordinates": [
     144.89234989,
     -37.85035534
    ]
   },
   "properties": {
    "name": "UNIT 5, 54 YARRA STREET WILLIAMSTOWN 3016",
    "locID": "LOC000045455362",
    "tech": "FTTN",
    "upgrade": "FTTP_NA",
    "gnaf_pid": "GAVIC412620750",
    "tech_change_status": "MDU Complex Eligible To Apply",
    "program_type": "Customer-initiated N2P MDU Complex"
   }
  },
  {
   "type": "Feature",
   "geometry": {
    "type": "Point",
    "coordinates": [
     144.89498153,
     -37.854409
    ]
   },
   "properties": {
    "name": "6 QUEEN STREET WILLIAMSTOWN 3016",
    "locID": "LOC000006875725",
    "tech": "FTTN",
    "upgrade": "FTTP_SA",
    "gnaf_pid": "GAVIC412620793",
    "tech_change_status": "Eligible to Order",
    "program_type": "On-Demand N2P SDU/MDU Simple",
    "target_eligibility_quarter": "NA"
   }
  },
  {
   "type": "Feature",
   "geometry": {
    "type": "Point",
    "coordinates": [
     144.88369538,
     -37.8644223
    ]
   },
   "properties": {
    "name": "1C FARRELL COURT WILLIAMSTOWN 3016",
    "locID": "LOC000016851363",
    "tech": "FTTN",
    "upgrade": "FTTP_NA",
    "gnaf_pid": "GAVIC412620841",
    "tech_change_status": "MDU Complex Eligible To Apply",
    "program_type": "Customer-initiated N2P MDU Complex"
   }
  },
  {
   "type": "Feature",
   "geometry": {
    "type": "Point",
    "coordinates": [
     144.891088,
     -37.865774
    ]
   },
   "properties": {
    "name": "UNIT 3, 8 GELLIBRAND STREET WILLIAMSTOWN 3016",
    "locID": "LOC000031041714",
    "tech": "FTTN",
    "upgrade": "FTTP_NA",
    "gnaf_pid": "GAVIC412621043",
    "tech_change_status": "Committed",
    "program_type": "Customer-initiated N2P MDU Complex",
    "target_eligibility_quarter": "Dec 2024"
   }
  },
  {
   "type": "Feature",
   "geometry": {
    "type": "Point",
    "coordinates": [
     144.89996104,
     -37.85383819
    ]
   },
   "properties": {
    "name": "UNIT 3, 6 BRONTE COURT WILLIAMSTOWN 3016",
    "locID": "LOC000077336658",
    "tech": "FTTN",
    "upgrade": "FTTP_NA",
    "gnaf_pid": "GAVIC412621046",
    "tech_change_status": "MDU Complex Eligible To Apply",
    "program_type": "Customer-initiated N2P MDU Complex"
   }
  },
  {
   "type": "Feature",
   "geometry": {
    "type": "Point",
    "coordinates": [
     144.88567123,
     -37.86615686
    ]
   },
   "properties": {
    "name": "16A BAYVIEW STREET WILLIAMSTOWN 3016",
    "locID": "LOC000004853756",
    "tech": "FTTN",
    "upgrade": "FTTP_NA",
    "gnaf_pid": "GAVIC412621049",
    "tech_change_status": "Committed",
    "program_type": "On-Demand N2P SDU/MDU Simple",
    "target_eligibility_quarter": "Dec 2024"
   }
  },
  {
   "type": "Feature",
   "geometry": {
    "type": "Point",
    "coordinates": [
     144.89895986,
     -37.85883734
    ]
   },
   "properties": {
    "name": "56A FERGUSON STREET WILLIAMSTOWN 3016",
    "locID": "LOC000113799256",
    "tech": "FTTN",
    "upgrade": "FTTP_SA",
    "gnaf_pid": "GAVIC412621089",
    "tech_change_status": "Eligible to Order",
    "program_type": "On-Demand N2P SDU/MDU Simple",
    "target_eligibility_quarter": "NA"
   }
  },
  {
   "type": "Feature",
   "geometry": {
    "type": "Point",
    "coordinates": [
     144.89319475,
     -37.8585729
    ]
   },
   "properties": {
    "name": "UNIT 1, 127 FERGUSON STREET WILLIAMSTOWN 3016",
    "locID": "LOC000091649536",
    "tech": "FTTN",
    "upgrade": "FTTP_NA",
    "gnaf_pid": "GAVIC412624608",
    "tech_change_status": "MDU Complex Eligible To Apply",
    "program_type": "Customer-initiated N2P MDU Complex"
   }
  },
  {
   "type": "Feature",
   "geometry": {
    "type": "Point",
    "coordinates": [
     144.898367,
     -37.860444
    ]
   },
   "properties": {
    "name": "54A ELECTRA STREET WILLIAMSTOWN 3016",
    "locID": "LOC000067045702",
    "tech": "FTTP",
    "upgrade": "FTTP_NA",
    "gnaf_pid": "GAVIC412624627",
    "tech_change_status": "Previous Tech Disconnected",
    "program_type": "On-Demand N2P SDU/MDU Simple",
    "target_eligibility_quarter": "NA"
   }
  },
  {
   "type": "Feature",
   "geometry": {
    "type": "Point",
    "coordinates": [
     144.89889904,
     -37.86411279
    ]
   },
   "properties": {
    "name": "3 MELBOURNE ROAD WILLIAMSTOWN 3016",
    "locID": "LOC000091473656",
    "tech": "FTTN",
    "upgrade": "FTTP_NA",
    "gnaf_pid": "GAVIC412624656",
    "tech_change_status": "Committed",
    "program_type": "On-Demand N2P SDU/MDU Simple",
    "target_eligibility_quarter": "Dec 2024"
   }
  },
  {
   "type": "Feature",
   "geometry": {
    "type": "Point",
    "coordinates": [
     144.89097871,
     -37.8585597
    ]
   },
   "properties": {
    "name": "7 LITTLE FERGUSON STREET WILLIAMSTOWN 3016",
    "locID": "LOC000082325260",
    "tech": "FTTN",
    "upgrade": "FTTP_NA",
    "gnaf_pid": "GAVIC412624702",
    "tech_change_status": "MDU Complex Eligible To Apply",
    "program_type": "Customer-initiated N2P MDU Complex"
   }
  },
  {
   "type": "Feature",
   "geometry": {
    "type": "Point",
    "coordinates": [
     144.902211,
     -37.86119573
    ]
   },
   "properties": {
    "name": "UNIT 84, 235 NELSON PLACE WILLIAMSTOWN 3016",
    "locID": "LOC000095279360",
    "tech": "FTTN",
    "upgrade": "FTTP_NA",
    "gnaf_pid": "GAVIC412624738",
    "tech_change_status": "Committed",
    "program_type": "Customer-initiated N2P MDU Complex",
    "target_eligibility_quarter": "Dec 2024"
   }
  },
  {
   "type": "Feature",
   "geometry": {
    "type": "Point",
    "coordinates": [
     144.89598459,
     -37.8643212
    ]
   },
   "properties": {
    "name": "UNIT 4, 111 RAILWAY PLACE WILLIAMSTOWN 3016",
    "locID": "LOC000043085145",
    "tech": "FTTN",
    "upgrade": "FTTP_NA",
    "gnaf_pid": "GAVIC412625681",
    "tech_change_status": "MDU Complex Eligible To Apply",
    "program_type": "Customer-initiated N2P MDU Complex"
   }
  },
  {
   "type": "Feature",
   "geometry": {
    "type": "Point",
    "coordinates": [
     144.902098,
     -37.862736
    ]
   },
   "properties": {
    "name": "10A PARKER STREET WILLIAMSTOWN 3016",
    "locID": "LOC000020121614",
    "tech": "FTTN",
    "upgrade": "FTTP_NA",
    "gnaf_pid": "GAVIC412625683",
    "tech_change_status": "Committed",
    "program_type": "On-Demand N2P SDU/MDU Simple",
    "target_eligibility_quarter": "Dec 2024"
   }
  },
  {
   "type": "Feature",
   "geometry": {
    "type": "Point",
    "coordinates": [
     144.902211,
     -37.86119573
    ]
   },
   "properties": {
    "name": "UNIT 23, 235 NELSON PLACE WILLIAMSTOWN 3016",
    "locID": "LOC000096045565",
    "tech": "FTTN",
    "upgrade": "FTTP_NA",
    "gnaf_pid": "GAVIC412627115",
    "tech_change_status": "Committed",
    "program_type": "Customer-initiated N2P MDU Complex",
    "target_eligibility_quarter": "Dec 2024"
   }
  },
  {
   "type": "Feature",
   "geometry": {
    "type": "Point",
    "coordinates": [
     144.902211,
     -37.86119573
    ]
   },
   "properties": {
    "name": "UNIT 104, 235 NELSON PLACE WILLIAMSTOWN 3016",
    "locID": "LOC000096069077",
    "tech": "FTTN",
    "upgrade": "FTTP_NA",
    "gnaf_pid": "GAVIC412627117",
    "tech_change_status": "Committed",
    "program_type": "Customer-initiated N2P MDU Complex",
    "target_eligibility_quarter": "Dec 2024"
   }
  },
  {
   "type": "Feature",
   "geometry": {
    "type": "Point",
    "coordinates": [
     144.89971756,
     -37.86693857
    ]
   },
   "properties": {
    "name": "UNIT 2, 76 OSBORNE STREET WILLIAMSTOWN 3016",
    "locID": "LOC000099343098",
    "tech": "FTTN",
    "upgrade": "FTTP_NA",
    "gnaf_pid": "GAVIC412627122",
    "tech_change_status": "Committed",
    "program_type": "Customer-initiated N2P MDU Complex",
    "target_eligibility_quarter": "Dec 2024"
   }
  },
  {
   "type": "Feature",
   "geometry": {
    "type": "Point",
    "coordinates": [
     144.89789221,
     -37.86076913
    ]
   },
   "properties": {
    "name": "UNIT 2, 47 ELECTRA STREET WILLIAMSTOWN 3016",
    "locID": "LOC000025923718",
    "tech": "FTTN",
    "upgrade": "FTTP_SA",
    "gnaf_pid": "GAVIC412627126",
    "tech_change_status": "Eligible to Order",
    "program_type": "On-Demand N2P SDU/MDU Simple",
    "target_eligibility_quarter": "NA"
   }
  },
  {
   "type": "Feature",
   "geometry": {
    "type": "Point",
    "coordinates": [
     144.89598459,
     -37.8643212
    ]
   },
   "properties": {
    "name": "UNIT 2, 111 RAILWAY PLACE WILLIAMSTOWN 3016",
    "locID": "LOC000040818086",
    "tech": "FTTN",
    "upgrade": "FTTP_NA",
    "gnaf_pid": "GAVIC412627129",
    "tech_change_status": "MDU Complex Eligible To Apply",
    "program_type": "Customer-initiated N2P MDU Complex"
   }
  },
  {
   "type": "Feature",
   "geometry": {
    "type": "Point",
    "coordinates": [
     144.89310115,
     -37.85856198
    ]
   },
   "properties": {
    "name": "UNIT 2, 127 FERGUSON STREET WILLIAMSTOWN 3016",
    "locID": "LOC000091392877",
    "tech": "FTTN",
    "upgrade": "FTTP_NA",
    "gnaf_pid": "GAVIC412627134",
    "tech_change_status": "MDU Complex Eligible To Apply",
    "program_type": "Customer-initiated N2P MDU Complex"
   }
  },
  {
   "type": "Feature",
   "geometry": {
    "type": "Point",
    "coordinates": [
     144.902211,
     -37.86119573
    ]
   },
   "properties": {
    "name": "UNIT 103, 235 NELSON PLACE WILLIAMSTOWN 3016",
    "locID": "LOC000095458891",
    "tech": "FTTN",
    "upgrade": "FTTP_NA",
    "gnaf_pid": "GAVIC412627144",
    "tech_change_status": "Committed",
    "program_type": "Customer-initiated N2P MDU Complex",
    "target_eligibility_quarter": "Dec 2024"
   }
  },
  {
   "type": "Feature",
   "geometry": {
    "type": "Point",
    "coordinates": [
     144.902211,
     -37.86119573
    ]
   },
   "properties": {
    "name": "UNIT 122, 235 NELSON PLACE WILLIAMSTOWN 3016",
    "locID": "LOC000095265494",
    "tech": "FTTN",
    "upgrade": "FTTP_NA",
    "gnaf_pid": "GAVIC412627150",
    "tech_change_status": "Committed",
    "program_type": "Customer-initiated N2P MDU Complex",
    "target_eligibility_quarter": "Dec 2024"
   }
  },
  {
   "type": "Feature",
   "geometry": {
    "type": "Point",
    "coordinates": [
     144.88266891,
     -37.85837906
    ]
   },
   "properties": {
    "name": "63 RIFLE RANGE DRIVE WILLIAMSTOWN 3016",
    "locID": "LOC000096295976",
    "tech": "FTTN",
    "upgrade": "FTTP_SA",
    "gnaf_pid": "GAVIC412627170",
    "tech_change_status": "Eligible to Order",
    "program_type": "On-Demand N2P SDU/MDU Simple",
    "target_eligibility_quarter": "NA"
   }
  },
  {
   "type": "Feature",
   "geometry": {
    "type": "Point",
    "coordinates": [
     144.902211,
     -37.86119573
    ]
   },
   "properties": {
    "name": "UNIT 36, 235 NELSON PLACE WILLIAMSTOWN 3016",
    "locID": "LOC000095157303",
    "tech": "FTTN",
    "upgrade": "FTTP_NA",
    "gnaf_pid": "GAVIC412627242",
    "tech_change_status": "Committed",
    "program_type": "Customer-initiated N2P MDU Complex",
    "target_eligibility_quarter": "Dec 2024"
   }
  },
  {
   "type": "Feature",
   "geometry": {
    "type": "Point",
    "coordinates": [
     144.88405485,
     -37.8644017
    ]
   },
   "properties": {
    "name": "1A FARRELL COURT WILLIAMSTOWN 3016",
    "locID": "LOC000017125213",
    "tech": "FTTN",
    "upgrade": "FTTP_NA",
    "gnaf_pid": "GAVIC412628014",
    "tech_change_status": "MDU Complex Eligible To Apply",
    "program_type": "Customer-initiated N2P MDU Complex"
   }
  },
  {
   "type": "Feature",
   "geometry": {
    "type": "Point",
    "coordinates": [
     144.90063154,
     -37.85881034
    ]
   },
   "properties": {
    "name": "2 JAMES STREET WILLIAMSTOWN 3016",
    "locID": "LOC000031136271",
    "tech": "FTTP",
    "upgrade": "NULL_NA",
    "gnaf_pid": "GAVIC412628090",
    "program_type": "On-Demand N2P SDU/MDU Simple",
    "target_eligibility_quarter": "NA"
   }
  },
  {
   "type": "Feature",
   "geometry": {
    "type": "Point",
    "coordinates": [
     144.906778,
     -37.864063
    ]
   },
   "properties": {
    "name": "UNIT 2, 85 NELSON PLACE WILLIAMSTOWN 3016",
    "locID": "LOC000096129097",
    "tech": "FTTN",
    "upgrade": "FTTP_NA",
    "gnaf_pid": "GAVIC412628166",
    "tech_change_status": "Committed",
    "program_type": "Customer-initiated N2P MDU Complex",
    "target_eligibility_quarter": "Dec 2024"
   }
  },
  {
   "type": "Feature",
   "geometry": {
    "type": "Point",
    "coordinates": [
     144.894341,
     -37.860516
    ]
   },
   "properties": {
    "name": "UNIT 2, 12 PERRY STREET WILLIAMSTOWN 3016",
    "locID": "LOC000006213247",
    "tech": "FTTN",
    "upgrade": "NULL_NA",
    "gnaf_pid": "GAVIC412629107",
    "tech_change_status": "Not Planned"
   }
  },
  {
   "type": "Feature",
   "geometry": {
    "type": "Point",
    "coordinates": [
     144.89299625,
     -37.85854974
    ]
   },
   "properties": {
    "name": "UNIT 3, 127 FERGUSON STREET WILLIAMSTOWN 3016",
    "locID": "LOC000091760914",
    "tech": "FTTN",
    "upgrade": "FTTP_NA",
    "gnaf_pid": "GAVIC412629113",
    "tech_change_status": "MDU Complex Eligible To Apply",
    "program_type": "Customer-initiated N2P MDU Complex"
   }
  },
  {
   "type": "Feature",
   "geometry": {
    "type": "Point",
    "coordinates": [
     144.9001074,
     -37.8593951
    ]
   },
   "properties": {
    "name": "UNIT 1, 29 FERGUSON STREET WILLIAMSTOWN 3016",
    "locID": "LOC000050765151",
    "tech": "FTTP",
    "upgrade": "FTTP_NA",
    "gnaf_pid": "GAVIC412629117",
    "tech_change_status": "Previous Tech Disconnected",
    "program_type": "On-Demand N2P SDU/MDU Simple",
    "target_eligibility_quarter": "NA"
   }
  },
  {
   "type": "Feature",
   "geometry": {
    "type": "Point",
    "coordinates": [
     144.88289164,
     -37.85946381
    ]
   },
   "properties": {
    "name": "UNIT 13, 44 RIFLE RANGE DRIVE WILLIAMSTOWN 3016",
    "locID": "LOC000010892217",
    "tech": "FTTN",
    "upgrade": "FTTP_NA",
    "gnaf_pid": "GAVIC412629130",
    "tech_change_status": "MDU Complex Eligible To Apply",
    "program_type": "Customer-initiated N2P MDU Complex"
   }
  },
  {
   "type": "Feature",
   "geometry": {
    "type": "Point",
    "coordinates": [
     144.88825854,
     -37.85364258
    ]
   },
   "properties": {
    "name": "74 POWER STREET WILLIAMSTOWN 3016",
    "locID": "LOC000083238301",
    "tech": "FTTP",
    "upgrade": "NULL_NA",
    "gnaf_pid": "GAVIC412629138",
    "program_type": "On-Demand N2P SDU/MDU Simple",
    "target_eligibility_quarter": "NA"
   }
  },
  {
   "type": "Feature",
   "geometry": {
    "type": "Point",
    "coordinates": [
     144.89956505,
     -37.858214
    ]
   },
   "properties": {
    "name": "12 MACLEAN STREET WILLIAMSTOWN 3016",
    "locID": "LOC000022655850",
    "tech": "FTTN",
    "upgrade": "FTTP_SA",
    "gnaf_pid": "GAVIC412629200",
    "tech_change_status": "Eligible to Order",
    "program_type": "On-Demand N2P SDU/MDU Simple",
    "target_eligibility_quarter": "NA"
   }
  },
  {
   "type": "Feature",
   "geometry": {
    "type": "Point",
    "coordinates": [
     144.89917815,
     -37.85667895
    ]
   },
   "properties": {
    "name": "4 HASLAM STREET WILLIAMSTOWN 3016",
    "locID": "LOC000112583008",
    "tech": "FTTN",
    "upgrade": "FTTP_NA",
    "gnaf_pid": "GAVIC412629207",
    "tech_change_status": "Committed",
    "program_type": "On-Demand N2P SDU/MDU Simple",
    "target_eligibility_quarter": "Dec 2025"
   }
  },
  {
   "type": "Feature",
   "geometry": {
    "type": "Point",
    "coordinates": [
     144.886828,
     -37.859546
    ]
   },
   "properties": {
    "name": "UNIT 2, 110 BAYVIEW STREET WILLIAMSTOWN 3016",
    "locID": "LOC000092310413",
    "tech": "FTTN",
    "upgrade": "FTTP_SA",
    "gnaf_pid": "GAVIC412629228",
    "tech_change_status": "Eligible to Order",
    "program_type": "On-Demand N2P SDU/MDU Simple",
    "target_eligibility_quarter": "NA"
   }
  },
  {
   "type": "Feature",
   "geometry": {
    "type": "Point",
    "coordinates": [
     144.88755626,
     -37.85023405
    ]
   },
   "properties": {
    "name": "132-134 POWER STREET WILLIAMSTOWN 3016",
    "locID": "LOC000067847347",
    "tech": "FTTP",
    "upgrade": "FTTP_NA",
    "gnaf_pid": "GAVIC412629231",
    "tech_change_status": "Previous Tech Disconnected",
    "program_type": "On-Demand N2P SDU/MDU Simple",
    "target_eligibility_quarter": "NA"
   }
  },
  {
   "type": "Feature",
   "geometry": {
    "type": "Point",
    "coordinates": [
     144.88785629,
     -37.86034606
    ]
   },
   "properties": {
    "name": "UNIT 3, 100 HANNAN STREET WILLIAMSTOWN 3016",
    "locID": "LOC000023849618",
    "tech": "FTTP",
    "upgrade": "FTTP_NA",
    "gnaf_pid": "GAVIC412629239",
    "tech_change_status": "Previous Tech Disconnected",
    "program_type": "On-Demand N2P SDU/MDU Simple",
    "target_eligibility_quarter": "NA"
   }
  },
  {
   "type": "Feature",
   "geometry": {
    "type": "Point",
    "coordinates": [
     144.90291837,
     -37.86750934
    ]
   },
   "properties": {
    "name": "8 NORVAL CLOSE WILLIAMSTOWN 3016",
    "locID": "LOC000021962414",
    "tech": "FTTN",
    "upgrade": "FTTP_NA",
    "gnaf_pid": "GAVIC412629280",
    "tech_change_status": "Committed",
    "program_type": "Customer-initiated N2P MDU Complex",
    "target_eligibility_quarter": "Dec 2024"
   }
  },
  {
   "type": "Feature",
   "geometry": {
    "type": "Point",
    "coordinates": [
     144.89097871,
     -37.8585597
    ]
   },
   "properties": {
    "name": "12 LITTLE FERGUSON STREET WILLIAMSTOWN 3016",
    "locID": "LOC000082449184",
    "tech": "FTTN",
    "upgrade": "FTTP_NA",
    "gnaf_pid": "GAVIC412629296",
    "tech_change_status": "MDU Complex Eligible To Apply",
    "program_type": "Customer-initiated N2P MDU Complex"
   }
  },
  {
   "type": "Feature",
   "geometry": {
    "type": "Point",
    "coordinates": [
     144.89918,
     -37.859836
    ]
   },
   "properties": {
    "name": "UNIT 2, 175 CECIL STREET WILLIAMSTOWN 3016",
    "locID": "LOC000077312397",
    "tech": "FTTP",
    "upgrade": "FTTP_NA",
    "gnaf_pid": "GAVIC412629315",
    "tech_change_status": "Previous Tech Disconnected",
    "program_type": "On-Demand N2P SDU/MDU Simple",
    "target_eligibility_quarter": "NA"
   }
  },
  {
   "type": "Feature",
   "geometry": {
    "type": "Point",
    "coordinates": [
     144.89971756,
     -37.86693857
    ]
   },
   "properties": {
    "name": "UNIT 1, 76 OSBORNE STREET WILLIAMSTOWN 3016",
    "locID": "LOC000100028757",
    "tech": "FTTN",
    "upgrade": "FTTP_NA",
    "gnaf_pid": "GAVIC412629416",
    "tech_change_status": "Committed",
    "program_type": "Customer-initiated N2P MDU Complex",
    "target_eligibility_quarter": "Dec 2024"
   }
  },
  {
   "type": "Feature",
   "geometry": {
    "type": "Point",
    "coordinates": [
     144.89937952,
     -37.86683341
    ]
   },
   "properties": {
    "name": "UNIT 5, 80 OSBORNE STREET WILLIAMSTOWN 3016",
    "locID": "LOC000040096854",
    "tech": "FTTN",
    "upgrade": "FTTP_NA",
    "gnaf_pid": "GAVIC412629418",
    "tech_change_status": "Committed",
    "program_type": "Customer-initiated N2P MDU Complex",
    "target_eligibility_quarter": "Dec 2024"
   }
  },
  {
   "type": "Feature",
   "geometry": {
    "type": "Point",
    "coordinates": [
     144.90291837,
     -37.86750934
    ]
   },
   "properties": {
    "name": "9 NORVAL CLOSE WILLIAMSTOWN 3016",
    "locID": "LOC000009479228",
    "tech": "FTTN",
    "upgrade": "FTTP_NA",
    "gnaf_pid": "GAVIC412629426",
    "tech_change_status": "Committed",
    "program_type": "Customer-initiated N2P MDU Complex",
    "target_eligibility_quarter": "Dec 2024"
   }
  },
  {
   "type": "Feature",
   "geometry": {
    "type": "Point",
    "coordinates": [
     144.89097871,
     -37.8585597
    ]
   },
   "properties": {
    "name": "6 LITTLE FERGUSON STREET WILLIAMSTOWN 3016",
    "locID": "LOC000082353218",
    "tech": "FTTN",
    "upgrade": "FTTP_NA",
    "gnaf_pid": "GAVIC412629434",
    "tech_change_status": "MDU Complex Eligible To Apply",
    "program_type": "Customer-initiated N2P MDU Complex"
   }
  },
  {
   "type": "Feature",
   "geometry": {
    "type": "Point",
    "coordinates": [
     144.902211,
     -37.86119573
    ]
   },
   "properties": {
    "name": "UNIT 17, 235 NELSON PLACE WILLIAMSTOWN 3016",
    "locID": "LOC000095513779",
    "tech": "FTTN",
    "upgrade": "FTTP_NA",
    "gnaf_pid": "GAVIC412629453",
    "tech_change_status": "Committed",
    "program_type": "Customer-initiated N2P MDU Complex",
    "target_eligibility_quarter": "Dec 2024"
   }
  },
  {
   "type": "Feature",
   "geometry": {
    "type": "Point",
    "coordinates": [
     144.902211,
     -37.86119573
    ]
   },
   "properties": {
    "name": "UNIT 83, 235 NELSON PLACE WILLIAMSTOWN 3016",
    "locID": "LOC000095949021",
    "tech": "FTTN",
    "upgrade": "FTTP_NA",
    "gnaf_pid": "GAVIC412629467",
    "tech_change_status": "Committed",
    "program_type": "Customer-initiated N2P MDU Complex",
    "target_eligibility_quarter": "Dec 2024"
   }
  },
  {
   "type": "Feature",
   "geometry": {
    "type": "Point",
    "coordinates": [
     144.902211,
     -37.86119573
    ]
   },
   "properties": {
    "name": "UNIT 114, 235 NELSON PLACE WILLIAMSTOWN 3016",
    "locID": "LOC000095399907",
    "tech": "FTTN",
    "upgrade": "FTTP_NA",
    "gnaf_pid": "GAVIC412629470",
    "tech_change_status": "Committed",
    "program_type": "Customer-initiated N2P MDU Complex",
    "target_eligibility_quarter": "Dec 2024"
   }
  },
  {
   "type": "Feature",
   "geometry": {
    "type": "Point",
    "coordinates": [
     144.902211,
     -37.86119573
    ]
   },
   "properties": {
    "name": "UNIT 63, 235 NELSON PLACE WILLIAMSTOWN 3016",
    "locID": "LOC000096043535",
    "tech": "FTTN",
    "upgrade": "FTTP_NA",
    "gnaf_pid": "GAVIC412629472",
    "tech_change_status": "Committed",
    "program_type": "Customer-initiated N2P MDU Complex",
    "target_eligibility_quarter": "Dec 2024"
   }
  },
  {
   "type": "Feature",
   "geometry": {
    "type": "Point",
    "coordinates": [
     144.902211,
     -37.86119573
    ]
   },
   "properties": {
    "name": "UNIT 34, 235 NELSON PLACE WILLIAMSTOWN 3016",
    "locID": "LOC000095421862",
    "tech": "FTTN",
    "upgrade": "FTTP_NA",
    "gnaf_pid": "GAVIC412629473",
    "tech_change_status": "Committed",
    "program_type": "Customer-initiated N2P MDU Complex",
    "target_eligibility_quarter": "Dec 2024"
   }
  },
  {
   "type": "Feature",
   "geometry": {
    "type": "Point",
    "coordinates": [
     144.902211,
     -37.86119573
    ]
   },
   "properties": {
    "name": "UNIT 105, 235 NELSON PLACE WILLIAMSTOWN 3016",
    "locID": "LOC000096020579",
    "tech": "FTTN",
    "upgrade": "FTTP_NA",
    "gnaf_pid": "GAVIC412629475",
    "tech_change_status": "Committed",
    "program_type": "Customer-initiated N2P MDU Complex",
    "target_eligibility_quarter": "Dec 2024"
   }
  },
  {
   "type": "Feature",
   "geometry": {
    "type": "Point",
    "coordinates": [
     144.902211,
     -37.86119573
    ]
   },
   "properties": {
    "name": "UNIT 85, 235 NELSON PLACE WILLIAMSTOWN 3016",
    "locID": "LOC000096129097",
    "tech": "FTTN",
    "upgrade": "FTTP_NA",
    "gnaf_pid": "GAVIC412629476",
    "tech_change_status": "Committed",
    "program_type": "Customer-initiated N2P MDU Complex",
    "target_eligibility_quarter": "Dec 2024"
   }
  },
  {
   "type": "Feature",
   "geometry": {
    "type": "Point",
    "coordinates": [
     144.902211,
     -37.86119573
    ]
   },
   "properties": {
    "name": "UNIT 62, 235 NELSON PLACE WILLIAMSTOWN 3016",
    "locID": "LOC000095076011",
    "tech": "FTTN",
    "upgrade": "FTTP_NA",
    "gnaf_pid": "GAVIC412629477",
    "tech_change_status": "Committed",
    "program_type": "Customer-initiated N2P MDU Complex",
    "target_eligibility_quarter": "Dec 2024"
   }
  },
  {
   "type": "Feature",
   "geometry": {
    "type": "Point",
    "coordinates": [
     144.902211,
     -37.86119573
    ]
   },
   "properties": {
    "name": "UNIT 79, 235 NELSON PLACE WILLIAMSTOWN 3016",
    "locID": "LOC000095610958",
    "tech": "FTTN",
    "upgrade": "FTTP_NA",
    "gnaf_pid": "GAVIC412629478",
    "tech_change_status": "Committed",
    "program_type": "Customer-initiated N2P MDU Complex",
    "target_eligibility_quarter": "Dec 2024"
   }
  },
  {
   "type": "Feature",
   "geometry": {
    "type": "Point",
    "coordinates": [
     144.902211,
     -37.86119573
    ]
   },
   "properties": {
    "name": "UNIT 72, 235 NELSON PLACE WILLIAMSTOWN 3016",
    "locID": "LOC000095134400",
    "tech": "FTTN",
    "upgrade": "FTTP_NA",
    "gnaf_pid": "GAVIC412629479",
    "tech_change_status": "Committed",
    "program_type": "Customer-initiated N2P MDU Complex",
    "target_eligibility_quarter": "Dec 2024"
   }
  },
  {
   "type": "Feature",
   "geometry": {
    "type": "Point",
    "coordinates": [
     144.902211,
     -37.86119573
    ]
   },
   "properties": {
    "name": "UNIT 95, 235 NELSON PLACE WILLIAMSTOWN 3016",
    "locID": "LOC000095157181",
    "tech": "FTTN",
    "upgrade": "FTTP_NA",
    "gnaf_pid": "GAVIC412629480",
    "tech_change_status": "Committed",
    "program_type": "Customer-initiated N2P MDU Complex",
    "target_eligibility_quarter": "Dec 2024"
   }
  },
  {
   "type": "Feature",
   "geometry": {
    "type": "Point",
    "coordinates": [
     144.902211,
     -37.86119573
    ]
   },
   "properties": {
    "name": "UNIT 65, 235 NELSON PLACE WILLIAMSTOWN 3016",
    "locID": "LOC000095518145",
    "tech": "FTTN",
    "upgrade": "FTTP_NA",
    "gnaf_pid": "GAVIC412629481",
    "tech_change_status": "Committed",
    "program_type": "Customer-initiated N2P MDU Complex",
    "target_eligibility_quarter": "Dec 2024"
   }
  },
  {
   "type": "Feature",
   "geometry": {
    "type": "Point",
    "coordinates": [
     144.902211,
     -37.86119573
    ]
   },
   "properties": {
    "name": "UNIT 57, 235 NELSON PLACE WILLIAMSTOWN 3016",
    "locID": "LOC000095341769",
    "tech": "FTTN",
    "upgrade": "FTTP_NA",
    "gnaf_pid": "GAVIC412629482",
    "tech_change_status": "Committed",
    "program_type": "Customer-initiated N2P MDU Complex",
    "target_eligibility_quarter": "Dec 2024"
   }
  },
  {
   "type": "Feature",
   "geometry": {
    "type": "Point",
    "coordinates": [
     144.902211,
     -37.86119573
    ]
   },
   "properties": {
    "name": "UNIT 61, 235 NELSON PLACE WILLIAMSTOWN 3016",
    "locID": "LOC000095998156",
    "tech": "FTTN",
    "upgrade": "FTTP_NA",
    "gnaf_pid": "GAVIC412629483",
    "tech_change_status": "Committed",
    "program_type": "Customer-initiated N2P MDU Complex",
    "target_eligibility_quarter": "Dec 2024"
   }
  },
  {
   "type": "Feature",
   "geometry": {
    "type": "Point",
    "coordinates": [
     144.902211,
     -37.86119573
    ]
   },
   "properties": {
    "name": "UNIT 13, 235 NELSON PLACE WILLIAMSTOWN 3016",
    "locID": "LOC000095092353",
    "tech": "FTTN",
    "upgrade": "FTTP_NA",
    "gnaf_pid": "GAVIC412629484",
    "tech_change_status": "Committed",
    "program_type": "Customer-initiated N2P MDU Complex",
    "target_eligibility_quarter": "Dec 2024"
   }
  },
  {
   "type": "Feature",
   "geometry": {
    "type": "Point",
    "coordinates": [
     144.902211,
     -37.86119573
    ]
   },
   "properties": {
    "name": "UNIT 93, 235 NELSON PLACE WILLIAMSTOWN 3016",
    "locID": "LOC000095172704",
    "tech": "FTTN",
    "upgrade": "FTTP_NA",
    "gnaf_pid": "GAVIC412629485",
    "tech_change_status": "Committed",
    "program_type": "Customer-initiated N2P MDU Complex",
    "target_eligibility_quarter": "Dec 2024"
   }
  },
  {
   "type": "Feature",
   "geometry": {
    "type": "Point",
    "coordinates": [
     144.895088,
     -37.865432
    ]
   },
   "properties": {
    "name": "140A OSBORNE STREET WILLIAMSTOWN 3016",
    "locID": "LOC000002804505",
    "tech": "FTTN",
    "upgrade": "FTTP_NA",
    "gnaf_pid": "GAVIC412629519",
    "tech_change_status": "Committed",
    "program_type": "On-Demand N2P SDU/MDU Simple",
    "target_eligibility_quarter": "Dec 2024"
   }
  },
  {
   "type": "Feature",
   "geometry": {
    "type": "Point",
    "coordinates": [
     144.902211,
     -37.86119573
    ]
   },
   "properties": {
    "name": "UNIT 59, 235 NELSON PLACE WILLIAMSTOWN 3016",
    "locID": "LOC000095091531",
    "tech": "FTTN",
    "upgrade": "FTTP_NA",
    "gnaf_pid": "GAVIC412630701",
    "tech_change_status": "Committed",
    "program_type": "Customer-initiated N2P MDU Complex",
    "target_eligibility_quarter": "Dec 2024"
   }
  },
  {
   "type": "Feature",
   "geometry": {
    "type": "Point",
    "coordinates": [
     144.902211,
     -37.86119573
    ]
   },
   "properties": {
    "name": "UNIT 31, 235 NELSON PLACE WILLIAMSTOWN 3016",
    "locID": "LOC000096123668",
    "tech": "FTTN",
    "upgrade": "FTTP_NA",
    "gnaf_pid": "GAVIC412630927",
    "tech_change_status": "Committed",
    "program_type": "Customer-initiated N2P MDU Complex",
    "target_eligibility_quarter": "Dec 2024"
   }
  },
  {
   "type": "Feature",
   "geometry": {
    "type": "Point",
    "coordinates": [
     144.902211,
     -37.86119573
    ]
   },
   "properties": {
    "name": "UNIT 99, 235 NELSON PLACE WILLIAMSTOWN 3016",
    "locID": "LOC000095176177",
    "tech": "FTTN",
    "upgrade": "FTTP_NA",
    "gnaf_pid": "GAVIC412630930",
    "tech_change_status": "Committed",
    "program_type": "Customer-initiated N2P MDU Complex",
    "target_eligibility_quarter": "Dec 2024"
   }
  },
  {
   "type": "Feature",
   "geometry": {
    "type": "Point",
    "coordinates": [
     144.88786614,
     -37.85374834
    ]
   },
   "properties": {
    "name": "61 POWER STREET WILLIAMSTOWN 3016",
    "locID": "LOC000071406980",
    "tech": "FTTN",
    "upgrade": "FTTP_SA",
    "gnaf_pid": "GAVIC412630932",
    "tech_change_status": "Eligible to Order",
    "program_type": "On-Demand N2P SDU/MDU Simple",
    "target_eligibility_quarter": "NA"
   }
  },
  {
   "type": "Feature",
   "geometry": {
    "type": "Point",
    "coordinates": [
     144.89937952,
     -37.86683341
    ]
   },
   "properties": {
    "name": "UNIT 3, 80 OSBORNE STREET WILLIAMSTOWN 3016",
    "locID": "LOC000039823113",
    "tech": "FTTN",
    "upgrade": "FTTP_NA",
    "gnaf_pid": "GAVIC412632278",
    "tech_change_status": "Committed",
    "program_type": "Customer-initiated N2P MDU Complex",
    "target_eligibility_quarter": "Dec 2024"
   }
  },
  {
   "type": "Feature",
   "geometry": {
    "type": "Point",
    "coordinates": [
     144.89832855,
     -37.86136159
    ]
   },
   "properties": {
    "name": "52 PASCO STREET WILLIAMSTOWN 3016",
    "locID": "LOC000122770034",
    "tech": "FTTN",
    "upgrade": "FTTP",
    "gnaf_pid": "GAVIC412632743",
    "tech_change_status": "Eligible to Order",
    "program_type": "On-Demand N2P SDU/MDU Simple",
    "target_eligibility_quarter": "NA"
   }
  },
  {
   "type": "Feature",
   "geometry": {
    "type": "Point",
    "coordinates": [
     144.90173014,
     -37.85963109
    ]
   },
   "properties": {
    "name": "UNIT 4, 263 NELSON PLACE WILLIAMSTOWN 3016",
    "locID": "LOC000106345139",
    "tech": "FTTN",
    "upgrade": "FTTP_NA",
    "gnaf_pid": "GAVIC412632749",
    "tech_change_status": "MDU Complex Eligible To Apply",
    "program_type": "Customer-initiated N2P MDU Complex"
   }
  },
  {
   "type": "Feature",
   "geometry": {
    "type": "Point",
    "coordinates": [
     144.89789221,
     -37.86076913
    ]
   },
   "properties": {
    "name": "47 ELECTRA STREET WILLIAMSTOWN 3016",
    "locID": "LOC000025923718",
    "tech": "FTTN",
    "upgrade": "FTTP_SA",
    "gnaf_pid": "GAVIC412632750",
    "tech_change_status": "Eligible to Order",
    "program_type": "On-Demand N2P SDU/MDU Simple",
    "target_eligibility_quarter": "NA"
   }
  },
  {
   "type": "Feature",
   "geometry": {
    "type": "Point",
    "coordinates": [
     144.90239996,
     -37.8618139
    ]
   },
   "properties": {
    "name": "221A NELSON PLACE WILLIAMSTOWN 3016",
    "locID": "LOC000084888984",
    "tech": "FTTN",
    "upgrade": "FTTP_NA",
    "gnaf_pid": "GAVIC412632758",
    "tech_change_status": "Committed",
    "program_type": "On-Demand N2P SDU/MDU Simple",
    "target_eligibility_quarter": "Dec 2024"
   }
  },
  {
   "type": "Feature",
   "geometry": {
    "type": "Point",
    "coordinates": [
     144.90184337,
     -37.861618
    ]
   },
   "properties": {
    "name": "17 JACKSON STREET WILLIAMSTOWN 3016",
    "locID": "LOC000113729980",
    "tech": "FTTN",
    "upgrade": "FTTP_NA",
    "gnaf_pid": "GAVIC412632764",
    "tech_change_status": "Committed",
    "program_type": "On-Demand N2P SDU/MDU Simple",
    "target_eligibility_quarter": "Dec 2024"
   }
  },
  {
   "type": "Feature",
   "geometry": {
    "type": "Point",
    "coordinates": [
     144.89265151,
     -37.85880098
    ]
   },
   "properties": {
    "name": "104A VERDON STREET WILLIAMSTOWN 3016",
    "locID": "LOC000065739904",
    "tech": "FTTN",
    "upgrade": "FTTP_SA",
    "gnaf_pid": "GAVIC412632840",
    "tech_change_status": "Eligible to Order",
    "program_type": "On-Demand N2P SDU/MDU Simple",
    "target_eligibility_quarter": "NA"
   }
  },
  {
   "type": "Feature",
   "geometry": {
    "type": "Point",
    "coordinates": [
     144.88667769,
     -37.86507143
    ]
   },
   "properties": {
    "name": "UNIT 1, 31 HANNAN STREET WILLIAMSTOWN 3016",
    "locID": "LOC000060149417",
    "tech": "FTTN",
    "upgrade": "FTTP_NA",
    "gnaf_pid": "GAVIC412632864",
    "tech_change_status": "Committed",
    "program_type": "On-Demand N2P SDU/MDU Simple",
    "target_eligibility_quarter": "Dec 2024"
   }
  },
  {
   "type": "Feature",
   "geometry": {
    "type": "Point",
    "coordinates": [
     144.901825,
     -37.859145
    ]
   },
   "properties": {
    "name": "1 THE STRAND WILLIAMSTOWN 3016",
    "locID": "LOC000031951313",
    "tech": "FTTN",
    "upgrade": "FTTP_SA",
    "gnaf_pid": "GAVIC412632868",
    "tech_change_status": "Eligible to Order",
    "program_type": "On-Demand N2P SDU/MDU Simple",
    "target_eligibility_quarter": "NA"
   }
  },
  {
   "type": "Feature",
   "geometry": {
    "type": "Point",
    "coordinates": [
     144.891895,
     -37.853813
    ]
   },
   "properties": {
    "name": "UNIT 4, 37 RUSSELL PLACE WILLIAMSTOWN 3016",
    "locID": "LOC000102033187",
    "tech": "FTTN",
    "upgrade": "FTTP_NA",
    "gnaf_pid": "GAVIC412632870",
    "tech_change_status": "MDU Complex Eligible To Apply",
    "program_type": "Customer-initiated N2P MDU Complex"
   }
  },
  {
   "type": "Feature",
   "geometry": {
    "type": "Point",
    "coordinates": [
     144.90291837,
     -37.86750934
    ]
   },
   "properties": {
    "name": "6 NORVAL CLOSE WILLIAMSTOWN 3016",
    "locID": "LOC000103336390",
    "tech": "FTTN",
    "upgrade": "FTTP_NA",
    "gnaf_pid": "GAVIC412632884",
    "tech_change_status": "Committed",
    "program_type": "Customer-initiated N2P MDU Complex",
    "target_eligibility_quarter": "Dec 2024"
   }
  },
  {
   "type": "Feature",
   "geometry": {
    "type": "Point",
    "coordinates": [
     144.906778,
     -37.864063
    ]
   },
   "properties": {
    "name": "UNIT 12, 85 NELSON PLACE WILLIAMSTOWN 3016",
    "locID": "LOC000154995881",
    "tech": "FTTN",
    "upgrade": "FTTP_NA",
    "gnaf_pid": "GAVIC412632887",
    "tech_change_status": "Committed",
    "program_type": "On-Demand N2P SDU/MDU Simple",
    "target_eligibility_quarter": "Dec 2024"
   }
  },
  {
   "type": "Feature",
   "geometry": {
    "type": "Point",
    "coordinates": [
     144.90414774,
     -37.86664813
    ]
   },
   "properties": {
    "name": "UNIT 77, 63 HANMER STREET WILLIAMSTOWN 3016",
    "locID": "LOC000009419127",
    "tech": "FTTN",
    "upgrade": "FTTP_NA",
    "gnaf_pid": "GAVIC412632890",
    "tech_change_status": "Committed",
    "program_type": "Customer-initiated N2P MDU Complex",
    "target_eligibility_quarter": "Dec 2024"
   }
  },
  {
   "type": "Feature",
   "geometry": {
    "type": "Point",
    "coordinates": [
     144.89485575,
     -37.8516402
    ]
   },
   "properties": {
    "name": "175 DOUGLAS PARADE WILLIAMSTOWN 3016",
    "locID": "LOC000021076736",
    "tech": "FTTP",
    "upgrade": "NULL_NA",
    "gnaf_pid": "GAVIC412634305",
    "program_type": "On-Demand N2P SDU/MDU Simple",
    "target_eligibility_quarter": "NA"
   }
  },
  {
   "type": "Feature",
   "geometry": {
    "type": "Point",
    "coordinates": [
     144.88289164,
     -37.85946381
    ]
   },
   "properties": {
    "name": "UNIT 3, 44 RIFLE RANGE DRIVE WILLIAMSTOWN 3016",
    "locID": "LOC000011181899",
    "tech": "FTTN",
    "upgrade": "FTTP_NA",
    "gnaf_pid": "GAVIC412635246",
    "tech_change_status": "MDU Complex Eligible To Apply",
    "program_type": "Customer-initiated N2P MDU Complex"
   }
  },
  {
   "type": "Feature",
   "geometry": {
    "type": "Point",
    "coordinates": [
     144.90291837,
     -37.86750934
    ]
   },
   "properties": {
    "name": "7 NORVAL CLOSE WILLIAMSTOWN 3016",
    "locID": "LOC000049215418",
    "tech": "FTTN",
    "upgrade": "FTTP_NA",
    "gnaf_pid": "GAVIC412635322",
    "tech_change_status": "Committed",
    "program_type": "Customer-initiated N2P MDU Complex",
    "target_eligibility_quarter": "Dec 2024"
   }
  },
  {
   "type": "Feature",
   "geometry": {
    "type": "Point",
    "coordinates": [
     144.90527798,
     -37.86947785
    ]
   },
   "properties": {
    "name": "69 MORRIS STREET WILLIAMSTOWN 3016",
    "locID": "LOC000060951282",
    "tech": "FTTN",
    "upgrade": "FTTP_NA",
    "gnaf_pid": "GAVIC412635328",
    "tech_change_status": "Committed",
    "program_type": "Customer-initiated N2P MDU Complex",
    "target_eligibility_quarter": "Dec 2024"
   }
  },
  {
   "type": "Feature",
   "geometry": {
    "type": "Point",
    "coordinates": [
     144.90291837,
     -37.86750934
    ]
   },
   "properties": {
    "name": "1 NORVAL CLOSE WILLIAMSTOWN 3016",
    "locID": "LOC000095306813",
    "tech": "FTTN",
    "upgrade": "FTTP_NA",
    "gnaf_pid": "GAVIC412635332",
    "tech_change_status": "Committed",
    "program_type": "Customer-initiated N2P MDU Complex",
    "target_eligibility_quarter": "Dec 2024"
   }
  },
  {
   "type": "Feature",
   "geometry": {
    "type": "Point",
    "coordinates": [
     144.90097047,
     -37.86691838
    ]
   },
   "properties": {
    "name": "11 CUMBERLAND CLOSE WILLIAMSTOWN 3016",
    "locID": "LOC000079379577",
    "tech": "FTTN",
    "upgrade": "FTTP_NA",
    "gnaf_pid": "GAVIC412635334",
    "tech_change_status": "Committed",
    "program_type": "Customer-initiated N2P MDU Complex",
    "target_eligibility_quarter": "Dec 2024"
   }
  },
  {
   "type": "Feature",
   "geometry": {
    "type": "Point",
    "coordinates": [
     144.89101839,
     -37.85867828
    ]
   },
   "properties": {
    "name": "15 LITTLE FERGUSON STREET WILLIAMSTOWN 3016",
    "locID": "LOC000082240802",
    "tech": "FTTN",
    "upgrade": "FTTP_NA",
    "gnaf_pid": "GAVIC412635343",
    "tech_change_status": "MDU Complex Eligible To Apply",
    "program_type": "Customer-initiated N2P MDU Complex"
   }
  },
  {
   "type": "Feature",
   "geometry": {
    "type": "Point",
    "coordinates": [
     144.89097871,
     -37.8585597
    ]
   },
   "properties": {
    "name": "20 LITTLE FERGUSON STREET WILLIAMSTOWN 3016",
    "locID": "LOC000082163165",
    "tech": "FTTN",
    "upgrade": "FTTP_NA",
    "gnaf_pid": "GAVIC412635344",
    "tech_change_status": "MDU Complex Eligible To Apply",
    "program_type": "Customer-initiated N2P MDU Complex"
   }
  },
  {
   "type": "Feature",
   "geometry": {
    "type": "Point",
    "coordinates": [
     144.89025605,
     -37.85033225
    ]
   },
   "properties": {
    "name": "82 YARRA STREET WILLIAMSTOWN 3016",
    "locID": "LOC000094113015",
    "tech": "FTTN",
    "upgrade": "FTTP_NA",
    "gnaf_pid": "GAVIC412635357",
    "tech_change_status": "Committed",
    "program_type": "On-Demand N2P SDU/MDU Simple",
    "target_eligibility_quarter": "Dec 2025"
   }
  },
  {
   "type": "Feature",
   "geometry": {
    "type": "Point",
    "coordinates": [
     144.88924212,
     -37.85194884
    ]
   },
   "properties": {
    "name": "UNIT 2, 185 MELBOURNE ROAD WILLIAMSTOWN 3016",
    "locID": "LOC000053116388",
    "tech": "FTTN",
    "upgrade": "FTTP_NA",
    "gnaf_pid": "GAVIC412635360",
    "tech_change_status": "MDU Complex Eligible To Apply",
    "program_type": "Customer-initiated N2P MDU Complex"
   }
  },
  {
   "type": "Feature",
   "geometry": {
    "type": "Point",
    "coordinates": [
     144.90460241,
     -37.86426846
    ]
   },
   "properties": {
    "name": "UNIT 2, 103 AITKEN STREET WILLIAMSTOWN 3016",
    "locID": "LOC000179061417",
    "tech": "FTTN",
    "upgrade": "FTTP_NA",
    "gnaf_pid": "GAVIC412635398",
    "tech_change_status": "Committed",
    "program_type": "On-Demand N2P SDU/MDU Simple",
    "target_eligibility_quarter": "Dec 2025"
   }
  },
  {
   "type": "Feature",
   "geometry": {
    "type": "Point",
    "coordinates": [
     144.90821893,
     -37.86559621
    ]
   },
   "properties": {
    "name": "23 AITKEN STREET WILLIAMSTOWN 3016",
    "locID": "LOC000054258386",
    "tech": "FTTN",
    "upgrade": "FTTP_NA",
    "gnaf_pid": "GAVIC412635399",
    "tech_change_status": "Committed",
    "program_type": "On-Demand N2P SDU/MDU Simple",
    "target_eligibility_quarter": "Dec 2024"
   }
  },
  {
   "type": "Feature",
   "geometry": {
    "type": "Point",
    "coordinates": [
     144.902211,
     -37.86119573
    ]
   },
   "properties": {
    "name": "UNIT 41, 235 NELSON PLACE WILLIAMSTOWN 3016",
    "locID": "LOC000095540693",
    "tech": "FTTN",
    "upgrade": "FTTP_NA",
    "gnaf_pid": "GAVIC412635423",
    "tech_change_status": "Committed",
    "program_type": "Customer-initiated N2P MDU Complex",
    "target_eligibility_quarter": "Dec 2024"
   }
  },
  {
   "type": "Feature",
   "geometry": {
    "type": "Point",
    "coordinates": [
     144.88289164,
     -37.85946381
    ]
   },
   "properties": {
    "name": "UNIT 9, 44 RIFLE RANGE DRIVE WILLIAMSTOWN 3016",
    "locID": "LOC000011055967",
    "tech": "FTTN",
    "upgrade": "FTTP_NA",
    "gnaf_pid": "GAVIC412635436",
    "tech_change_status": "MDU Complex Eligible To Apply",
    "program_type": "Customer-initiated N2P MDU Complex"
   }
  },
  {
   "type": "Feature",
   "geometry": {
    "type": "Point",
    "coordinates": [
     144.901597,
     -37.859168
    ]
   },
   "properties": {
    "name": "UNIT 1, 2 FERGUSON STREET WILLIAMSTOWN 3016",
    "locID": "LOC000070947639",
    "tech": "FTTP",
    "upgrade": "FTTP_NA",
    "gnaf_pid": "GAVIC412635440",
    "tech_change_status": "Previous Tech Disconnected",
    "program_type": "On-Demand N2P SDU/MDU Simple",
    "target_eligibility_quarter": "NA"
   }
  },
  {
   "type": "Feature",
   "geometry": {
    "type": "Point",
    "coordinates": [
     144.90142741,
     -37.85856194
    ]
   },
   "properties": {
    "name": "6B THE STRAND WILLIAMSTOWN 3016",
    "locID": "LOC000066867126",
    "tech": "FTTN",
    "upgrade": "FTTP",
    "gnaf_pid": "GAVIC412635441",
    "tech_change_status": "Eligible to Order",
    "program_type": "On-Demand N2P SDU/MDU Simple",
    "target_eligibility_quarter": "NA"
   }
  },
  {
   "type": "Feature",
   "geometry": {
    "type": "Point",
    "coordinates": [
     144.90012127,
     -37.85799405
    ]
   },
   "properties": {
    "name": "17 JAMES STREET WILLIAMSTOWN 3016",
    "locID": "LOC000091519145",
    "tech": "FTTN",
    "upgrade": "FTTP_SA",
    "gnaf_pid": "GAVIC412635443",
    "tech_change_status": "Eligible to Order",
    "program_type": "On-Demand N2P SDU/MDU Simple",
    "target_eligibility_quarter": "NA"
   }
  },
  {
   "type": "Feature",
   "geometry": {
    "type": "Point",
    "coordinates": [
     144.90097047,
     -37.86691838
    ]
   },
   "properties": {
    "name": "1 CUMBERLAND CLOSE WILLIAMSTOWN 3016",
    "locID": "LOC000050496186",
    "tech": "FTTN",
    "upgrade": "FTTP_NA",
    "gnaf_pid": "GAVIC412635700",
    "tech_change_status": "Committed",
    "program_type": "Customer-initiated N2P MDU Complex",
    "target_eligibility_quarter": "Dec 2024"
   }
  },
  {
   "type": "Feature",
   "geometry": {
    "type": "Point",
    "coordinates": [
     144.90291837,
     -37.86750934
    ]
   },
   "properties": {
    "name": "4 NORVAL CLOSE WILLIAMSTOWN 3016",
    "locID": "LOC000100263735",
    "tech": "FTTN",
    "upgrade": "FTTP_NA",
    "gnaf_pid": "GAVIC412635707",
    "tech_change_status": "Committed",
    "program_type": "Customer-initiated N2P MDU Complex",
    "target_eligibility_quarter": "Dec 2024"
   }
  },
  {
   "type": "Feature",
   "geometry": {
    "type": "Point",
    "coordinates": [
     144.90291837,
     -37.86750934
    ]
   },
   "properties": {
    "name": "10 NORVAL CLOSE WILLIAMSTOWN 3016",
    "locID": "LOC000074316764",
    "tech": "FTTN",
    "upgrade": "FTTP_NA",
    "gnaf_pid": "GAVIC412635710",
    "tech_change_status": "Committed",
    "program_type": "Customer-initiated N2P MDU Complex",
    "target_eligibility_quarter": "Dec 2024"
   }
  },
  {
   "type": "Feature",
   "geometry": {
    "type": "Point",
    "coordinates": [
     144.90097047,
     -37.86691838
    ]
   },
   "properties": {
    "name": "8 CUMBERLAND CLOSE WILLIAMSTOWN 3016",
    "locID": "LOC000085410969",
    "tech": "FTTN",
    "upgrade": "FTTP_NA",
    "gnaf_pid": "GAVIC412635712",
    "tech_change_status": "Committed",
    "program_type": "Customer-initiated N2P MDU Complex",
    "target_eligibility_quarter": "Dec 2024"
   }
  },
  {
   "type": "Feature",
   "geometry": {
    "type": "Point",
    "coordinates": [
     144.90083044,
     -37.8594804
    ]
   },
   "properties": {
    "name": "UNIT 8, 11-19 FERGUSON STREET WILLIAMSTOWN 3016",
    "locID": "LOC000003882140",
    "tech": "FTTN",
    "upgrade": "FTTP_NA",
    "gnaf_pid": "GAVIC412635732",
    "tech_change_status": "MDU Complex Eligible To Apply",
    "program_type": "Customer-initiated N2P MDU Complex"
   }
  },
  {
   "type": "Feature",
   "geometry": {
    "type": "Point",
    "coordinates": [
     144.90083044,
     -37.8594804
    ]
   },
   "properties": {
    "name": "UNIT 9, 11-19 FERGUSON STREET WILLIAMSTOWN 3016",
    "locID": "LOC000003583278",
    "tech": "FTTN",
    "upgrade": "FTTP_NA",
    "gnaf_pid": "GAVIC412635733",
    "tech_change_status": "MDU Complex Eligible To Apply",
    "program_type": "Customer-initiated N2P MDU Complex"
   }
  },
  {
   "type": "Feature",
   "geometry": {
    "type": "Point",
    "coordinates": [
     144.90083044,
     -37.8594804
    ]
   },
   "properties": {
    "name": "UNIT 11, 11-19 FERGUSON STREET WILLIAMSTOWN 3016",
    "locID": "LOC000003618084",
    "tech": "FTTN",
    "upgrade": "FTTP_NA",
    "gnaf_pid": "GAVIC412635735",
    "tech_change_status": "MDU Complex Eligible To Apply",
    "program_type": "Customer-initiated N2P MDU Complex"
   }
  },
  {
   "type": "Feature",
   "geometry": {
    "type": "Point",
    "coordinates": [
     144.905429,
     -37.862488
    ]
   },
   "properties": {
    "name": "UNIT 33, 18-34 SYME STREET WILLIAMSTOWN 3016",
    "locID": "LOC000016218374",
    "tech": "FTTN",
    "upgrade": "FTTP_NA",
    "gnaf_pid": "GAVIC412635742",
    "tech_change_status": "Committed",
    "program_type": "Customer-initiated N2P MDU Complex",
    "target_eligibility_quarter": "Dec 2024"
   }
  },
  {
   "type": "Feature",
   "geometry": {
    "type": "Point",
    "coordinates": [
     144.89290095,
     -37.85853861
    ]
   },
   "properties": {
    "name": "UNIT 4, 127 FERGUSON STREET WILLIAMSTOWN 3016",
    "locID": "LOC000091760914",
    "tech": "FTTN",
    "upgrade": "FTTP_NA",
    "gnaf_pid": "GAVIC412635843",
    "tech_change_status": "MDU Complex Eligible To Apply",
    "program_type": "Customer-initiated N2P MDU Complex"
   }
  },
  {
   "type": "Feature",
   "geometry": {
    "type": "Point",
    "coordinates": [
     144.90246868,
     -37.86212144
    ]
   },
   "properties": {
    "name": "209 NELSON PLACE WILLIAMSTOWN 3016",
    "locID": "LOC000014265795",
    "tech": "FTTN",
    "upgrade": "FTTP_NA",
    "gnaf_pid": "GAVIC412635844",
    "tech_change_status": "Committed",
    "program_type": "On-Demand N2P SDU/MDU Simple",
    "target_eligibility_quarter": "Dec 2024"
   }
  },
  {
   "type": "Feature",
   "geometry": {
    "type": "Point",
    "coordinates": [
     144.902211,
     -37.86119573
    ]
   },
   "properties": {
    "name": "UNIT 82, 235 NELSON PLACE WILLIAMSTOWN 3016",
    "locID": "LOC000095288562",
    "tech": "FTTN",
    "upgrade": "FTTP_NA",
    "gnaf_pid": "GAVIC412635846",
    "tech_change_status": "Committed",
    "program_type": "Customer-initiated N2P MDU Complex",
    "target_eligibility_quarter": "Dec 2024"
   }
  },
  {
   "type": "Feature",
   "geometry": {
    "type": "Point",
    "coordinates": [
     144.89996104,
     -37.85383819
    ]
   },
   "properties": {
    "name": "UNIT 2, 5 BRONTE COURT WILLIAMSTOWN 3016",
    "locID": "LOC000030100694",
    "tech": "FTTN",
    "upgrade": "FTTP_NA",
    "gnaf_pid": "GAVIC412636441",
    "tech_change_status": "MDU Complex Eligible To Apply",
    "program_type": "Customer-initiated N2P MDU Complex"
   }
  },
  {
   "type": "Feature",
   "geometry": {
    "type": "Point",
    "coordinates": [
     144.89996104,
     -37.85383819
    ]
   },
   "properties": {
    "name": "UNIT 1, 4 BRONTE COURT WILLIAMSTOWN 3016",
    "locID": "LOC000083099757",
    "tech": "FTTN",
    "upgrade": "FTTP_NA",
    "gnaf_pid": "GAVIC412636442",
    "tech_change_status": "MDU Complex Eligible To Apply",
    "program_type": "Customer-initiated N2P MDU Complex"
   }
  },
  {
   "type": "Feature",
   "geometry": {
    "type": "Point",
    "coordinates": [
     144.89996104,
     -37.85383819
    ]
   },
   "properties": {
    "name": "UNIT 5, 3 BRONTE COURT WILLIAMSTOWN 3016",
    "locID": "LOC000077223348",
    "tech": "FTTN",
    "upgrade": "FTTP_NA",
    "gnaf_pid": "GAVIC412636447",
    "tech_change_status": "MDU Complex Eligible To Apply",
    "program_type": "Customer-initiated N2P MDU Complex"
   }
  },
  {
   "type": "Feature",
   "geometry": {
    "type": "Point",
    "coordinates": [
     144.89996104,
     -37.85383819
    ]
   },
   "properties": {
    "name": "UNIT 2, 10 BRONTE COURT WILLIAMSTOWN 3016",
    "locID": "LOC000034115468",
    "tech": "FTTN",
    "upgrade": "FTTP_NA",
    "gnaf_pid": "GAVIC412636466",
    "tech_change_status": "MDU Complex Eligible To Apply",
    "program_type": "Customer-initiated N2P MDU Complex"
   }
  },
  {
   "type": "Feature",
   "geometry": {
    "type": "Point",
    "coordinates": [
     144.89996104,
     -37.85383819
    ]
   },
   "properties": {
    "name": "UNIT 5, 7 BRONTE COURT WILLIAMSTOWN 3016",
    "locID": "LOC000039287600",
    "tech": "FTTN",
    "upgrade": "FTTP_NA",
    "gnaf_pid": "GAVIC412636467",
    "tech_change_status": "MDU Complex Eligible To Apply",
    "program_type": "Customer-initiated N2P MDU Complex"
   }
  },
  {
   "type": "Feature",
   "geometry": {
    "type": "Point",
    "coordinates": [
     144.89996104,
     -37.85383819
    ]
   },
   "properties": {
    "name": "UNIT 3, 7 BRONTE COURT WILLIAMSTOWN 3016",
    "locID": "LOC000039135511",
    "tech": "FTTN",
    "upgrade": "FTTP_NA",
    "gnaf_pid": "GAVIC412636505",
    "tech_change_status": "MDU Complex Eligible To Apply",
    "program_type": "Customer-initiated N2P MDU Complex"
   }
  },
  {
   "type": "Feature",
   "geometry": {
    "type": "Point",
    "coordinates": [
     144.89015458,
     -37.85720345
    ]
   },
   "properties": {
    "name": "UNIT 4, 28 STATION ROAD WILLIAMSTOWN 3016",
    "locID": "LOC000082704683",
    "tech": "FTTN",
    "upgrade": "FTTP_NA",
    "gnaf_pid": "GAVIC412636513",
    "tech_change_status": "MDU Complex Eligible To Apply",
    "program_type": "Customer-initiated N2P MDU Complex"
   }
  },
  {
   "type": "Feature",
   "geometry": {
    "type": "Point",
    "coordinates": [
     144.88924212,
     -37.85194884
    ]
   },
   "properties": {
    "name": "UNIT 3, 185 MELBOURNE ROAD WILLIAMSTOWN 3016",
    "locID": "LOC000052789794",
    "tech": "FTTN",
    "upgrade": "FTTP_NA",
    "gnaf_pid": "GAVIC412636514",
    "tech_change_status": "MDU Complex Eligible To Apply",
    "program_type": "Customer-initiated N2P MDU Complex"
   }
  },
  {
   "type": "Feature",
   "geometry": {
    "type": "Point",
    "coordinates": [
     144.88321128,
     -37.86086606
    ]
   },
   "properties": {
    "name": "19 SMITH AVENUE WILLIAMSTOWN 3016",
    "locID": "LOC000024719002",
    "tech": "FTTP",
    "upgrade": "NULL_NA",
    "gnaf_pid": "GAVIC412636575",
    "program_type": "On-Demand N2P SDU/MDU Simple",
    "target_eligibility_quarter": "NA"
   }
  },
  {
   "type": "Feature",
   "geometry": {
    "type": "Point",
    "coordinates": [
     144.88289164,
     -37.85946381
    ]
   },
   "properties": {
    "name": "UNIT 20, 44 RIFLE RANGE DRIVE WILLIAMSTOWN 3016",
    "locID": "LOC000011099453",
    "tech": "FTTN",
    "upgrade": "FTTP_NA",
    "gnaf_pid": "GAVIC412636585",
    "tech_change_status": "MDU Complex Eligible To Apply",
    "program_type": "Customer-initiated N2P MDU Complex"
   }
  },
  {
   "type": "Feature",
   "geometry": {
    "type": "Point",
    "coordinates": [
     144.891426,
     -37.865889
    ]
   },
   "properties": {
    "name": "UNIT 4, 4 GELLIBRAND STREET WILLIAMSTOWN 3016",
    "locID": "LOC000040340685",
    "tech": "FTTN",
    "upgrade": "FTTP_NA",
    "gnaf_pid": "GAVIC412637556",
    "tech_change_status": "Committed",
    "program_type": "Customer-initiated N2P MDU Complex",
    "target_eligibility_quarter": "Dec 2024"
   }
  },
  {
   "type": "Feature",
   "geometry": {
    "type": "Point",
    "coordinates": [
     144.89097871,
     -37.8585597
    ]
   },
   "properties": {
    "name": "5 LITTLE FERGUSON STREET WILLIAMSTOWN 3016",
    "locID": "LOC000082079764",
    "tech": "FTTN",
    "upgrade": "FTTP_NA",
    "gnaf_pid": "GAVIC412637764",
    "tech_change_status": "MDU Complex Eligible To Apply",
    "program_type": "Customer-initiated N2P MDU Complex"
   }
  },
  {
   "type": "Feature",
   "geometry": {
    "type": "Point",
    "coordinates": [
     144.89101839,
     -37.85867828
    ]
   },
   "properties": {
    "name": "13 LITTLE FERGUSON STREET WILLIAMSTOWN 3016",
    "locID": "LOC000081929145",
    "tech": "FTTN",
    "upgrade": "FTTP_NA",
    "gnaf_pid": "GAVIC412637768",
    "tech_change_status": "MDU Complex Eligible To Apply",
    "program_type": "Customer-initiated N2P MDU Complex"
   }
  },
  {
   "type": "Feature",
   "geometry": {
    "type": "Point",
    "coordinates": [
     144.89097871,
     -37.8585597
    ]
   },
   "properties": {
    "name": "4 LITTLE FERGUSON STREET WILLIAMSTOWN 3016",
    "locID": "LOC000082426273",
    "tech": "FTTN",
    "upgrade": "FTTP_NA",
    "gnaf_pid": "GAVIC412637769",
    "tech_change_status": "MDU Complex Eligible To Apply",
    "program_type": "Customer-initiated N2P MDU Complex"
   }
  },
  {
   "type": "Feature",
   "geometry": {
    "type": "Point",
    "coordinates": [
     144.89097871,
     -37.8585597
    ]
   },
   "properties": {
    "name": "18 LITTLE FERGUSON STREET WILLIAMSTOWN 3016",
    "locID": "LOC000082483129",
    "tech": "FTTN",
    "upgrade": "FTTP_NA",
    "gnaf_pid": "GAVIC412637772",
    "tech_change_status": "MDU Complex Eligible To Apply",
    "program_type": "Customer-initiated N2P MDU Complex"
   }
  },
  {
   "type": "Feature",
   "geometry": {
    "type": "Point",
    "coordinates": [
     144.894341,
     -37.860516
    ]
   },
   "properties": {
    "name": "UNIT 1, 12 PERRY STREET WILLIAMSTOWN 3016",
    "locID": "LOC000006016876",
    "tech": "FTTN",
    "upgrade": "FTTP_NA",
    "gnaf_pid": "GAVIC412637773",
    "tech_change_status": "Committed",
    "program_type": "On-Demand N2P SDU/MDU Simple",
    "target_eligibility_quarter": "Dec 2024"
   }
  },
  {
   "type": "Feature",
   "geometry": {
    "type": "Point",
    "coordinates": [
     144.902211,
     -37.86119573
    ]
   },
   "properties": {
    "name": "UNIT 37, 235 NELSON PLACE WILLIAMSTOWN 3016",
    "locID": "LOC000095710746",
    "tech": "FTTN",
    "upgrade": "FTTP_NA",
    "gnaf_pid": "GAVIC412637795",
    "tech_change_status": "Committed",
    "program_type": "Customer-initiated N2P MDU Complex",
    "target_eligibility_quarter": "Dec 2024"
   }
  },
  {
   "type": "Feature",
   "geometry": {
    "type": "Point",
    "coordinates": [
     144.902211,
     -37.86119573
    ]
   },
   "properties": {
    "name": "UNIT 126, 235 NELSON PLACE WILLIAMSTOWN 3016",
    "locID": "LOC000095663720",
    "tech": "FTTN",
    "upgrade": "FTTP_NA",
    "gnaf_pid": "GAVIC412637799",
    "tech_change_status": "Committed",
    "program_type": "Customer-initiated N2P MDU Complex",
    "target_eligibility_quarter": "Dec 2024"
   }
  },
  {
   "type": "Feature",
   "geometry": {
    "type": "Point",
    "coordinates": [
     144.90650195,
     -37.86629948
    ]
   },
   "properties": {
    "name": "UNIT 1, 38 ANN STREET WILLIAMSTOWN 3016",
    "locID": "LOC000105827796",
    "tech": "FTTN",
    "upgrade": "FTTP_NA",
    "gnaf_pid": "GAVIC412637812",
    "tech_change_status": "Committed",
    "program_type": "On-Demand N2P SDU/MDU Simple",
    "target_eligibility_quarter": "Dec 2024"
   }
  },
  {
   "type": "Feature",
   "geometry": {
    "type": "Point",
    "coordinates": [
     144.90291837,
     -37.86750934
    ]
   },
   "properties": {
    "name": "11 NORVAL CLOSE WILLIAMSTOWN 3016",
    "locID": "LOC000031886897",
    "tech": "FTTN",
    "upgrade": "FTTP_NA",
    "gnaf_pid": "GAVIC412637822",
    "tech_change_status": "Committed",
    "program_type": "Customer-initiated N2P MDU Complex",
    "target_eligibility_quarter": "Dec 2024"
   }
  },
  {
   "type": "Feature",
   "geometry": {
    "type": "Point",
    "coordinates": [
     144.90414774,
     -37.86664813
    ]
   },
   "properties": {
    "name": "UNIT 63, 63 HANMER STREET WILLIAMSTOWN 3016",
    "locID": "LOC000009347812",
    "tech": "FTTN",
    "upgrade": "FTTP_NA",
    "gnaf_pid": "GAVIC412637824",
    "tech_change_status": "Committed",
    "program_type": "Customer-initiated N2P MDU Complex",
    "target_eligibility_quarter": "Dec 2024"
   }
  },
  {
   "type": "Feature",
   "geometry": {
    "type": "Point",
    "coordinates": [
     144.85729642,
     -37.85390906
    ]
   },
   "properties": {
    "name": "221A KOROROIT CREEK ROAD WILLIAMSTOWN 3016",
    "locID": "LOC000036594093",
    "tech": "FTTN",
    "upgrade": "FTTP_SA",
    "gnaf_pid": "GAVIC412637838",
    "tech_change_status": "Eligible to Order",
    "program_type": "On-Demand N2P SDU/MDU Simple",
    "target_eligibility_quarter": "NA"
   }
  },
  {
   "type": "Feature",
   "geometry": {
    "type": "Point",
    "coordinates": [
     144.85729642,
     -37.85390906
    ]
   },