{
 "type": "FeatureCollection",
 "generated": "2024-07-26T01:09:29.507304",
 "suburb": "WILLENABRINA",
 "features": [
  {
   "type": "Feature",
   "geometry": {
    "type": "Point",
    "coordinates": [
     142.26283885,
     -36.07301603
    ]
   },
   "properties": {
    "name": "1554 BRIM WEST ROAD WILLENABRINA 3393",
    "locID": "LOC000124601207",
    "tech": "WIRELESS",
    "upgrade": "NULL_NA",
    "gnaf_pid": "GAVIC422130997",
    "tech_change_status": "Not Planned",
    "program_type": "Fixed Wireless and Satellite Upgrade Program",
    "target_eligibility_quarter": "Dec 2024"
   }
  },
  {
   "type": "Feature",
   "geometry": {
    "type": "Point",
    "coordinates": [
     142.2038836,
     -36.04964086
    ]
   },
   "properties": {
    "name": "130 BRINA NORTH ROAD WILLENABRINA 3393",
    "locID": "LOC000069995208",
    "tech": "SATELLITE",
    "upgrade": "NULL_NA",
    "gnaf_pid": "GAVIC422130999",
    "tech_change_status": "Not Planned"
   }
  },
  {
   "type": "Feature",
   "geometry": {
    "type": "Point",
    "coordinates": [
     142.26593281,
     -36.05333929
    ]
   },
   "properties": {
    "name": "428 COUZNER ROAD WILLENABRINA 3393",
    "locID": "LOC000051166098",
    "tech": "SATELLITE",
    "upgrade": "NULL_NA",
    "gnaf_pid": "GAVIC422139251",
    "tech_change_status": "Not Planned"
   }
  },
  {
   "type": "Feature",
   "geometry": {
    "type": "Point",
    "coordinates": [
     142.201137,
     -36.01123865
    ]
   },
   "properties": {
    "name": "510 DALDEE ROAD WILLENABRINA 3393",
    "locID": "LOC000071501195",
    "tech": "SATELLITE",
    "upgrade": "NULL_NA",
    "gnaf_pid": "GAVIC422140359",
    "tech_change_status": "Not Planned"
   }
  },
  {
   "type": "Feature",
   "geometry": {
    "type": "Point",
    "coordinates": [
     142.1896386,
     -36.01146976
    ]
   },
   "properties": {
    "name": "610 DALDEE ROAD WILLENABRINA 3393",
    "locID": "LOC000124558576",
    "tech": "SATELLITE",
    "upgrade": "NULL_NA",
    "gnaf_pid": "GAVIC422140360",
    "tech_change_status": "Not Planned"
   }
  },
  {
   "type": "Feature",
   "geometry": {
    "type": "Point",
    "coordinates": [
     142.2090057,
     -36.06890875
    ]
   },
   "properties": {
    "name": "1732 ELLAM-WILLENABRINA ROAD WILLENABRINA 3393",
    "locID": "LOC000004395826",
    "tech": "SATELLITE",
    "upgrade": "NULL_NA",
    "gnaf_pid": "GAVIC422144790",
    "tech_change_status": "Not Planned"
   }
  },
  {
   "type": "Feature",
   "geometry": {
    "type": "Point",
    "coordinates": [
     142.23696823,
     -36.06190868
    ]
   },
   "properties": {
    "name": "124 FISHERS ROAD WILLENABRINA 3393",
    "locID": "LOC000032944892",
    "tech": "SATELLITE",
    "upgrade": "NULL_NA",
    "gnaf_pid": "GAVIC422146735",
    "tech_change_status": "Not Planned"
   }
  },
  {
   "type": "Feature",
   "geometry": {
    "type": "Point",
    "coordinates": [
     142.1953105,
     -36.10684989
    ]
   },
   "properties": {
    "name": "322 FRYATT ROAD WILLENABRINA 3393",
    "locID": "LOC000030158884",
    "tech": "SATELLITE",
    "upgrade": "NULL_NA",
    "gnaf_pid": "GAVIC422148116",
    "tech_change_status": "Not Planned"
   }
  },
  {
   "type": "Feature",
   "geometry": {
    "type": "Point",
    "coordinates": [
     142.25610365,
     -36.10687565
    ]
   },
   "properties": {
    "name": "223 GOUIN ROAD WILLENABRINA 3393",
    "locID": "LOC000070457153",
    "tech": "SATELLITE",
    "upgrade": "NULL_NA",
    "gnaf_pid": "GAVIC422150816",
    "tech_change_status": "Not Planned"
   }
  },
  {
   "type": "Feature",
   "geometry": {
    "type": "Point",
    "coordinates": [
     142.21891185,
     -36.05095981
    ]
   },
   "properties": {
    "name": "3098 RAINBOW ROAD WILLENABRINA 3393",
    "locID": "LOC000095200762",
    "tech": "SATELLITE",
    "upgrade": "NULL_NA",
    "gnaf_pid": "GAVIC422184877",
    "tech_change_status": "Not Planned"
   }
  },
  {
   "type": "Feature",
   "geometry": {
    "type": "Point",
    "coordinates": [
     142.21877446,
     -36.05069076
    ]
   },
   "properties": {
    "name": "3100 RAINBOW ROAD WILLENABRINA 3393",
    "locID": "LOC100079012089",
    "tech": "SATELLITE",
    "upgrade": "NULL_NA",
    "gnaf_pid": "GAVIC422184878",
    "tech_change_status": "Not Planned"
   }
  },
  {
   "type": "Feature",
   "geometry": {
    "type": "Point",
    "coordinates": [
     142.21029284,
     -36.02168433
    ]
   },
   "properties": {
    "name": "3449 RAINBOW ROAD WILLENABRINA 3393",
    "locID": "LOC000055003434",
    "tech": "SATELLITE",
    "upgrade": "NULL_NA",
    "gnaf_pid": "GAVIC422184880",
    "tech_change_status": "Not Planned"
   }
  },
  {
   "type": "Feature",
   "geometry": {
    "type": "Point",
    "coordinates": [
     142.2764395,
     -36.02401845
    ]
   },
   "properties": {
    "name": "1733 BRIKKLE ROAD WILLENABRINA 3393",
    "locID": "LOC000114190534",
    "tech": "WIRELESS",
    "upgrade": "NULL_NA",
    "gnaf_pid": "GAVIC423060978",
    "tech_change_status": "Not Planned",
    "program_type": "Fixed Wireless and Satellite Upgrade Program",
    "target_eligibility_quarter": "Dec 2024"
   }
  },
  {
   "type": "Feature",
   "geometry": {
    "type": "Point",
    "coordinates": [
     142.27630881,
     -36.01247131
    ]
   },
   "properties": {
    "name": "1861 BRIKKLE ROAD WILLENABRINA 3393",
    "locID": "LOC000012826654",
    "tech": "SATELLITE",
    "upgrade": "NULL_NA",
    "gnaf_pid": "GAVIC423060979",
    "tech_change_status": "Not Planned"
   }
  },
  {
   "type": "Feature",
   "geometry": {
    "type": "Point",
    "coordinates": [
     142.28307413,
     -36.09161119
    ]
   },
   "properties": {
    "name": "923 BRIKKLE ROAD WILLENABRINA 3393",
    "locID": "LOC000019457519",
    "tech": "SATELLITE",
    "upgrade": "NULL_NA",
    "gnaf_pid": "GAVIC423060980",
    "tech_change_status": "Not Planned"
   }
  },
  {
   "type": "Feature",
   "geometry": {
    "type": "Point",
    "coordinates": [
     142.18250627,
     -36.04972949
    ]
   },
   "properties": {
    "name": "324 BRINA NORTH ROAD WILLENABRINA 3393",
    "locID": "LOC000079454409",
    "tech": "SATELLITE",
    "upgrade": "NULL_NA",
    "gnaf_pid": "GAVIC423503434",
    "tech_change_status": "Not Planned"
   }
  }
 ]
}