{
 "type": "FeatureCollection",
 "generated": "2024-09-05T20:52:24.417385",
 "suburb": "WINNAMBOOL",
 "features": [
  {
   "type": "Feature",
   "geometry": {
    "type": "Point",
    "coordinates": [
     142.7791967,
     -34.95678389
    ]
   },
   "properties": {
    "name": "940 WINNAMBOOL ROAD WINNAMBOOL 3546",
    "locID": "LOC000107863275",
    "tech": "WIRELESS",
    "upgrade": "NULL_NA",
    "gnaf_pid": "GAVIC412620907",
    "tech_change_status": "Not Planned",
    "program_type": "Fixed Wireless and Satellite Upgrade Program",
    "target_eligibility_quarter": "NA"
   }
  },
  {
   "type": "Feature",
   "geometry": {
    "type": "Point",
    "coordinates": [
     142.73467843,
     -34.93138676
    ]
   },
   "properties": {
    "name": "503 MOWATVILLE ROAD WINNAMBOOL 3546",
    "locID": "LOC000035236175",
    "tech": "WIRELESS",
    "upgrade": "NULL_NA",
    "gnaf_pid": "GAVIC412638969",
    "tech_change_status": "Not Planned",
    "program_type": "Fixed Wireless and Satellite Upgrade Program",
    "target_eligibility_quarter": "NA"
   }
  },
  {
   "type": "Feature",
   "geometry": {
    "type": "Point",
    "coordinates": [
     142.79117103,
     -34.99637463
    ]
   },
   "properties": {
    "name": "1880 PARALLEL ROAD WINNAMBOOL 3546",
    "locID": "LOC000124818969",
    "tech": "WIRELESS",
    "upgrade": "NULL_NA",
    "gnaf_pid": "GAVIC422180261",
    "tech_change_status": "Not Planned",
    "program_type": "Fixed Wireless and Satellite Upgrade Program",
    "target_eligibility_quarter": "NA"
   }
  },
  {
   "type": "Feature",
   "geometry": {
    "type": "Point",
    "coordinates": [
     142.72467199,
     -34.97789013
    ]
   },
   "properties": {
    "name": "1309 WEBSTER ROAD WINNAMBOOL 3546",
    "locID": "LOC000124815314",
    "tech": "SATELLITE",
    "upgrade": "NULL_NA",
    "gnaf_pid": "GAVIC422201961",
    "tech_change_status": "Not Planned"
   }
  },
  {
   "type": "Feature",
   "geometry": {
    "type": "Point",
    "coordinates": [
     142.77550621,
     -34.93663028
    ]
   },
   "properties": {
    "name": "1468 WINNAMBOOL ROAD WINNAMBOOL 3546",
    "locID": "LOC000124815351",
    "tech": "WIRELESS",
    "upgrade": "NULL_NA",
    "gnaf_pid": "GAVIC422204506",
    "tech_change_status": "Not Planned",
    "program_type": "Fixed Wireless and Satellite Upgrade Program",
    "target_eligibility_quarter": "NA"
   }
  },
  {
   "type": "Feature",
   "geometry": {
    "type": "Point",
    "coordinates": [
     142.77354096,
     -34.93448904
    ]
   },
   "properties": {
    "name": "1481 WINNAMBOOL ROAD WINNAMBOOL 3546",
    "locID": "LOC000073482414",
    "tech": "WIRELESS",
    "upgrade": "NULL_NA",
    "gnaf_pid": "GAVIC422204507",
    "tech_change_status": "Not Planned",
    "program_type": "Fixed Wireless and Satellite Upgrade Program",
    "target_eligibility_quarter": "NA"
   }
  },
  {
   "type": "Feature",
   "geometry": {
    "type": "Point",
    "coordinates": [
     142.82281848,
     -34.9872392
    ]
   },
   "properties": {
    "name": "672 WINNAMBOOL ROAD WINNAMBOOL 3546",
    "locID": "LOC000067056235",
    "tech": "SATELLITE",
    "upgrade": "NULL_NA",
    "gnaf_pid": "GAVIC422204508",
    "tech_change_status": "Not Planned"
   }
  },
  {
   "type": "Feature",
   "geometry": {
    "type": "Point",
    "coordinates": [
     142.75562927,
     -34.95675728
    ]
   },
   "properties": {
    "name": "190 CULLEN ROAD WINNAMBOOL 3546",
    "locID": "LOC000018136237",
    "tech": "WIRELESS",
    "upgrade": "NULL_NA",
    "gnaf_pid": "GAVIC422389264",
    "tech_change_status": "Not Planned",
    "program_type": "Fixed Wireless and Satellite Upgrade Program",
    "target_eligibility_quarter": "NA"
   }
  },
  {
   "type": "Feature",
   "geometry": {
    "type": "Point",
    "coordinates": [
     142.77870371,
     -34.95809683
    ]
   },
   "properties": {
    "name": "1196 WINNAMBOOL ROAD WINNAMBOOL 3546",
    "locID": "LOC000032027793",
    "tech": "WIRELESS",
    "upgrade": "NULL_NA",
    "gnaf_pid": "GAVIC423671264",
    "tech_change_status": "Not Planned",
    "program_type": "Fixed Wireless and Satellite Upgrade Program",
    "target_eligibility_quarter": "NA"
   }
  }
 ]
}