{
 "type": "FeatureCollection",
 "generated": "2023-12-01T11:02:47.237500",
 "suburb": "WINNAMBOOL",
 "features": [
  {
   "type": "Feature",
   "geometry": {
    "type": "Point",
    "coordinates": [
     142.7791967,
     -34.95678389
    ]
   },
   "properties": {
    "name": "940 WINNAMBOOL ROAD WINNAMBOOL 3546",
    "locID": "LOC000107863275",
    "tech": "WIRELESS",
    "upgrade": "NULL_NA",
    "gnaf_pid": "GAVIC412620907"
   }
  },
  {
   "type": "Feature",
   "geometry": {
    "type": "Point",
    "coordinates": [
     142.73467843,
     -34.93138676
    ]
   },
   "properties": {
    "name": "503 MOWATVILLE ROAD WINNAMBOOL 3546",
    "locID": "LOC000035236175",
    "tech": "SATELLITE",
    "upgrade": "NULL_NA",
    "gnaf_pid": "GAVIC412638969"
   }
  },
  {
   "type": "Feature",
   "geometry": {
    "type": "Point",
    "coordinates": [
     142.73476146,
     -34.954557
    ]
   },
   "properties": {
    "name": "241 MOWATVILLE ROAD WINNAMBOOL 3546",
    "locID": "ChIJHfXnIG5V22oRScQsXk9-iVc",
    "tech": "SATELLITE",
    "upgrade": "UNKNOWN",
    "gnaf_pid": "GAVIC422173697"
   }
  },
  {
   "type": "Feature",
   "geometry": {
    "type": "Point",
    "coordinates": [
     142.79117103,
     -34.99637463
    ]
   },
   "properties": {
    "name": "1880 PARALLEL ROAD WINNAMBOOL 3546",
    "locID": "LOC000124818969",
    "tech": "SATELLITE",
    "upgrade": "NULL_NA",
    "gnaf_pid": "GAVIC422180261"
   }
  },
  {
   "type": "Feature",
   "geometry": {
    "type": "Point",
    "coordinates": [
     142.74883287,
     -34.98257181
    ]
   },
   "properties": {
    "name": "589 PRESLEY ROAD WINNAMBOOL 3546",
    "locID": "ChIJ_S0b2PhU22oRNWEVy9gjLC0",
    "tech": "SATELLITE",
    "upgrade": "UNKNOWN",
    "gnaf_pid": "GAVIC422183044"
   }
  },
  {
   "type": "Feature",
   "geometry": {
    "type": "Point",
    "coordinates": [
     142.72467199,
     -34.97789013
    ]
   },
   "properties": {
    "name": "1309 WEBSTER ROAD WINNAMBOOL 3546",
    "locID": "LOC000124815314",
    "tech": "SATELLITE",
    "upgrade": "NULL_NA",
    "gnaf_pid": "GAVIC422201961"
   }
  },
  {
   "type": "Feature",
   "geometry": {
    "type": "Point",
    "coordinates": [
     142.7898719,
     -34.9784791
    ]
   },
   "properties": {
    "name": "715 WEBSTER ROAD WINNAMBOOL 3546",
    "locID": "LOC000109311077",
    "tech": "SATELLITE",
    "upgrade": "NULL_NA",
    "gnaf_pid": "GAVIC422201962"
   }
  },
  {
   "type": "Feature",
   "geometry": {
    "type": "Point",
    "coordinates": [
     142.77550621,
     -34.93663028
    ]
   },
   "properties": {
    "name": "1468 WINNAMBOOL ROAD WINNAMBOOL 3546",
    "locID": "LOC000124815351",
    "tech": "WIRELESS",
    "upgrade": "NULL_NA",
    "gnaf_pid": "GAVIC422204506"
   }
  },
  {
   "type": "Feature",
   "geometry": {
    "type": "Point",
    "coordinates": [
     142.77354096,
     -34.93448904
    ]
   },
   "properties": {
    "name": "1481 WINNAMBOOL ROAD WINNAMBOOL 3546",
    "locID": "LOC000073482414",
    "tech": "WIRELESS",
    "upgrade": "NULL_NA",
    "gnaf_pid": "GAVIC422204507"
   }
  },
  {
   "type": "Feature",
   "geometry": {
    "type": "Point",
    "coordinates": [
     142.82281848,
     -34.9872392
    ]
   },
   "properties": {
    "name": "672 WINNAMBOOL ROAD WINNAMBOOL 3546",
    "locID": "LOC000067056235",
    "tech": "SATELLITE",
    "upgrade": "NULL_NA",
    "gnaf_pid": "GAVIC422204508"
   }
  },
  {
   "type": "Feature",
   "geometry": {
    "type": "Point",
    "coordinates": [
     142.75562927,
     -34.95675728
    ]
   },
   "properties": {
    "name": "190 CULLEN ROAD WINNAMBOOL 3546",
    "locID": "LOC000018136237",
    "tech": "SATELLITE",
    "upgrade": "NULL_NA",
    "gnaf_pid": "GAVIC422389264"
   }
  },
  {
   "type": "Feature",
   "geometry": {
    "type": "Point",
    "coordinates": [
     142.77870371,
     -34.95809683
    ]
   },
   "properties": {
    "name": "1196 WINNAMBOOL ROAD WINNAMBOOL 3546",
    "locID": "LOC000032027793",
    "tech": "WIRELESS",
    "upgrade": "NULL_NA",
    "gnaf_pid": "GAVIC423671264"
   }
  },
  {
   "type": "Feature",
   "geometry": {
    "type": "Point",
    "coordinates": [
     142.73668226,
     -34.95372712
    ]
   },
   "properties": {
    "name": "241-248 MOWATVILLE ROAD WINNAMBOOL 3546",
    "locID": "ChIJHfXnIG5V22oRScQsXk9-iVc",
    "tech": "SATELLITE",
    "upgrade": "UNKNOWN",
    "gnaf_pid": "GAVIC425620121"
   }
  }
 ]
}