{
 "type": "FeatureCollection",
 "generated": "2024-09-05T21:27:15.183387",
 "suburb": "WOODSTOCK WEST",
 "features": [
  {
   "type": "Feature",
   "geometry": {
    "type": "Point",
    "coordinates": [
     143.98656287,
     -36.83498566
    ]
   },
   "properties": {
    "name": "71 COMERS ROAD WOODSTOCK WEST 3463",
    "locID": "LOC000038860331",
    "tech": "WIRELESS",
    "upgrade": "NULL_NA",
    "gnaf_pid": "GAVIC412617044",
    "tech_change_status": "Not Planned",
    "program_type": "Fixed Wireless and Satellite Upgrade Program",
    "target_eligibility_quarter": "NA"
   }
  },
  {
   "type": "Feature",
   "geometry": {
    "type": "Point",
    "coordinates": [
     143.98122019,
     -36.81101634
    ]
   },
   "properties": {
    "name": "848 JUNOR ROAD WOODSTOCK WEST 3463",
    "locID": "LOC000034483334",
    "tech": "WIRELESS",
    "upgrade": "NULL_NA",
    "gnaf_pid": "GAVIC412617046",
    "tech_change_status": "Not Planned",
    "program_type": "Fixed Wireless and Satellite Upgrade Program",
    "target_eligibility_quarter": "NA"
   }
  },
  {
   "type": "Feature",
   "geometry": {
    "type": "Point",
    "coordinates": [
     143.98858741,
     -36.84219147
    ]
   },
   "properties": {
    "name": "2537 BENDIGO-MARYBOROUGH ROAD WOODSTOCK WEST 3463",
    "locID": "LOC000060657062",
    "tech": "WIRELESS",
    "upgrade": "NULL_NA",
    "gnaf_pid": "GAVIC412617047",
    "tech_change_status": "Not Planned",
    "program_type": "Fixed Wireless and Satellite Upgrade Program",
    "target_eligibility_quarter": "NA"
   }
  },
  {
   "type": "Feature",
   "geometry": {
    "type": "Point",
    "coordinates": [
     143.99985504,
     -36.82821766
    ]
   },
   "properties": {
    "name": "582 NIXONS ROAD WOODSTOCK WEST 3463",
    "locID": "LOC000085304002",
    "tech": "SATELLITE",
    "upgrade": "NULL_NA",
    "gnaf_pid": "GAVIC412617048",
    "tech_change_status": "Not Planned"
   }
  },
  {
   "type": "Feature",
   "geometry": {
    "type": "Point",
    "coordinates": [
     144.00866142,
     -36.82086833
    ]
   },
   "properties": {
    "name": "67 MCCARTIN ROAD WOODSTOCK WEST 3463",
    "locID": "LOC000047692721",
    "tech": "WIRELESS",
    "upgrade": "NULL_NA",
    "gnaf_pid": "GAVIC412617049",
    "tech_change_status": "Not Planned",
    "program_type": "Fixed Wireless and Satellite Upgrade Program",
    "target_eligibility_quarter": "NA"
   }
  },
  {
   "type": "Feature",
   "geometry": {
    "type": "Point",
    "coordinates": [
     143.97405142,
     -36.82501625
    ]
   },
   "properties": {
    "name": "816 NIXONS ROAD WOODSTOCK WEST 3463",
    "locID": "LOC000080600694",
    "tech": "WIRELESS",
    "upgrade": "NULL_NA",
    "gnaf_pid": "GAVIC412617050",
    "tech_change_status": "Not Planned",
    "program_type": "Fixed Wireless and Satellite Upgrade Program",
    "target_eligibility_quarter": "NA"
   }
  },
  {
   "type": "Feature",
   "geometry": {
    "type": "Point",
    "coordinates": [
     143.97252559,
     -36.81592978
    ]
   },
   "properties": {
    "name": "260 WOODSTOCK ROAD WOODSTOCK WEST 3463",
    "locID": "LOC000006189849",
    "tech": "WIRELESS",
    "upgrade": "NULL_NA",
    "gnaf_pid": "GAVIC412617051",
    "tech_change_status": "Not Planned",
    "program_type": "Fixed Wireless and Satellite Upgrade Program",
    "target_eligibility_quarter": "NA"
   }
  },
  {
   "type": "Feature",
   "geometry": {
    "type": "Point",
    "coordinates": [
     143.97192809,
     -36.81586448
    ]
   },
   "properties": {
    "name": "259 WOODSTOCK ROAD WOODSTOCK WEST 3463",
    "locID": "LOC000073408725",
    "tech": "WIRELESS",
    "upgrade": "NULL_NA",
    "gnaf_pid": "GAVIC412631920",
    "tech_change_status": "Not Planned",
    "program_type": "Fixed Wireless and Satellite Upgrade Program",
    "target_eligibility_quarter": "NA"
   }
  },
  {
   "type": "Feature",
   "geometry": {
    "type": "Point",
    "coordinates": [
     143.98442294,
     -36.81142402
    ]
   },
   "properties": {
    "name": "820 JUNOR ROAD WOODSTOCK WEST 3463",
    "locID": "LOC000052216169",
    "tech": "WIRELESS",
    "upgrade": "NULL_NA",
    "gnaf_pid": "GAVIC412657226",
    "tech_change_status": "Eligible to Order",
    "program_type": "Fixed Wireless and Satellite Upgrade Program",
    "target_eligibility_quarter": "NA"
   }
  },
  {
   "type": "Feature",
   "geometry": {
    "type": "Point",
    "coordinates": [
     143.98328326,
     -36.79054061
    ]
   },
   "properties": {
    "name": "581 ELMSFORD ROAD WOODSTOCK WEST 3463",
    "locID": "LOC000021044601",
    "tech": "WIRELESS",
    "upgrade": "NULL_NA",
    "gnaf_pid": "GAVIC412657227",
    "tech_change_status": "Not Planned",
    "program_type": "Fixed Wireless and Satellite Upgrade Program",
    "target_eligibility_quarter": "NA"
   }
  },
  {
   "type": "Feature",
   "geometry": {
    "type": "Point",
    "coordinates": [
     143.97174372,
     -36.81680464
    ]
   },
   "properties": {
    "name": "249 WOODSTOCK ROAD WOODSTOCK WEST 3463",
    "locID": "LOC000029468116",
    "tech": "WIRELESS",
    "upgrade": "NULL_NA",
    "gnaf_pid": "GAVIC420315669",
    "tech_change_status": "Not Planned",
    "program_type": "Fixed Wireless and Satellite Upgrade Program",
    "target_eligibility_quarter": "NA"
   }
  },
  {
   "type": "Feature",
   "geometry": {
    "type": "Point",
    "coordinates": [
     143.98509112,
     -36.79766861
    ]
   },
   "properties": {
    "name": "552 ANGLE ROAD WOODSTOCK WEST 3463",
    "locID": "LOC000022554974",
    "tech": "WIRELESS",
    "upgrade": "NULL_NA",
    "gnaf_pid": "GAVIC422033193",
    "tech_change_status": "Not Planned",
    "program_type": "Fixed Wireless and Satellite Upgrade Program",
    "target_eligibility_quarter": "NA"
   }
  },
  {
   "type": "Feature",
   "geometry": {
    "type": "Point",
    "coordinates": [
     143.9995872,
     -36.79557554
    ]
   },
   "properties": {
    "name": "684 ANGLE ROAD WOODSTOCK WEST 3463",
    "locID": "LOC000092359289",
    "tech": "WIRELESS",
    "upgrade": "NULL_NA",
    "gnaf_pid": "GAVIC422123519",
    "tech_change_status": "Not Planned",
    "program_type": "Fixed Wireless and Satellite Upgrade Program",
    "target_eligibility_quarter": "NA"
   }
  },
  {
   "type": "Feature",
   "geometry": {
    "type": "Point",
    "coordinates": [
     143.96891096,
     -36.83471315
    ]
   },
   "properties": {
    "name": "56 WOODSTOCK ROAD WOODSTOCK WEST 3463",
    "locID": "LOC000023711479",
    "tech": "WIRELESS",
    "upgrade": "NULL_NA",
    "gnaf_pid": "GAVIC422205012",
    "tech_change_status": "Not Planned",
    "program_type": "Fixed Wireless and Satellite Upgrade Program",
    "target_eligibility_quarter": "NA"
   }
  },
  {
   "type": "Feature",
   "geometry": {
    "type": "Point",
    "coordinates": [
     144.02911277,
     -36.80799604
    ]
   },
   "properties": {
    "name": "443 NEIVANDTS ROAD WOODSTOCK WEST 3463",
    "locID": "LOC000050688714",
    "tech": "SATELLITE",
    "upgrade": "NULL_NA",
    "gnaf_pid": "GAVIC423890121",
    "tech_change_status": "Not Planned"
   }
  }
 ]
}