{
 "type": "FeatureCollection",
 "generated": "2024-09-24T13:14:42.975708",
 "suburb": "WOODSTOCK ON LODDON",
 "features": [
  {
   "type": "Feature",
   "geometry": {
    "type": "Point",
    "coordinates": [
     143.98660625,
     -36.76777918
    ]
   },
   "properties": {
    "name": "736 NEWBRIDGE ROAD WOODSTOCK ON LODDON 3551",
    "locID": "LOC000079714393",
    "tech": "WIRELESS",
    "upgrade": "NULL_NA",
    "gnaf_pid": "GAVIC412631913",
    "tech_change_status": "Not Planned",
    "program_type": "Fixed Wireless and Satellite Upgrade Program",
    "target_eligibility_quarter": "NA"
   }
  },
  {
   "type": "Feature",
   "geometry": {
    "type": "Point",
    "coordinates": [
     144.00523956,
     -36.77516957
    ]
   },
   "properties": {
    "name": "922 NEWBRIDGE ROAD WOODSTOCK ON LODDON 3551",
    "locID": "LOC000042496923",
    "tech": "WIRELESS",
    "upgrade": "NULL_NA",
    "gnaf_pid": "GAVIC412631917",
    "tech_change_status": "Not Planned",
    "program_type": "Fixed Wireless and Satellite Upgrade Program",
    "target_eligibility_quarter": "NA"
   }
  },
  {
   "type": "Feature",
   "geometry": {
    "type": "Point",
    "coordinates": [
     144.00335563,
     -36.77392164
    ]
   },
   "properties": {
    "name": "901 NEWBRIDGE ROAD WOODSTOCK ON LODDON 3551",
    "locID": "LOC000051575442",
    "tech": "WIRELESS",
    "upgrade": "NULL_NA",
    "gnaf_pid": "GAVIC421472225",
    "tech_change_status": "Not Planned",
    "program_type": "Fixed Wireless and Satellite Upgrade Program",
    "target_eligibility_quarter": "NA"
   }
  },
  {
   "type": "Feature",
   "geometry": {
    "type": "Point",
    "coordinates": [
     144.01515329,
     -36.77378951
    ]
   },
   "properties": {
    "name": "293 CHURCH ROAD WOODSTOCK ON LODDON 3551",
    "locID": "LOC000027758091",
    "tech": "WIRELESS",
    "upgrade": "NULL_NA",
    "gnaf_pid": "GAVIC421985203",
    "tech_change_status": "Not Planned",
    "program_type": "Fixed Wireless and Satellite Upgrade Program",
    "target_eligibility_quarter": "NA"
   }
  },
  {
   "type": "Feature",
   "geometry": {
    "type": "Point",
    "coordinates": [
     144.01549071,
     -36.77241858
    ]
   },
   "properties": {
    "name": "275 CHURCH ROAD WOODSTOCK ON LODDON 3551",
    "locID": "LOC000039252347",
    "tech": "WIRELESS",
    "upgrade": "NULL_NA",
    "gnaf_pid": "GAVIC421987660",
    "tech_change_status": "Not Planned",
    "program_type": "Fixed Wireless and Satellite Upgrade Program",
    "target_eligibility_quarter": "NA"
   }
  },
  {
   "type": "Feature",
   "geometry": {
    "type": "Point",
    "coordinates": [
     144.03033479,
     -36.78581744
    ]
   },
   "properties": {
    "name": "396 BURROWS ROAD WOODSTOCK ON LODDON 3551",
    "locID": "LOC000083696377",
    "tech": "WIRELESS",
    "upgrade": "NULL_NA",
    "gnaf_pid": "GAVIC422132593",
    "tech_change_status": "Not Planned",
    "program_type": "Fixed Wireless and Satellite Upgrade Program",
    "target_eligibility_quarter": "NA"
   }
  },
  {
   "type": "Feature",
   "geometry": {
    "type": "Point",
    "coordinates": [
     143.95195194,
     -36.76734401
    ]
   },
   "properties": {
    "name": "241 LAVEROCK ROAD WOODSTOCK ON LODDON 3551",
    "locID": "LOC000113324201",
    "tech": "WIRELESS",
    "upgrade": "NULL_NA",
    "gnaf_pid": "GAVIC422163552",
    "tech_change_status": "Not Planned",
    "program_type": "Fixed Wireless and Satellite Upgrade Program",
    "target_eligibility_quarter": "NA"
   }
  },
  {
   "type": "Feature",
   "geometry": {
    "type": "Point",
    "coordinates": [
     144.04216351,
     -36.7820876
    ]
   },
   "properties": {
    "name": "1265 NEWBRIDGE ROAD WOODSTOCK ON LODDON 3551",
    "locID": "LOC000084831877",
    "tech": "WIRELESS",
    "upgrade": "NULL_NA",
    "gnaf_pid": "GAVIC422176876",
    "tech_change_status": "Not Planned",
    "program_type": "Fixed Wireless and Satellite Upgrade Program",
    "target_eligibility_quarter": "NA"
   }
  },
  {
   "type": "Feature",
   "geometry": {
    "type": "Point",
    "coordinates": [
     144.05654912,
     -36.78343046
    ]
   },
   "properties": {
    "name": "412 POWERS ROAD WOODSTOCK ON LODDON 3551",
    "locID": "LOC000124817904",
    "tech": "SATELLITE",
    "upgrade": "NULL_NA",
    "gnaf_pid": "GAVIC424978205",
    "tech_change_status": "Not Planned"
   }
  },
  {
   "type": "Feature",
   "geometry": {
    "type": "Point",
    "coordinates": [
     144.05237581,
     -36.78497237
    ]
   },
   "properties": {
    "name": "1355 NEWBRIDGE ROAD WOODSTOCK ON LODDON 3551",
    "locID": "LOC000150283923",
    "tech": "WIRELESS",
    "upgrade": "NULL_NA",
    "gnaf_pid": "GAVIC425340344",
    "tech_change_status": "Not Planned"
   }
  }
 ]
}