{
 "type": "FeatureCollection",
 "generated": "2024-09-24T14:24:03.398452",
 "suburb": "YEUNGROON EAST",
 "features": [
  {
   "type": "Feature",
   "geometry": {
    "type": "Point",
    "coordinates": [
     143.42484358,
     -36.3554861
    ]
   },
   "properties": {
    "name": "347 YEUNGROON-WOOSANG ROAD YEUNGROON EAST 3525",
    "locID": "LOC000034159868",
    "tech": "SATELLITE",
    "upgrade": "NULL_NA",
    "gnaf_pid": "GAVIC422031742",
    "tech_change_status": "Not Planned"
   }
  },
  {
   "type": "Feature",
   "geometry": {
    "type": "Point",
    "coordinates": [
     143.41655805,
     -36.37112931
    ]
   },
   "properties": {
    "name": "271 BARTLETTS ROAD YEUNGROON EAST 3525",
    "locID": "LOC000007109988",
    "tech": "SATELLITE",
    "upgrade": "NULL_NA",
    "gnaf_pid": "GAVIC422033004",
    "tech_change_status": "Not Planned"
   }
  },
  {
   "type": "Feature",
   "geometry": {
    "type": "Point",
    "coordinates": [
     143.41279955,
     -36.37248513
    ]
   },
   "properties": {
    "name": "238 BARTLETTS ROAD YEUNGROON EAST 3525",
    "locID": "LOC000043323533",
    "tech": "NULL",
    "upgrade": "NULL_NA",
    "gnaf_pid": "GAVIC422126297",
    "tech_change_status": "Not Planned"
   }
  },
  {
   "type": "Feature",
   "geometry": {
    "type": "Point",
    "coordinates": [
     143.4109519,
     -36.35884064
    ]
   },
   "properties": {
    "name": "224 YEUNGROON-WOOSANG ROAD YEUNGROON EAST 3525",
    "locID": "LOC000124769304",
    "tech": "WIRELESS",
    "upgrade": "NULL_NA",
    "gnaf_pid": "GAVIC422205872",
    "tech_change_status": "Not Planned"
   }
  },
  {
   "type": "Feature",
   "geometry": {
    "type": "Point",
    "coordinates": [
     143.44840994,
     -36.35654653
    ]
   },
   "properties": {
    "name": "558 YEUNGROON-WOOSANG ROAD YEUNGROON EAST 3525",
    "locID": "LOC000033506694",
    "tech": "NULL",
    "upgrade": "NULL_NA",
    "gnaf_pid": "GAVIC422205873",
    "tech_change_status": "Not Planned"
   }
  },
  {
   "type": "Feature",
   "geometry": {
    "type": "Point",
    "coordinates": [
     143.45405935,
     -36.35548423
    ]
   },
   "properties": {
    "name": "611 YEUNGROON-WOOSANG ROAD YEUNGROON EAST 3525",
    "locID": "LOC000018603532",
    "tech": "SATELLITE",
    "upgrade": "NULL_NA",
    "gnaf_pid": "GAVIC422205874",
    "tech_change_status": "Not Planned"
   }
  },
  {
   "type": "Feature",
   "geometry": {
    "type": "Point",
    "coordinates": [
     143.3880602,
     -36.34158053
    ]
   },
   "properties": {
    "name": "494 YEUNGROON ROAD YEUNGROON EAST 3525",
    "locID": "LOC000007789193",
    "tech": "SATELLITE",
    "upgrade": "NULL_NA",
    "gnaf_pid": "GAVIC422205877",
    "tech_change_status": "Not Planned"
   }
  },
  {
   "type": "Feature",
   "geometry": {
    "type": "Point",
    "coordinates": [
     143.42347634,
     -36.37959215
    ]
   },
   "properties": {
    "name": "90 HILLIARDS LANE YEUNGROON EAST 3525",
    "locID": "LOC000060377104",
    "tech": "SATELLITE",
    "upgrade": "NULL_NA",
    "gnaf_pid": "GAVIC423884229",
    "tech_change_status": "Not Planned"
   }
  },
  {
   "type": "Feature",
   "geometry": {
    "type": "Point",
    "coordinates": [
     143.42096334,
     -36.32875506
    ]
   },
   "properties": {
    "name": "478 ADAMS ROAD YEUNGROON EAST 3525",
    "locID": "LOC000025321461",
    "tech": "SATELLITE",
    "upgrade": "NULL_NA",
    "gnaf_pid": "GAVIC424058858",
    "tech_change_status": "Not Planned"
   }
  }
 ]
}