{
 "type": "FeatureCollection",
 "generated": "2023-12-01T12:53:31.396261",
 "suburb": "YEUNGROON EAST",
 "features": [
  {
   "type": "Feature",
   "geometry": {
    "type": "Point",
    "coordinates": [
     143.42484358,
     -36.3554861
    ]
   },
   "properties": {
    "name": "347 YEUNGROON-WOOSANG ROAD YEUNGROON EAST 3525",
    "locID": "LOC000034159868",
    "tech": "SATELLITE",
    "upgrade": "NULL_NA",
    "gnaf_pid": "GAVIC422031742"
   }
  },
  {
   "type": "Feature",
   "geometry": {
    "type": "Point",
    "coordinates": [
     143.41655805,
     -36.37112931
    ]
   },
   "properties": {
    "name": "271 BARTLETTS ROAD YEUNGROON EAST 3525",
    "locID": "LOC000007109988",
    "tech": "SATELLITE",
    "upgrade": "NULL_NA",
    "gnaf_pid": "GAVIC422033004"
   }
  },
  {
   "type": "Feature",
   "geometry": {
    "type": "Point",
    "coordinates": [
     143.41279955,
     -36.37248513
    ]
   },
   "properties": {
    "name": "238 BARTLETTS ROAD YEUNGROON EAST 3525",
    "locID": "LOC000043323533",
    "tech": "SATELLITE",
    "upgrade": "NULL_NA",
    "gnaf_pid": "GAVIC422126297"
   }
  },
  {
   "type": "Feature",
   "geometry": {
    "type": "Point",
    "coordinates": [
     143.4109519,
     -36.35884064
    ]
   },
   "properties": {
    "name": "224 YEUNGROON-WOOSANG ROAD YEUNGROON EAST 3525",
    "locID": "LOC000124769304",
    "tech": "SATELLITE",
    "upgrade": "NULL_NA",
    "gnaf_pid": "GAVIC422205872"
   }
  },
  {
   "type": "Feature",
   "geometry": {
    "type": "Point",
    "coordinates": [
     143.44840994,
     -36.35654653
    ]
   },
   "properties": {
    "name": "558 YEUNGROON-WOOSANG ROAD YEUNGROON EAST 3525",
    "locID": "LOC000033506694",
    "tech": "SATELLITE",
    "upgrade": "NULL_NA",
    "gnaf_pid": "GAVIC422205873"
   }
  },
  {
   "type": "Feature",
   "geometry": {
    "type": "Point",
    "coordinates": [
     143.45405935,
     -36.35548423
    ]
   },
   "properties": {
    "name": "611 YEUNGROON-WOOSANG ROAD YEUNGROON EAST 3525",
    "locID": "LOC000018603532",
    "tech": "SATELLITE",
    "upgrade": "NULL_NA",
    "gnaf_pid": "GAVIC422205874"
   }
  },
  {
   "type": "Feature",
   "geometry": {
    "type": "Point",
    "coordinates": [
     143.3880602,
     -36.34158053
    ]
   },
   "properties": {
    "name": "494 YEUNGROON ROAD YEUNGROON EAST 3525",
    "locID": "LOC000007789193",
    "tech": "SATELLITE",
    "upgrade": "NULL_NA",
    "gnaf_pid": "GAVIC422205877"
   }
  },
  {
   "type": "Feature",
   "geometry": {
    "type": "Point",
    "coordinates": [
     143.41597212,
     -36.38642451
    ]
   },
   "properties": {
    "name": "1 NINE MILE ROAD YEUNGROON EAST 3525",
    "locID": "ChIJWZuRvo1_2moRcAP2mcCMtGg",
    "tech": "SATELLITE",
    "upgrade": "UNKNOWN",
    "gnaf_pid": "GAVIC423565028"
   }
  },
  {
   "type": "Feature",
   "geometry": {
    "type": "Point",
    "coordinates": [
     143.42301346,
     -36.37889658
    ]
   },
   "properties": {
    "name": "816 HILLIARDS LANE YEUNGROON EAST 3525",
    "locID": "ChIJ7w-BHZh_2moRYSSoKmrmP-Y",
    "tech": "SATELLITE",
    "upgrade": "UNKNOWN",
    "gnaf_pid": "GAVIC423810923"
   }
  },
  {
   "type": "Feature",
   "geometry": {
    "type": "Point",
    "coordinates": [
     143.42347634,
     -36.37959215
    ]
   },
   "properties": {
    "name": "90 HILLIARDS LANE YEUNGROON EAST 3525",
    "locID": "LOC000060377104",
    "tech": "SATELLITE",
    "upgrade": "NULL_NA",
    "gnaf_pid": "GAVIC423884229"
   }
  },
  {
   "type": "Feature",
   "geometry": {
    "type": "Point",
    "coordinates": [
     143.46035635,
     -36.37883315
    ]
   },
   "properties": {
    "name": "341 LANG ROAD YEUNGROON EAST 3525",
    "locID": "ChIJ53aE38V-2moRKQlRCv8QV0A",
    "tech": "SATELLITE",
    "upgrade": "UNKNOWN",
    "gnaf_pid": "GAVIC423886298"
   }
  },
  {
   "type": "Feature",
   "geometry": {
    "type": "Point",
    "coordinates": [
     143.42096334,
     -36.32875506
    ]
   },
   "properties": {
    "name": "478 ADAMS ROAD YEUNGROON EAST 3525",
    "locID": "LOC000025321461",
    "tech": "SATELLITE",
    "upgrade": "NULL_NA",
    "gnaf_pid": "GAVIC424058858"
   }
  },
  {
   "type": "Feature",
   "geometry": {
    "type": "Point",
    "coordinates": [
     143.43899466,
     -36.37736792
    ]
   },
   "properties": {
    "name": "41 FOLEYS HILL ROAD YEUNGROON EAST 3525",
    "locID": "EjJGb2xleXMgSGlsbCBSZCwgWWV1bmdyb29uIEVhc3QgVklDIDM1MjUsIEF1c3RyYWxpYSIuKiwKFAoSCcGvjDEJf9pqEUTuuk8aRU9_EhQKEgmrczeM_n7aahFAnaAwpHkFBA",
    "tech": "SATELLITE",
    "upgrade": "UNKNOWN",
    "gnaf_pid": "GAVIC424094727"
   }
  },
  {
   "type": "Feature",
   "geometry": {
    "type": "Point",
    "coordinates": [
     143.41597212,
     -36.38642451
    ]
   },
   "properties": {
    "name": "85 NINE MILE ROAD YEUNGROON EAST 3525",
    "locID": "ChIJWZuRvo1_2moRgJvqbVBciHg",
    "tech": "SATELLITE",
    "upgrade": "UNKNOWN",
    "gnaf_pid": "GAVIC424898653"
   }
  }
 ]
}