{
 "type": "FeatureCollection",
 "generated": "2024-07-28T03:41:18.025329",
 "suburb": "BAMARANG",
 "features": [
  {
   "type": "Feature",
   "geometry": {
    "type": "Point",
    "coordinates": [
     150.52084853,
     -34.89392795
    ]
   },
   "properties": {
    "name": "145 BAMARANG ROAD BAMARANG 2540",
    "locID": "LOC000064019743",
    "tech": "SATELLITE",
    "upgrade": "NULL_NA",
    "gnaf_pid": "GANSW704002481",
    "tech_change_status": "Not Planned"
   }
  },
  {
   "type": "Feature",
   "geometry": {
    "type": "Point",
    "coordinates": [
     150.51534342,
     -34.89310733
    ]
   },
   "properties": {
    "name": "190 BAMARANG ROAD BAMARANG 2540",
    "locID": "LOC000109189359",
    "tech": "SATELLITE",
    "upgrade": "NULL_NA",
    "gnaf_pid": "GANSW704002482",
    "tech_change_status": "Not Planned"
   }
  },
  {
   "type": "Feature",
   "geometry": {
    "type": "Point",
    "coordinates": [
     150.51295602,
     -34.89442972
    ]
   },
   "properties": {
    "name": "241 BAMARANG ROAD BAMARANG 2540",
    "locID": "LOC000045849793",
    "tech": "SATELLITE",
    "upgrade": "NULL_NA",
    "gnaf_pid": "GANSW704002483",
    "tech_change_status": "Not Planned"
   }
  },
  {
   "type": "Feature",
   "geometry": {
    "type": "Point",
    "coordinates": [
     150.52438922,
     -34.88296774
    ]
   },
   "properties": {
    "name": "48 BAMARANG ROAD BAMARANG 2540",
    "locID": "LOC000041284130",
    "tech": "SATELLITE",
    "upgrade": "NULL_NA",
    "gnaf_pid": "GANSW704002484",
    "tech_change_status": "Not Planned"
   }
  },
  {
   "type": "Feature",
   "geometry": {
    "type": "Point",
    "coordinates": [
     150.52546722,
     -34.88929206
    ]
   },
   "properties": {
    "name": "72 BAMARANG ROAD BAMARANG 2540",
    "locID": "LOC000052692644",
    "tech": "SATELLITE",
    "upgrade": "NULL_NA",
    "gnaf_pid": "GANSW704002485",
    "tech_change_status": "Not Planned"
   }
  },
  {
   "type": "Feature",
   "geometry": {
    "type": "Point",
    "coordinates": [
     150.52444753,
     -34.88149531
    ]
   },
   "properties": {
    "name": "171 LONGREACH ROAD BAMARANG 2540",
    "locID": "LOC000007227562",
    "tech": "SATELLITE",
    "upgrade": "NULL_NA",
    "gnaf_pid": "GANSW704002486",
    "tech_change_status": "Not Planned"
   }
  },
  {
   "type": "Feature",
   "geometry": {
    "type": "Point",
    "coordinates": [
     150.52913414,
     -34.88671294
    ]
   },
   "properties": {
    "name": "85 LONGREACH ROAD BAMARANG 2540",
    "locID": "LOC000082109198",
    "tech": "WIRELESS",
    "upgrade": "NULL_NA",
    "gnaf_pid": "GANSW704002487",
    "tech_change_status": "Not Planned",
    "program_type": "Fixed Wireless and Satellite Upgrade Program",
    "target_eligibility_quarter": "NA"
   }
  },
  {
   "type": "Feature",
   "geometry": {
    "type": "Point",
    "coordinates": [
     150.51696122,
     -34.89333782
    ]
   },
   "properties": {
    "name": "38 BAMARANG ROAD BAMARANG 2540",
    "locID": "LOC000121312076",
    "tech": "SATELLITE",
    "upgrade": "NULL_NA",
    "gnaf_pid": "GANSW717460005",
    "tech_change_status": "Not Planned"
   }
  },
  {
   "type": "Feature",
   "geometry": {
    "type": "Point",
    "coordinates": [
     150.49977006,
     -34.90392145
    ]
   },
   "properties": {
    "name": "420 BAMARANG ROAD BAMARANG 2540",
    "locID": "LOC000115107758",
    "tech": "SATELLITE",
    "upgrade": "NULL_NA",
    "gnaf_pid": "GANSW718084705",
    "tech_change_status": "Not Planned"
   }
  },
  {
   "type": "Feature",
   "geometry": {
    "type": "Point",
    "coordinates": [
     150.52137788,
     -34.91468672
    ]
   },
   "properties": {
    "name": "257C GANNET ROAD BAMARANG 2540",
    "locID": "LOC100056409449",
    "tech": "WIRELESS",
    "upgrade": "NULL_NA",
    "gnaf_pid": "GANSW718801372",
    "tech_change_status": "Not Planned",
    "program_type": "Fixed Wireless and Satellite Upgrade Program",
    "target_eligibility_quarter": "NA"
   }
  },
  {
   "type": "Feature",
   "geometry": {
    "type": "Point",
    "coordinates": [
     150.51593262,
     -34.91520682
    ]
   },
   "properties": {
    "name": "257D GANNET ROAD BAMARANG 2540",
    "locID": "LOC100056409465",
    "tech": "SATELLITE",
    "upgrade": "NULL_NA",
    "gnaf_pid": "GANSW718801373",
    "tech_change_status": "Not Planned"
   }
  },
  {
   "type": "Feature",
   "geometry": {
    "type": "Point",
    "coordinates": [
     150.51171033,
     -34.91831435
    ]
   },
   "properties": {
    "name": "257E GANNET ROAD BAMARANG 2540",
    "locID": "LOC100056409483",
    "tech": "SATELLITE",
    "upgrade": "NULL_NA",
    "gnaf_pid": "GANSW718801374",
    "tech_change_status": "Not Planned"
   }
  },
  {
   "type": "Feature",
   "geometry": {
    "type": "Point",
    "coordinates": [
     150.51303367,
     -34.92270142
    ]
   },
   "properties": {
    "name": "257F GANNET ROAD BAMARANG 2540",
    "locID": "LOC100056409431",
    "tech": "SATELLITE",
    "upgrade": "NULL_NA",
    "gnaf_pid": "GANSW718801375",
    "tech_change_status": "Not Planned"
   }
  },
  {
   "type": "Feature",
   "geometry": {
    "type": "Point",
    "coordinates": [
     150.52268796,
     -34.91943812
    ]
   },
   "properties": {
    "name": "257G GANNET ROAD BAMARANG 2540",
    "locID": "LOC100056409454",
    "tech": "WIRELESS",
    "upgrade": "NULL_NA",
    "gnaf_pid": "GANSW718801376",
    "tech_change_status": "Not Planned",
    "program_type": "Fixed Wireless and Satellite Upgrade Program",
    "target_eligibility_quarter": "NA"
   }
  },
  {
   "type": "Feature",
   "geometry": {
    "type": "Point",
    "coordinates": [
     150.52393898,
     -34.89633771
    ]
   },
   "properties": {
    "name": "682 YALWAL ROAD BAMARANG 2540",
    "locID": "LOC100086134414",
    "tech": "SATELLITE",
    "upgrade": "NULL_NA",
    "gnaf_pid": "GANSW720994098",
    "tech_change_status": "Not Planned"
   }
  }
 ]
}