{
 "type": "FeatureCollection",
 "generated": "2023-12-03T13:20:55.710205",
 "suburb": "BAMARANG",
 "features": [
  {
   "type": "Feature",
   "geometry": {
    "type": "Point",
    "coordinates": [
     150.52084853,
     -34.89392795
    ]
   },
   "properties": {
    "name": "145 BAMARANG ROAD BAMARANG 2540",
    "locID": "LOC000064019743",
    "tech": "SATELLITE",
    "upgrade": "NULL_NA",
    "gnaf_pid": "GANSW704002481"
   }
  },
  {
   "type": "Feature",
   "geometry": {
    "type": "Point",
    "coordinates": [
     150.51534342,
     -34.89310733
    ]
   },
   "properties": {
    "name": "190 BAMARANG ROAD BAMARANG 2540",
    "locID": "LOC000109189359",
    "tech": "SATELLITE",
    "upgrade": "NULL_NA",
    "gnaf_pid": "GANSW704002482"
   }
  },
  {
   "type": "Feature",
   "geometry": {
    "type": "Point",
    "coordinates": [
     150.51295602,
     -34.89442972
    ]
   },
   "properties": {
    "name": "241 BAMARANG ROAD BAMARANG 2540",
    "locID": "LOC000045849793",
    "tech": "SATELLITE",
    "upgrade": "NULL_NA",
    "gnaf_pid": "GANSW704002483"
   }
  },
  {
   "type": "Feature",
   "geometry": {
    "type": "Point",
    "coordinates": [
     150.52438922,
     -34.88296774
    ]
   },
   "properties": {
    "name": "48 BAMARANG ROAD BAMARANG 2540",
    "locID": "LOC000041284130",
    "tech": "SATELLITE",
    "upgrade": "NULL_NA",
    "gnaf_pid": "GANSW704002484"
   }
  },
  {
   "type": "Feature",
   "geometry": {
    "type": "Point",
    "coordinates": [
     150.52546722,
     -34.88929206
    ]
   },
   "properties": {
    "name": "72 BAMARANG ROAD BAMARANG 2540",
    "locID": "LOC000052692644",
    "tech": "SATELLITE",
    "upgrade": "NULL_NA",
    "gnaf_pid": "GANSW704002485"
   }
  },
  {
   "type": "Feature",
   "geometry": {
    "type": "Point",
    "coordinates": [
     150.52444753,
     -34.88149531
    ]
   },
   "properties": {
    "name": "171 LONGREACH ROAD BAMARANG 2540",
    "locID": "LOC000007227562",
    "tech": "SATELLITE",
    "upgrade": "NULL_NA",
    "gnaf_pid": "GANSW704002486"
   }
  },
  {
   "type": "Feature",
   "geometry": {
    "type": "Point",
    "coordinates": [
     150.52913414,
     -34.88671294
    ]
   },
   "properties": {
    "name": "85 LONGREACH ROAD BAMARANG 2540",
    "locID": "LOC000082109198",
    "tech": "WIRELESS",
    "upgrade": "NULL_NA",
    "gnaf_pid": "GANSW704002487"
   }
  },
  {
   "type": "Feature",
   "geometry": {
    "type": "Point",
    "coordinates": [
     150.52560353,
     -34.90300886
    ]
   },
   "properties": {
    "name": "681 YALWAL ROAD BAMARANG 2540",
    "locID": "ChIJL5sUv_F-FGsRNcglEAuXG5M",
    "tech": "WIRELESS",
    "upgrade": "UNKNOWN",
    "gnaf_pid": "GANSW704004251"
   }
  },
  {
   "type": "Feature",
   "geometry": {
    "type": "Point",
    "coordinates": [
     150.51534342,
     -34.89310733
    ]
   },
   "properties": {
    "name": "190A BAMARANG ROAD BAMARANG 2540",
    "locID": "ChIJp7sYJed-FGsRr0iALbt26Yw",
    "tech": "SATELLITE",
    "upgrade": "UNKNOWN",
    "gnaf_pid": "GANSW716592467"
   }
  },
  {
   "type": "Feature",
   "geometry": {
    "type": "Point",
    "coordinates": [
     150.51696122,
     -34.89333782
    ]
   },
   "properties": {
    "name": "38 BAMARANG ROAD BAMARANG 2540",
    "locID": "LOC000121312076",
    "tech": "SATELLITE",
    "upgrade": "NULL_NA",
    "gnaf_pid": "GANSW717460005"
   }
  },
  {
   "type": "Feature",
   "geometry": {
    "type": "Point",
    "coordinates": [
     150.52200205,
     -34.90077088
    ]
   },
   "properties": {
    "name": "1012 YALWAL ROAD BAMARANG 2540",
    "locID": "ChIJN1SGse9-FGsRf3z7LsYcpA0",
    "tech": "SATELLITE",
    "upgrade": "UNKNOWN",
    "gnaf_pid": "GANSW717608738"
   }
  },
  {
   "type": "Feature",
   "geometry": {
    "type": "Point",
    "coordinates": [
     150.51117785,
     -34.89921153
    ]
   },
   "properties": {
    "name": "782 YALWAL ROAD BAMARANG 2540",
    "locID": "ChIJVUsTwsF-FGsRzy15XkKHxHs",
    "tech": "SATELLITE",
    "upgrade": "UNKNOWN",
    "gnaf_pid": "GANSW717608739"
   }
  },
  {
   "type": "Feature",
   "geometry": {
    "type": "Point",
    "coordinates": [
     150.50645374,
     -34.92229118
    ]
   },
   "properties": {
    "name": "967 YALWAL ROAD BAMARANG 2540",
    "locID": "ChIJ79aGBpl-FGsRyY5BCQWR4W4",
    "tech": "SATELLITE",
    "upgrade": "UNKNOWN",
    "gnaf_pid": "GANSW717608740"
   }
  },
  {
   "type": "Feature",
   "geometry": {
    "type": "Point",
    "coordinates": [
     150.52200205,
     -34.90077088
    ]
   },
   "properties": {
    "name": "UNIT 2, 1012 YALWAL ROAD BAMARANG 2540",
    "locID": "ChIJN1SGse9-FGsRf3z7LsYcpA0",
    "tech": "SATELLITE",
    "upgrade": "UNKNOWN",
    "gnaf_pid": "GANSW717798672"
   }
  },
  {
   "type": "Feature",
   "geometry": {
    "type": "Point",
    "coordinates": [
     150.49977006,
     -34.90392145
    ]
   },
   "properties": {
    "name": "420 BAMARANG ROAD BAMARANG 2540",
    "locID": "LOC000115107758",
    "tech": "SATELLITE",
    "upgrade": "NULL_NA",
    "gnaf_pid": "GANSW718084705"
   }
  },
  {
   "type": "Feature",
   "geometry": {
    "type": "Point",
    "coordinates": [
     150.52137788,
     -34.91468672
    ]
   },
   "properties": {
    "name": "257C GANNET ROAD BAMARANG 2540",
    "locID": "LOC100056409449",
    "tech": "WIRELESS",
    "upgrade": "NULL_NA",
    "gnaf_pid": "GANSW718801372"
   }
  },
  {
   "type": "Feature",
   "geometry": {
    "type": "Point",
    "coordinates": [
     150.51593262,
     -34.91520682
    ]
   },
   "properties": {
    "name": "257D GANNET ROAD BAMARANG 2540",
    "locID": "LOC100056409465",
    "tech": "SATELLITE",
    "upgrade": "NULL_NA",
    "gnaf_pid": "GANSW718801373"
   }
  },
  {
   "type": "Feature",
   "geometry": {
    "type": "Point",
    "coordinates": [
     150.51171033,
     -34.91831435
    ]
   },
   "properties": {
    "name": "257E GANNET ROAD BAMARANG 2540",
    "locID": "LOC100056409483",
    "tech": "SATELLITE",
    "upgrade": "NULL_NA",
    "gnaf_pid": "GANSW718801374"
   }
  },
  {
   "type": "Feature",
   "geometry": {
    "type": "Point",
    "coordinates": [
     150.51303367,
     -34.92270142
    ]
   },
   "properties": {
    "name": "257F GANNET ROAD BAMARANG 2540",
    "locID": "LOC100056409431",
    "tech": "SATELLITE",
    "upgrade": "NULL_NA",
    "gnaf_pid": "GANSW718801375"
   }
  },
  {
   "type": "Feature",
   "geometry": {
    "type": "Point",
    "coordinates": [
     150.52268796,
     -34.91943812
    ]
   },
   "properties": {
    "name": "257G GANNET ROAD BAMARANG 2540",
    "locID": "LOC100056409454",
    "tech": "WIRELESS",
    "upgrade": "NULL_NA",
    "gnaf_pid": "GANSW718801376"
   }
  },
  {
   "type": "Feature",
   "geometry": {
    "type": "Point",
    "coordinates": [
     150.52429597,
     -34.89702712
    ]
   },
   "properties": {
    "name": "682 YALWAL ROAD BAMARANG 2540",
    "locID": "ChIJFXVgYuR-FGsRae3HLkrMdZg",
    "tech": "SATELLITE",
    "upgrade": "UNKNOWN",
    "gnaf_pid": "GANSW720994098"
   }
  },
  {
   "type": "Feature",
   "geometry": {
    "type": "Point",
    "coordinates": [
     150.52061412,
     -34.89249027
    ]
   },
   "properties": {
    "name": "89 BAMARANG ROAD BAMARANG 2540",
    "locID": "ChIJFXVgYuR-FGsRZCN3cPJ2KBs",
    "tech": "SATELLITE",
    "upgrade": "UNKNOWN",
    "gnaf_pid": "GANSW720998987"
   }
  }
 ]
}