{
 "type": "FeatureCollection",
 "generated": "2024-09-29T04:09:55.602474",
 "suburb": "BELL",
 "features": [
  {
   "type": "Feature",
   "geometry": {
    "type": "Point",
    "coordinates": [
     150.27962384,
     -33.50520586
    ]
   },
   "properties": {
    "name": "18 SANDHAM ROAD BELL 2786",
    "locID": "LOC000028247566",
    "tech": "NULL",
    "upgrade": "NULL_NA",
    "gnaf_pid": "GANSW704058833",
    "tech_change_status": "Not Planned"
   }
  },
  {
   "type": "Feature",
   "geometry": {
    "type": "Point",
    "coordinates": [
     150.27524825,
     -33.50667997
    ]
   },
   "properties": {
    "name": "55-79 CHIFLEY ROAD BELL 2786",
    "locID": "LOC000027415101",
    "tech": "NULL",
    "upgrade": "NULL_NA",
    "gnaf_pid": "GANSW704071463",
    "tech_change_status": "Not Planned"
   }
  },
  {
   "type": "Feature",
   "geometry": {
    "type": "Point",
    "coordinates": [
     150.27742627,
     -33.50817258
    ]
   },
   "properties": {
    "name": "81 CHIFLEY ROAD BELL 2786",
    "locID": "LOC000064275035",
    "tech": "WIRELESS",
    "upgrade": "NULL_NA",
    "gnaf_pid": "GANSW704071464",
    "tech_change_status": "Not Planned",
    "program_type": "Fixed Wireless and Satellite Upgrade Program",
    "target_eligibility_quarter": "NA"
   }
  },
  {
   "type": "Feature",
   "geometry": {
    "type": "Point",
    "coordinates": [
     150.2788695,
     -33.51190888
    ]
   },
   "properties": {
    "name": "382-390 DARLING CAUSEWAY BELL 2786",
    "locID": "LOC000122218551",
    "tech": "WIRELESS",
    "upgrade": "NULL_NA",
    "gnaf_pid": "GANSW704071609",
    "tech_change_status": "Not Planned",
    "program_type": "Fixed Wireless and Satellite Upgrade Program",
    "target_eligibility_quarter": "NA"
   }
  },
  {
   "type": "Feature",
   "geometry": {
    "type": "Point",
    "coordinates": [
     150.26606177,
     -33.4996511
    ]
   },
   "properties": {
    "name": "1 CHIFLEY ROAD BELL 2786",
    "locID": "LOC000071354405",
    "tech": "WIRELESS",
    "upgrade": "NULL_NA",
    "gnaf_pid": "GANSW708553479",
    "tech_change_status": "Not Planned"
   }
  },
  {
   "type": "Feature",
   "geometry": {
    "type": "Point",
    "coordinates": [
     150.28280674,
     -33.50554092
    ]
   },
   "properties": {
    "name": "12 NIOKA PLACE BELL 2786",
    "locID": "LOC000019639532",
    "tech": "NULL",
    "upgrade": "NULL_NA",
    "gnaf_pid": "GANSW708567049",
    "tech_change_status": "Not Planned"
   }
  },
  {
   "type": "Feature",
   "geometry": {
    "type": "Point",
    "coordinates": [
     150.27948316,
     -33.50496256
    ]
   },
   "properties": {
    "name": "19 SANDHAM ROAD BELL 2786",
    "locID": "LOC000049751244",
    "tech": "NULL",
    "upgrade": "NULL_NA",
    "gnaf_pid": "GANSW712975536",
    "tech_change_status": "Not Planned"
   }
  },
  {
   "type": "Feature",
   "geometry": {
    "type": "Point",
    "coordinates": [
     150.28074974,
     -33.51049383
    ]
   },
   "properties": {
    "name": "134 CHIFLEY ROAD BELL 2786",
    "locID": "LOC000090854628",
    "tech": "WIRELESS",
    "upgrade": "NULL_NA",
    "gnaf_pid": "GANSW713012728",
    "tech_change_status": "Not Planned"
   }
  },
  {
   "type": "Feature",
   "geometry": {
    "type": "Point",
    "coordinates": [
     150.28044314,
     -33.50446054
    ]
   },
   "properties": {
    "name": "20 SANDHAM ROAD BELL 2786",
    "locID": "LOC000028087358",
    "tech": "NULL",
    "upgrade": "NULL_NA",
    "gnaf_pid": "GANSW713012736",
    "tech_change_status": "Not Planned"
   }
  },
  {
   "type": "Feature",
   "geometry": {
    "type": "Point",
    "coordinates": [
     150.27074794,
     -33.5159804
    ]
   },
   "properties": {
    "name": "338 DARLING CAUSEWAY BELL 2786",
    "locID": "LOC100077366112",
    "tech": "WIRELESS",
    "upgrade": "NULL_NA",
    "gnaf_pid": "GANSW713147696",
    "tech_change_status": "Not Planned"
   }
  },
  {
   "type": "Feature",
   "geometry": {
    "type": "Point",
    "coordinates": [
     150.27800663,
     -33.50343795
    ]
   },
   "properties": {
    "name": "16 SANDHAM ROAD BELL 2786",
    "locID": "LOC000067391258",
    "tech": "SATELLITE",
    "upgrade": "NULL_NA",
    "gnaf_pid": "GANSW713147697",
    "tech_change_status": "Not Planned"
   }
  },
  {
   "type": "Feature",
   "geometry": {
    "type": "Point",
    "coordinates": [
     150.26362739,
     -33.50159312
    ]
   },
   "properties": {
    "name": "3-25 CHIFLEY ROAD BELL 2786",
    "locID": "LOC000066701870",
    "tech": "WIRELESS",
    "upgrade": "NULL_NA",
    "gnaf_pid": "GANSW715363001",
    "tech_change_status": "Not Planned"
   }
  },
  {
   "type": "Feature",
   "geometry": {
    "type": "Point",
    "coordinates": [
     150.27439025,
     -33.50000112
    ]
   },
   "properties": {
    "name": "32-42 SANDHAM ROAD BELL 2786",
    "locID": "LOC000067391258",
    "tech": "SATELLITE",
    "upgrade": "NULL_NA",
    "gnaf_pid": "GANSW716082135",
    "tech_change_status": "Not Planned"
   }
  },
  {
   "type": "Feature",
   "geometry": {
    "type": "Point",
    "coordinates": [
     150.28307303,
     -33.5077258
    ]
   },
   "properties": {
    "name": "11-17 NIOKA PLACE BELL 2786",
    "locID": "LOC100078083576",
    "tech": "NULL",
    "upgrade": "NULL_NA",
    "gnaf_pid": "GANSW716413166",
    "tech_change_status": "Not Planned"
   }
  },
  {
   "type": "Feature",
   "geometry": {
    "type": "Point",
    "coordinates": [
     150.28280674,
     -33.50554092
    ]
   },
   "properties": {
    "name": "12A NIOKA PLACE BELL 2786",
    "locID": "LOC000019937891",
    "tech": "NULL",
    "upgrade": "NULL_NA",
    "gnaf_pid": "GANSW716637206",
    "tech_change_status": "Not Planned"
   }
  },
  {
   "type": "Feature",
   "geometry": {
    "type": "Point",
    "coordinates": [
     150.27076288,
     -33.52942837
    ]
   },
   "properties": {
    "name": "LOT 10 DARLING CAUSEWAY BELL 2786",
    "locID": "LOC100071970924",
    "tech": "WIRELESS",
    "upgrade": "NULL_NA",
    "gnaf_pid": "GANSW716655730",
    "tech_change_status": "Not Planned"
   }
  },
  {
   "type": "Feature",
   "geometry": {
    "type": "Point",
    "coordinates": [
     150.27076288,
     -33.52942837
    ]
   },
   "properties": {
    "name": "LOT 97 DARLING CAUSEWAY BELL 2786",
    "locID": "LOC000122218551",
    "tech": "WIRELESS",
    "upgrade": "NULL_NA",
    "gnaf_pid": "GANSW716655732",
    "tech_change_status": "Not Planned",
    "program_type": "Fixed Wireless and Satellite Upgrade Program",
    "target_eligibility_quarter": "NA"
   }
  },
  {
   "type": "Feature",
   "geometry": {
    "type": "Point",
    "coordinates": [
     150.29412215,
     -33.51487783
    ]
   },
   "properties": {
    "name": "46-70 BELLS LINE OF ROAD BELL 2786",
    "locID": "LOC100085344736",
    "tech": "NULL",
    "upgrade": "NULL_NA",
    "gnaf_pid": "GANSW717010769",
    "tech_change_status": "Not Planned"
   }
  },
  {
   "type": "Feature",
   "geometry": {
    "type": "Point",
    "coordinates": [
     150.27867496,
     -33.50197108
    ]
   },
   "properties": {
    "name": "28 SANDHAM ROAD BELL 2786",
    "locID": "LOC000107467649",
    "tech": "SATELLITE",
    "upgrade": "NULL_NA",
    "gnaf_pid": "GANSW717469358",
    "tech_change_status": "Not Planned"
   }
  },
  {
   "type": "Feature",
   "geometry": {
    "type": "Point",
    "coordinates": [
     150.2775781,
     -33.50117823
    ]
   },
   "properties": {
    "name": "30 SANDHAM ROAD BELL 2786",
    "locID": "LOC000022387838",
    "tech": "SATELLITE",
    "upgrade": "NULL_NA",
    "gnaf_pid": "GANSW717662798",
    "tech_change_status": "Not Planned"
   }
  },
  {
   "type": "Feature",
   "geometry": {
    "type": "Point",
    "coordinates": [
     150.28272522,
     -33.51093214
    ]
   },
   "properties": {
    "name": "1-4 SANDHAM ROAD BELL 2786",
    "locID": "LOC000067391258",
    "tech": "SATELLITE",
    "upgrade": "NULL_NA",
    "gnaf_pid": "GANSW717717614",
    "tech_change_status": "Not Planned"
   }
  },
  {
   "type": "Feature",
   "geometry": {
    "type": "Point",
    "coordinates": [
     150.27800663,
     -33.50343795
    ]
   },
   "properties": {
    "name": "LOT 28 SANDHAM ROAD BELL 2786",
    "locID": "LOC000107467649",
    "tech": "SATELLITE",
    "upgrade": "NULL_NA",
    "gnaf_pid": "GANSW717879019",
    "tech_change_status": "Not Planned"
   }
  },
  {
   "type": "Feature",
   "geometry": {
    "type": "Point",
    "coordinates": [
     150.27800663,
     -33.50343795
    ]
   },
   "properties": {
    "name": "LOT 30 SANDHAM ROAD BELL 2786",
    "locID": "LOC000022387838",
    "tech": "SATELLITE",
    "upgrade": "NULL_NA",
    "gnaf_pid": "GANSW717879020",
    "tech_change_status": "Not Planned"
   }
  },
  {
   "type": "Feature",
   "geometry": {
    "type": "Point",
    "coordinates": [
     150.27800663,
     -33.50343795
    ]
   },
   "properties": {
    "name": "LOT 32 SANDHAM ROAD BELL 2786",
    "locID": "LOC000067391258",
    "tech": "SATELLITE",
    "upgrade": "NULL_NA",
    "gnaf_pid": "GANSW717879021",
    "tech_change_status": "Not Planned"
   }
  },
  {
   "type": "Feature",
   "geometry": {
    "type": "Point",
    "coordinates": [
     150.28467771,
     -33.51124274
    ]
   },
   "properties": {
    "name": "6-16 BELLS LINE OF ROAD BELL 2786",
    "locID": "LOC000122222040",
    "tech": "WIRELESS",
    "upgrade": "NULL_NA",
    "gnaf_pid": "GANSW717943297",
    "tech_change_status": "Not Planned"
   }
  },
  {
   "type": "Feature",
   "geometry": {
    "type": "Point",
    "coordinates": [
     150.27997416,
     -33.50575242
    ]
   },
   "properties": {
    "name": "15-17 SANDHAM ROAD BELL 2786",
    "locID": "LOC000150739762",
    "tech": "SATELLITE",
    "upgrade": "NULL_NA",
    "gnaf_pid": "GANSW718423128",
    "tech_change_status": "Not Planned"
   }
  },
  {
   "type": "Feature",
   "geometry": {
    "type": "Point",
    "coordinates": [
     150.28339087,
     -33.51114942
    ]
   },
   "properties": {
    "name": "2-4 BELLS LINE OF ROAD BELL 2786",
    "locID": "LOC100085344736",
    "tech": "NULL",
    "upgrade": "NULL_NA",
    "gnaf_pid": "GANSW718526455",
    "tech_change_status": "Not Planned"
   }
  },
  {
   "type": "Feature",
   "geometry": {
    "type": "Point",
    "coordinates": [
     150.2794115,
     -33.51250589
    ]
   },
   "properties": {
    "name": "380 DARLING CAUSEWAY BELL 2786",
    "locID": "LOC100071970924",
    "tech": "WIRELESS",
    "upgrade": "NULL_NA",
    "gnaf_pid": "GANSW718558675",
    "tech_change_status": "Not Planned"
   }
  }
 ]
}