{
 "type": "FeatureCollection",
 "generated": "2024-09-08T16:56:48.250282",
 "suburb": "BOORGA",
 "features": [
  {
   "type": "Feature",
   "geometry": {
    "type": "Point",
    "coordinates": [
     146.02263223,
     -34.08256643
    ]
   },
   "properties": {
    "name": "2080 BOORGA ROAD BOORGA 2652",
    "locID": "LOC000114535633",
    "tech": "WIRELESS",
    "upgrade": "NULL_NA",
    "gnaf_pid": "GANSW717692154",
    "tech_change_status": "Not Planned",
    "program_type": "Fixed Wireless and Satellite Upgrade Program",
    "target_eligibility_quarter": "Dec 2024"
   }
  },
  {
   "type": "Feature",
   "geometry": {
    "type": "Point",
    "coordinates": [
     145.95289471,
     -33.95701155
    ]
   },
   "properties": {
    "name": "763 BRETAGS ROAD BOORGA 2652",
    "locID": "LOC000055089742",
    "tech": "NULL",
    "upgrade": "NULL_NA",
    "gnaf_pid": "GANSW717692706",
    "tech_change_status": "Not Planned"
   }
  },
  {
   "type": "Feature",
   "geometry": {
    "type": "Point",
    "coordinates": [
     146.01726374,
     -34.03693809
    ]
   },
   "properties": {
    "name": "32 JOHNSTONS ROAD BOORGA 2652",
    "locID": "LOC000001463582",
    "tech": "SATELLITE",
    "upgrade": "NULL_NA",
    "gnaf_pid": "GANSW717705120",
    "tech_change_status": "Not Planned"
   }
  },
  {
   "type": "Feature",
   "geometry": {
    "type": "Point",
    "coordinates": [
     145.97755239,
     -34.02925894
    ]
   },
   "properties": {
    "name": "418 JOHNSTONS ROAD BOORGA 2652",
    "locID": "LOC000013294776",
    "tech": "SATELLITE",
    "upgrade": "NULL_NA",
    "gnaf_pid": "GANSW717705121",
    "tech_change_status": "Not Planned"
   }
  },
  {
   "type": "Feature",
   "geometry": {
    "type": "Point",
    "coordinates": [
     146.03445536,
     -33.97201816
    ]
   },
   "properties": {
    "name": "1157 PINTEEBAKANA ROAD BOORGA 2652",
    "locID": "LOC000062261703",
    "tech": "SATELLITE",
    "upgrade": "NULL_NA",
    "gnaf_pid": "GANSW717715127",
    "tech_change_status": "Not Planned"
   }
  },
  {
   "type": "Feature",
   "geometry": {
    "type": "Point",
    "coordinates": [
     146.01653568,
     -33.9878166
    ]
   },
   "properties": {
    "name": "1350 PINTEEBAKANA ROAD BOORGA 2652",
    "locID": "LOC000046172138",
    "tech": "SATELLITE",
    "upgrade": "NULL_NA",
    "gnaf_pid": "GANSW717715128",
    "tech_change_status": "Not Planned"
   }
  },
  {
   "type": "Feature",
   "geometry": {
    "type": "Point",
    "coordinates": [
     146.03485086,
     -34.04353646
    ]
   },
   "properties": {
    "name": "2007 PINTEEBAKANA ROAD BOORGA 2652",
    "locID": "LOC000050514968",
    "tech": "NULL",
    "upgrade": "NULL_NA",
    "gnaf_pid": "GANSW717715129",
    "tech_change_status": "Not Planned"
   }
  },
  {
   "type": "Feature",
   "geometry": {
    "type": "Point",
    "coordinates": [
     146.04294741,
     -34.07604624
    ]
   },
   "properties": {
    "name": "2425 PINTEEBAKANA ROAD BOORGA 2652",
    "locID": "LOC000042149969",
    "tech": "WIRELESS",
    "upgrade": "NULL_NA",
    "gnaf_pid": "GANSW717715131",
    "tech_change_status": "Not Planned",
    "program_type": "Fixed Wireless and Satellite Upgrade Program",
    "target_eligibility_quarter": "Dec 2024"
   }
  },
  {
   "type": "Feature",
   "geometry": {
    "type": "Point",
    "coordinates": [
     146.06103828,
     -34.00279014
    ]
   },
   "properties": {
    "name": "135 PULLETOP ROAD BOORGA 2652",
    "locID": "LOC000041977196",
    "tech": "SATELLITE",
    "upgrade": "NULL_NA",
    "gnaf_pid": "GANSW717715824",
    "tech_change_status": "Not Planned"
   }
  },
  {
   "type": "Feature",
   "geometry": {
    "type": "Point",
    "coordinates": [
     146.06040996,
     -34.05731455
    ]
   },
   "properties": {
    "name": "570 ANDERSONS LANE BOORGA 2652",
    "locID": "LOC100079660921",
    "tech": "SATELLITE",
    "upgrade": "NULL_NA",
    "gnaf_pid": "GANSW718022471",
    "tech_change_status": "Not Planned"
   }
  },
  {
   "type": "Feature",
   "geometry": {
    "type": "Point",
    "coordinates": [
     145.95294625,
     -34.0881754
    ]
   },
   "properties": {
    "name": "28 BOORGA ROAD BOORGA 2652",
    "locID": "LOC000114535633",
    "tech": "WIRELESS",
    "upgrade": "NULL_NA",
    "gnaf_pid": "GANSW720532466",
    "tech_change_status": "Not Planned",
    "program_type": "Fixed Wireless and Satellite Upgrade Program",
    "target_eligibility_quarter": "Dec 2024"
   }
  }
 ]
}