{
 "type": "FeatureCollection",
 "generated": "2023-12-27T03:34:00.802113",
 "suburb": "BOREE CREEK",
 "features": [
  {
   "type": "Feature",
   "geometry": {
    "type": "Point",
    "coordinates": [
     146.60610086,
     -35.1084425
    ]
   },
   "properties": {
    "name": "96 LACHLAN STREET BOREE CREEK 2652",
    "locID": "ChIJOTnOAwLnIWsRaQDSoT7XTiQ",
    "tech": "SATELLITE",
    "upgrade": "UNKNOWN",
    "gnaf_pid": "GANSW708677700"
   }
  },
  {
   "type": "Feature",
   "geometry": {
    "type": "Point",
    "coordinates": [
     146.61180589,
     -35.10746371
    ]
   },
   "properties": {
    "name": "LOT 137 RICHMOND STREET BOREE CREEK 2652",
    "locID": "EjAxMzcgUmljaG1vbmQgU3QsIEJvcmVlIENyZWVrIE5TVyAyNjUyLCBBdXN0cmFsaWEiMRIvChQKEgmd3qJG--YhaxH1LutRgu5tVBCJASoUChIJ4VJ-P-_mIWsRJ-RUpLqRQdc",
    "tech": "SATELLITE",
    "upgrade": "UNKNOWN",
    "gnaf_pid": "GANSW708681020"
   }
  },
  {
   "type": "Feature",
   "geometry": {
    "type": "Point",
    "coordinates": [
     146.60433887,
     -35.1086993
    ]
   },
   "properties": {
    "name": "LOT 16 ORME STREET BOREE CREEK 2652",
    "locID": "LOC000108566821",
    "tech": "SATELLITE",
    "upgrade": "NULL_NA",
    "gnaf_pid": "GANSW708681021"
   }
  },
  {
   "type": "Feature",
   "geometry": {
    "type": "Point",
    "coordinates": [
     146.60433887,
     -35.1086993
    ]
   },
   "properties": {
    "name": "LOT 20 ORME STREET BOREE CREEK 2652",
    "locID": "LOC000089255752",
    "tech": "SATELLITE",
    "upgrade": "NULL_NA",
    "gnaf_pid": "GANSW708681023"
   }
  },
  {
   "type": "Feature",
   "geometry": {
    "type": "Point",
    "coordinates": [
     146.6122714,
     -35.10857363
    ]
   },
   "properties": {
    "name": "1 GREINER STREET BOREE CREEK 2652",
    "locID": "ChIJ11Csh_vmIWsRkmIQEcYEWjM",
    "tech": "SATELLITE",
    "upgrade": "UNKNOWN",
    "gnaf_pid": "GANSW708681024"
   }
  },
  {
   "type": "Feature",
   "geometry": {
    "type": "Point",
    "coordinates": [
     146.60725476,
     -35.11111241
    ]
   },
   "properties": {
    "name": "18 DRUMMOND STREET BOREE CREEK 2652",
    "locID": "ChIJr7P3Mf7mIWsRu3X1fiAtdtc",
    "tech": "SATELLITE",
    "upgrade": "UNKNOWN",
    "gnaf_pid": "GANSW708681954"
   }
  },
  {
   "type": "Feature",
   "geometry": {
    "type": "Point",
    "coordinates": [
     146.60851749,
     -35.10711995
    ]
   },
   "properties": {
    "name": "2 CLARENCE STREET BOREE CREEK 2652",
    "locID": "LOC000049527636",
    "tech": "SATELLITE",
    "upgrade": "NULL_NA",
    "gnaf_pid": "GANSW708694452"
   }
  },
  {
   "type": "Feature",
   "geometry": {
    "type": "Point",
    "coordinates": [
     146.64471278,
     -35.03636398
    ]
   },
   "properties": {
    "name": "117 FAITHFULL ROAD BOREE CREEK 2652",
    "locID": "ChIJy9s0QY_hIWsRgfKg1INZh_E",
    "tech": "SATELLITE",
    "upgrade": "UNKNOWN",
    "gnaf_pid": "GANSW712728332"
   }
  },
  {
   "type": "Feature",
   "geometry": {
    "type": "Point",
    "coordinates": [
     146.64471278,
     -35.03636398
    ]
   },
   "properties": {
    "name": "131 FAITHFULL ROAD BOREE CREEK 2652",
    "locID": "ChIJy9s0QY_hIWsRSfWTMtSRwMs",
    "tech": "SATELLITE",
    "upgrade": "UNKNOWN",
    "gnaf_pid": "GANSW712728333"
   }
  },
  {
   "type": "Feature",
   "geometry": {
    "type": "Point",
    "coordinates": [
     146.66775629,
     -35.10362132
    ]
   },
   "properties": {
    "name": "139 FLETTS ROAD BOREE CREEK 2652",
    "locID": "ChIJfRiU-xHkIWsRQM-Xs3AdyLY",
    "tech": "SATELLITE",
    "upgrade": "UNKNOWN",
    "gnaf_pid": "GANSW712728334"
   }
  },
  {
   "type": "Feature",
   "geometry": {
    "type": "Point",
    "coordinates": [
     146.47934839,
     -34.98217284
    ]
   },
   "properties": {
    "name": "204 GREENVALE ROAD BOREE CREEK 2652",
    "locID": "ChIJ39ggPDHfIWsR2T5Y7Z0DbdE",
    "tech": "SATELLITE",
    "upgrade": "UNKNOWN",
    "gnaf_pid": "GANSW712728336"
   }
  },
  {
   "type": "Feature",
   "geometry": {
    "type": "Point",
    "coordinates": [
     146.47934839,
     -34.98217284
    ]
   },
   "properties": {
    "name": "218 GREENVALE ROAD BOREE CREEK 2652",
    "locID": "ChIJ39ggPDHfIWsRvgwJobFGeQQ",
    "tech": "SATELLITE",
    "upgrade": "UNKNOWN",
    "gnaf_pid": "GANSW712728337"
   }
  },
  {
   "type": "Feature",
   "geometry": {
    "type": "Point",
    "coordinates": [
     146.51067929,
     -35.1293306
    ]
   },
   "properties": {
    "name": "303 JOHNS ROAD BOREE CREEK 2652",
    "locID": "ChIJxZMgyS7DIWsRc5qBu-Kl01E",
    "tech": "SATELLITE",
    "upgrade": "UNKNOWN",
    "gnaf_pid": "GANSW712728338"
   }
  },
  {
   "type": "Feature",
   "geometry": {
    "type": "Point",
    "coordinates": [
     146.6068377,
     -35.1125034
    ]
   },
   "properties": {
    "name": "12 LAWRENCE STREET BOREE CREEK 2652",
    "locID": "LOC000048406594",
    "tech": "SATELLITE",
    "upgrade": "NULL_NA",
    "gnaf_pid": "GANSW712728341"
   }
  },
  {
   "type": "Feature",
   "geometry": {
    "type": "Point",
    "coordinates": [
     146.60420963,
     -35.10906561
    ]
   },
   "properties": {
    "name": "4 ORME STREET BOREE CREEK 2652",
    "locID": "LOC000059321929",
    "tech": "SATELLITE",
    "upgrade": "NULL_NA",
    "gnaf_pid": "GANSW712728345"
   }
  },
  {
   "type": "Feature",
   "geometry": {
    "type": "Point",
    "coordinates": [
     146.53208779,
     -35.00935947
    ]
   },
   "properties": {
    "name": "217 STRONTIAN ROAD BOREE CREEK 2652",
    "locID": "ChIJtxdaorPfIWsRtAUiqAEngx0",
    "tech": "SATELLITE",
    "upgrade": "UNKNOWN",
    "gnaf_pid": "GANSW712728348"
   }
  },
  {
   "type": "Feature",
   "geometry": {
    "type": "Point",
    "coordinates": [
     146.53208779,
     -35.00935947
    ]
   },
   "properties": {
    "name": "205 STRONTIAN ROAD BOREE CREEK 2652",
    "locID": "LOC000095457211",
    "tech": "SATELLITE",
    "upgrade": "NULL_NA",
    "gnaf_pid": "GANSW712728349"
   }
  },
  {
   "type": "Feature",
   "geometry": {
    "type": "Point",
    "coordinates": [
     146.71179076,
     -35.08156644
    ]
   },
   "properties": {
    "name": "136 BANKVALE ROAD BOREE CREEK 2652",
    "locID": "ChIJuULGQRHjIWsRDOhGpXE13SU",
    "tech": "SATELLITE",
    "upgrade": "UNKNOWN",
    "gnaf_pid": "GANSW712743656"
   }
  },
  {
   "type": "Feature",
   "geometry": {
    "type": "Point",
    "coordinates": [
     146.43729652,
     -35.13912994
    ]
   },
   "properties": {
    "name": "161 BARRAGUNDA ROAD BOREE CREEK 2652",
    "locID": "ChIJkfgZCvjEIWsReSTtzPrNKO8",
    "tech": "SATELLITE",
    "upgrade": "UNKNOWN",
    "gnaf_pid": "GANSW712743657"
   }
  },
  {
   "type": "Feature",
   "geometry": {
    "type": "Point",
    "coordinates": [
     146.61079294,
     -35.10645415
    ]
   },
   "properties": {
    "name": "10 CLARENCE STREET BOREE CREEK 2652",
    "locID": "LOC000049527636",
    "tech": "SATELLITE",
    "upgrade": "NULL_NA",
    "gnaf_pid": "GANSW712743658"
   }
  },
  {
   "type": "Feature",
   "geometry": {
    "type": "Point",
    "coordinates": [
     146.60712697,
     -35.10728091
    ]
   },
   "properties": {
    "name": "4 CLARENCE STREET BOREE CREEK 2652",
    "locID": "LOC100078122832",
    "tech": "SATELLITE",
    "upgrade": "NULL_NA",
    "gnaf_pid": "GANSW712743659"
   }
  },
  {
   "type": "Feature",
   "geometry": {
    "type": "Point",
    "coordinates": [
     146.60545509,
     -35.11005964
    ]
   },
   "properties": {
    "name": "LOT 33 EADES STREET BOREE CREEK 2652",
    "locID": "LOC000142491291",
    "tech": "SATELLITE",
    "upgrade": "NULL_NA",
    "gnaf_pid": "GANSW716657226"
   }
  },
  {
   "type": "Feature",
   "geometry": {
    "type": "Point",
    "coordinates": [
     146.60610086,
     -35.1084425
    ]
   },
   "properties": {
    "name": "LOT 6 LACHLAN STREET BOREE CREEK 2652",
    "locID": "LOC000109491451",
    "tech": "SATELLITE",
    "upgrade": "NULL_NA",
    "gnaf_pid": "GANSW716669610"
   }
  },
  {
   "type": "Feature",
   "geometry": {
    "type": "Point",
    "coordinates": [
     146.60761336,
     -35.1061272
    ]
   },
   "properties": {
    "name": "LOT 112 NAMOI STREET BOREE CREEK 2652",
    "locID": "Ei0xMTIgTmFtb2kgU3QsIEJvcmVlIENyZWVrIE5TVyAyNjUyLCBBdXN0cmFsaWEiMBIuChQKEgn3o8aA_eYhaxGhz7VytAkGExBwKhQKEglprJ1t_eYhaxH9-hGYxs1hkA",
    "tech": "SATELLITE",
    "upgrade": "UNKNOWN",
    "gnaf_pid": "GANSW716677168"
   }
  },
  {
   "type": "Feature",
   "geometry": {
    "type": "Point",
    "coordinates": [
     146.6053114,
     -35.1082319
    ]
   },
   "properties": {
    "name": "13 LACHLAN STREET BOREE CREEK 2652",
    "locID": "LOC000064114314",
    "tech": "SATELLITE",
    "upgrade": "NULL_NA",
    "gnaf_pid": "GANSW716756409"
   }
  },
  {
   "type": "Feature",
   "geometry": {
    "type": "Point",
    "coordinates": [
     146.6045164,
     -35.1081828
    ]
   },
   "properties": {
    "name": "19 ORME STREET BOREE CREEK 2652",
    "locID": "LOC000098811993",
    "tech": "SATELLITE",
    "upgrade": "NULL_NA",
    "gnaf_pid": "GANSW717049072"
   }
  },
  {
   "type": "Feature",
   "geometry": {
    "type": "Point",
    "coordinates": [
     146.654213,
     -35.11974454
    ]
   },
   "properties": {
    "name": "113 CARROLLS LANE BOREE CREEK 2652",
    "locID": "ChIJrcmEiijkIWsRFG8PVIDF0SU",
    "tech": "SATELLITE",
    "upgrade": "UNKNOWN",
    "gnaf_pid": "GANSW717137551"
   }
  },
  {
   "type": "Feature",
   "geometry": {
    "type": "Point",
    "coordinates": [
     146.65465472,
     -35.12725347
    ]
   },
   "properties": {
    "name": "134 CARROLLS LANE BOREE CREEK 2652",
    "locID": "LOC100078123272",
    "tech": "SATELLITE",
    "upgrade": "NULL_NA",
    "gnaf_pid": "GANSW717137552"
   }
  },
  {
   "type": "Feature",
   "geometry": {
    "type": "Point",
    "coordinates": [
     146.654213,
     -35.11974454
    ]
   },
   "properties": {
    "name": "58 CARROLLS LANE BOREE CREEK 2652",
    "locID": "ChIJrcmEiijkIWsRBSDpWNCHeiU",
    "tech": "SATELLITE",
    "upgrade": "UNKNOWN",
    "gnaf_pid": "GANSW717137553"
   }
  },
  {
   "type": "Feature",
   "geometry": {
    "type": "Point",
    "coordinates": [
     146.64471278,
     -35.03636398
    ]
   },
   "properties": {
    "name": "115 FAITHFULL ROAD BOREE CREEK 2652",
    "locID": "ChIJy9s0QY_hIWsRyqq-eYjYT70",
    "tech": "SATELLITE",
    "upgrade": "UNKNOWN",
    "gnaf_pid": "GANSW717139746"
   }
  },
  {
   "type": "Feature",
   "geometry": {
    "type": "Point",
    "coordinates": [
     146.66775629,
     -35.10362132
    ]
   },
   "properties": {
    "name": "119 FLETTS ROAD BOREE CREEK 2652",
    "locID": "ChIJfRiU-xHkIWsRX4WK2OOxI1I",
    "tech": "SATELLITE",
    "upgrade": "UNKNOWN",
    "gnaf_pid": "GANSW717140017"
   }
  },
  {
   "type": "Feature",
   "geometry": {
    "type": "Point",
    "coordinates": [
     146.66775629,
     -35.10362132
    ]
   },
   "properties": {
    "name": "384 FLETTS ROAD BOREE CREEK 2652",
    "locID": "ChIJfRiU-xHkIWsR3e_20VpSYjg",
    "tech": "SATELLITE",
    "upgrade": "UNKNOWN",
    "gnaf_pid": "GANSW717140018"
   }
  },
  {
   "type": "Feature",
   "geometry": {
    "type": "Point",
    "coordinates": [
     146.66914846,
     -35.09367245
    ]
   },
   "properties": {
    "name": "562 FLETTS ROAD BOREE CREEK 2652",
    "locID": "ChIJGRUFdXXkIWsRv-JK9J9MOto",
    "tech": "SATELLITE",
    "upgrade": "UNKNOWN",
    "gnaf_pid": "GANSW717140019"
   }
  },
  {
   "type": "Feature",
   "geometry": {
    "type": "Point",
    "coordinates": [
     146.66775629,
     -35.10362132
    ]
   },
   "properties": {
    "name": "887 FLETTS ROAD BOREE CREEK 2652",
    "locID": "ChIJfRiU-xHkIWsRuprOeValbAk",
    "tech": "SATELLITE",
    "upgrade": "UNKNOWN",
    "gnaf_pid": "GANSW717140020"
   }
  },
  {
   "type": "Feature",
   "geometry": {
    "type": "Point",
    "coordinates": [
     146.54700868,
     -35.1780972
    ]
   },
   "properties": {
    "name": "1187 YULUMA ROAD BOREE CREEK 2652",
    "locID": "ChIJNws2hmPCIWsR06Z0ZCRgsxc",
    "tech": "SATELLITE",
    "upgrade": "UNKNOWN",
    "gnaf_pid": "GANSW717153196"
   }
  },
  {
   "type": "Feature",
   "geometry": {
    "type": "Point",
    "coordinates": [
     146.51530464,
     -35.16731905
    ]
   },
   "properties": {
    "name": "339 YULUMA ROAD BOREE CREEK 2652",
    "locID": "LOC000074673055",
    "tech": "SATELLITE",
    "upgrade": "NULL_NA",
    "gnaf_pid": "GANSW717153197"
   }
  },
  {
   "type": "Feature",
   "geometry": {
    "type": "Point",
    "coordinates": [
     146.54246561,
     -35.18882029
    ]
   },
   "properties": {
    "name": "566 YULUMA ROAD BOREE CREEK 2652",
    "locID": "LOC000097443628",
    "tech": "SATELLITE",
    "upgrade": "NULL_NA",
    "gnaf_pid": "GANSW717153198"
   }
  },
  {
   "type": "Feature",
   "geometry": {
    "type": "Point",
    "coordinates": [
     146.54246561,
     -35.18882029
    ]
   },
   "properties": {
    "name": "568 YULUMA ROAD BOREE CREEK 2652",
    "locID": "ChIJM-x6YDbCIWsRYPFlkcurlOs",
    "tech": "SATELLITE",
    "upgrade": "UNKNOWN",
    "gnaf_pid": "GANSW717153199"
   }
  },
  {
   "type": "Feature",
   "geometry": {
    "type": "Point",
    "coordinates": [
     146.54700868,
     -35.1780972
    ]
   },
   "properties": {
    "name": "570 YULUMA ROAD BOREE CREEK 2652",
    "locID": "ChIJNws2hmPCIWsRVdJRuJ7MxS4",
    "tech": "SATELLITE",
    "upgrade": "UNKNOWN",
    "gnaf_pid": "GANSW717153200"
   }
  },
  {
   "type": "Feature",
   "geometry": {
    "type": "Point",
    "coordinates": [
     146.61307985,
     -35.10881533
    ]
   },
   "properties": {
    "name": "11 ASTON STREET BOREE CREEK 2652",
    "locID": "ChIJ39s1mvvmIWsRkNPnWmFqoaE",
    "tech": "SATELLITE",
    "upgrade": "UNKNOWN",
    "gnaf_pid": "GANSW717365879"
   }
  },
  {
   "type": "Feature",
   "geometry": {
    "type": "Point",
    "coordinates": [
     146.61307985,
     -35.10881533
    ]
   },
   "properties": {
    "name": "7 ASTON STREET BOREE CREEK 2652",
    "locID": "ChIJ39s1mvvmIWsR_2-oBdlgjiU",
    "tech": "SATELLITE",
    "upgrade": "UNKNOWN",
    "gnaf_pid": "GANSW717365880"
   }
  },
  {
   "type": "Feature",
   "geometry": {
    "type": "Point",
    "coordinates": [
     146.61307985,
     -35.10881533
    ]
   },
   "properties": {
    "name": "9 ASTON STREET BOREE CREEK 2652",
    "locID": "ChIJ39s1mvvmIWsRv69VLjLP-PM",
    "tech": "SATELLITE",
    "upgrade": "UNKNOWN",
    "gnaf_pid": "GANSW717365881"
   }
  },
  {
   "type": "Feature",
   "geometry": {
    "type": "Point",
    "coordinates": [
     146.60851749,
     -35.10711995
    ]
   },
   "properties": {
    "name": "17-19 CLARENCE STREET BOREE CREEK 2652",
    "locID": "ChIJ1XI4pv3mIWsRucSG1KU2amQ",
    "tech": "SATELLITE",
    "upgrade": "UNKNOWN",
    "gnaf_pid": "GANSW717369284"
   }
  },
  {
   "type": "Feature",
   "geometry": {
    "type": "Point",
    "coordinates": [
     146.60851749,
     -35.10711995
    ]
   },
   "properties": {
    "name": "1 CLARENCE STREET BOREE CREEK 2652",
    "locID": "LOC000049527636",
    "tech": "SATELLITE",
    "upgrade": "NULL_NA",
    "gnaf_pid": "GANSW717369285"
   }
  },
  {
   "type": "Feature",
   "geometry": {
    "type": "Point",
    "coordinates": [
     146.60851749,
     -35.10711995
    ]
   },
   "properties": {
    "name": "21-23 CLARENCE STREET BOREE CREEK 2652",
    "locID": "Ei8yMSBDbGFyZW5jZSBTdCwgQm9yZWUgQ3JlZWsgTlNXIDI2NTIsIEF1c3RyYWxpYSIwEi4KFAoSCaEyc5P95iFrETHxtXK0CQYTEBUqFAoSCTm70qf95iFrEV05rVK0mtUB",
    "tech": "SATELLITE",
    "upgrade": "UNKNOWN",
    "gnaf_pid": "GANSW717369286"
   }
  },
  {
   "type": "Feature",
   "geometry": {
    "type": "Point",
    "coordinates": [
     146.60851749,
     -35.10711995
    ]
   },
   "properties": {
    "name": "22-28 CLARENCE STREET BOREE CREEK 2652",
    "locID": "ChIJ1XI4pv3mIWsR7ZFoDFL91Vg",
    "tech": "SATELLITE",
    "upgrade": "UNKNOWN",
    "gnaf_pid": "GANSW717369287"
   }
  },
  {
   "type": "Feature",
   "geometry": {
    "type": "Point",
    "coordinates": [
     146.60851749,
     -35.10711995
    ]
   },
   "properties": {
    "name": "25-27 CLARENCE STREET BOREE CREEK 2652",
    "locID": "ChIJ1XI4pv3mIWsRblxcD2rnKMA",
    "tech": "SATELLITE",
    "upgrade": "UNKNOWN",
    "gnaf_pid": "GANSW717369288"
   }
  },
  {
   "type": "Feature",
   "geometry": {
    "type": "Point",
    "coordinates": [
     146.60851749,
     -35.10711995
    ]
   },
   "properties": {
    "name": "29-31 CLARENCE STREET BOREE CREEK 2652",
    "locID": "ChIJ1XI4pv3mIWsRsAs9IFVEiUY",
    "tech": "SATELLITE",
    "upgrade": "UNKNOWN",
    "gnaf_pid": "GANSW717369289"
   }
  },
  {
   "type": "Feature",
   "geometry": {
    "type": "Point",
    "coordinates": [
     146.60851749,
     -35.10711995
    ]
   },
   "properties": {
    "name": "33-35 CLARENCE STREET BOREE CREEK 2652",
    "locID": "Ei8zMyBDbGFyZW5jZSBTdCwgQm9yZWUgQ3JlZWsgTlNXIDI2NTIsIEF1c3RyYWxpYSIwEi4KFAoSCaEyc5P95iFrETHxtXK0CQYTECEqFAoSCTm70qf95iFrEV05rVK0mtUB",
    "tech": "SATELLITE",
    "upgrade": "UNKNOWN",
    "gnaf_pid": "GANSW717369290"
   }
  },
  {
   "type": "Feature",
   "geometry": {
    "type": "Point",
    "coordinates": [
     146.60851749,
     -35.10711995
    ]
   },
   "properties": {
    "name": "34-36 CLARENCE STREET BOREE CREEK 2652",
    "locID": "ChIJ1XI4pv3mIWsRquqR9Qjx1w4",
    "tech": "SATELLITE",
    "upgrade": "UNKNOWN",
    "gnaf_pid": "GANSW717369291"
   }
  },
  {
   "type": "Feature",
   "geometry": {
    "type": "Point",
    "coordinates": [
     146.60851749,
     -35.10711995
    ]
   },
   "properties": {
    "name": "37-39 CLARENCE STREET BOREE CREEK 2652",
    "locID": "ChIJ1XI4pv3mIWsRe96m86evlag",
    "tech": "SATELLITE",
    "upgrade": "UNKNOWN",
    "gnaf_pid": "GANSW717369292"
   }
  },
  {
   "type": "Feature",
   "geometry": {
    "type": "Point",
    "coordinates": [
     146.60851749,
     -35.10711995
    ]
   },
   "properties": {
    "name": "38 CLARENCE STREET BOREE CREEK 2652",
    "locID": "ChIJ1XI4pv3mIWsRHKzN27UU_s4",
    "tech": "SATELLITE",
    "upgrade": "UNKNOWN",
    "gnaf_pid": "GANSW717369293"
   }
  },
  {
   "type": "Feature",
   "geometry": {
    "type": "Point",
    "coordinates": [
     146.60750141,
     -35.10708937
    ]
   },
   "properties": {
    "name": "3 CLARENCE STREET BOREE CREEK 2652",
    "locID": "ChIJWZIxmv3mIWsRxi5HoCE5X0M",
    "tech": "SATELLITE",
    "upgrade": "UNKNOWN",
    "gnaf_pid": "GANSW717369294"
   }
  },
  {
   "type": "Feature",
   "geometry": {
    "type": "Point",
    "coordinates": [
     146.60851749,
     -35.10711995
    ]
   },
   "properties": {
    "name": "40-42 CLARENCE STREET BOREE CREEK 2652",
    "locID": "ChIJ1XI4pv3mIWsR_EkKhTiqroc",
    "tech": "SATELLITE",
    "upgrade": "UNKNOWN",
    "gnaf_pid": "GANSW717369295"
   }
  },
  {
   "type": "Feature",
   "geometry": {
    "type": "Point",
    "coordinates": [
     146.60851749,
     -35.10711995
    ]
   },
   "properties": {
    "name": "41-43 CLARENCE STREET BOREE CREEK 2652",
    "locID": "ChIJ1XI4pv3mIWsRLNwPxbdJjP4",
    "tech": "SATELLITE",
    "upgrade": "UNKNOWN",
    "gnaf_pid": "GANSW717369296"
   }
  },
  {
   "type": "Feature",
   "geometry": {
    "type": "Point",
    "coordinates": [
     146.60851749,
     -35.10711995
    ]
   },
   "properties": {
    "name": "44-46 CLARENCE STREET BOREE CREEK 2652",
    "locID": "ChIJ1XI4pv3mIWsR9H7fY-gWt7o",
    "tech": "SATELLITE",
    "upgrade": "UNKNOWN",
    "gnaf_pid": "GANSW717369297"
   }
  },
  {
   "type": "Feature",
   "geometry": {
    "type": "Point",
    "coordinates": [
     146.60851749,
     -35.10711995
    ]
   },
   "properties": {
    "name": "45-47 CLARENCE STREET BOREE CREEK 2652",
    "locID": "Ei80NSBDbGFyZW5jZSBTdCwgQm9yZWUgQ3JlZWsgTlNXIDI2NTIsIEF1c3RyYWxpYSIwEi4KFAoSCaEyc5P95iFrETHxtXK0CQYTEC0qFAoSCTm70qf95iFrEV05rVK0mtUB",
    "tech": "SATELLITE",
    "upgrade": "UNKNOWN",
    "gnaf_pid": "GANSW717369298"
   }
  },
  {
   "type": "Feature",
   "geometry": {
    "type": "Point",
    "coordinates": [
     146.60851749,
     -35.10711995
    ]
   },
   "properties": {
    "name": "48-50 CLARENCE STREET BOREE CREEK 2652",
    "locID": "Ei80OCBDbGFyZW5jZSBTdCwgQm9yZWUgQ3JlZWsgTlNXIDI2NTIsIEF1c3RyYWxpYSIwEi4KFAoSCaEyc5P95iFrETHxtXK0CQYTEDAqFAoSCTm70qf95iFrEV05rVK0mtUB",
    "tech": "SATELLITE",
    "upgrade": "UNKNOWN",
    "gnaf_pid": "GANSW717369299"
   }
  },
  {
   "type": "Feature",
   "geometry": {
    "type": "Point",
    "coordinates": [
     146.60851749,
     -35.10711995
    ]
   },
   "properties": {
    "name": "49-51 CLARENCE STREET BOREE CREEK 2652",
    "locID": "ChIJ1XI4pv3mIWsR5ppxUM2ocUs",
    "tech": "SATELLITE",
    "upgrade": "UNKNOWN",
    "gnaf_pid": "GANSW717369300"
   }
  },
  {
   "type": "Feature",
   "geometry": {
    "type": "Point",
    "coordinates": [
     146.60851749,
     -35.10711995
    ]
   },
   "properties": {
    "name": "52-54 CLARENCE STREET BOREE CREEK 2652",
    "locID": "ChIJ1XI4pv3mIWsRkvYLSdfzCFs",
    "tech": "SATELLITE",
    "upgrade": "UNKNOWN",
    "gnaf_pid": "GANSW717369301"
   }
  },
  {
   "type": "Feature",
   "geometry": {
    "type": "Point",
    "coordinates": [
     146.60851749,
     -35.10711995
    ]
   },
   "properties": {
    "name": "53-55 CLARENCE STREET BOREE CREEK 2652",
    "locID": "ChIJ1XI4pv3mIWsRd-hik3nK93Q",
    "tech": "SATELLITE",
    "upgrade": "UNKNOWN",
    "gnaf_pid": "GANSW717369302"
   }
  },
  {
   "type": "Feature",
   "geometry": {
    "type": "Point",
    "coordinates": [
     146.60851749,
     -35.10711995
    ]
   },
   "properties": {
    "name": "56-58 CLARENCE STREET BOREE CREEK 2652",
    "locID": "ChIJ1XI4pv3mIWsRIVz7gxQFPzo",
    "tech": "SATELLITE",
    "upgrade": "UNKNOWN",
    "gnaf_pid": "GANSW717369303"
   }
  },
  {
   "type": "Feature",
   "geometry": {
    "type": "Point",
    "coordinates": [
     146.60851749,
     -35.10711995
    ]
   },
   "properties": {
    "name": "57-63 CLARENCE STREET BOREE CREEK 2652",
    "locID": "ChIJ1XI4pv3mIWsRLiqvES-15gs",
    "tech": "SATELLITE",
    "upgrade": "UNKNOWN",
    "gnaf_pid": "GANSW717369304"
   }
  },
  {
   "type": "Feature",
   "geometry": {
    "type": "Point",
    "coordinates": [
     146.60851749,
     -35.10711995
    ]
   },
   "properties": {
    "name": "9-11 CLARENCE STREET BOREE CREEK 2652",
    "locID": "ChIJ1XI4pv3mIWsR1ErtEJ9m_H4",
    "tech": "SATELLITE",
    "upgrade": "UNKNOWN",
    "gnaf_pid": "GANSW717369307"
   }
  },
  {
   "type": "Feature",
   "geometry": {
    "type": "Point",
    "coordinates": [
     146.60886452,
     -35.10702626
    ]
   },
   "properties": {
    "name": "5 DARLING STREET BOREE CREEK 2652",
    "locID": "ChIJe3NgB_3mIWsRBmsY1hdj-BY",
    "tech": "SATELLITE",
    "upgrade": "UNKNOWN",
    "gnaf_pid": "GANSW717370850"
   }
  },
  {
   "type": "Feature",
   "geometry": {
    "type": "Point",
    "coordinates": [
     146.60886452,
     -35.10702626
    ]
   },
   "properties": {
    "name": "6-8 DARLING STREET BOREE CREEK 2652",
    "locID": "ChIJe3NgB_3mIWsRbpn3ZDuz1LE",
    "tech": "SATELLITE",
    "upgrade": "UNKNOWN",
    "gnaf_pid": "GANSW717370851"
   }
  },
  {
   "type": "Feature",
   "geometry": {
    "type": "Point",
    "coordinates": [
     146.61118562,
     -35.11027847
    ]
   },
   "properties": {
    "name": "10 DRUMMOND STREET BOREE CREEK 2652",
    "locID": "ChIJS70Sp_7mIWsRezvC8xnPCU0",
    "tech": "SATELLITE",
    "upgrade": "UNKNOWN",
    "gnaf_pid": "GANSW717371298"
   }
  },
  {
   "type": "Feature",
   "geometry": {
    "type": "Point",
    "coordinates": [
     146.60597532,
     -35.11129099
    ]
   },
   "properties": {
    "name": "12 DRUMMOND STREET BOREE CREEK 2652",
    "locID": "LOC000077775649",
    "tech": "SATELLITE",
    "upgrade": "NULL_NA",
    "gnaf_pid": "GANSW717371299"
   }
  },
  {
   "type": "Feature",
   "geometry": {
    "type": "Point",
    "coordinates": [
     146.61118562,
     -35.11027847
    ]
   },
   "properties": {
    "name": "2 DRUMMOND STREET BOREE CREEK 2652",
    "locID": "LOC000072451298",
    "tech": "SATELLITE",
    "upgrade": "NULL_NA",
    "gnaf_pid": "GANSW717371302"
   }
  },
  {
   "type": "Feature",
   "geometry": {
    "type": "Point",
    "coordinates": [
     146.61118562,
     -35.11027847
    ]
   },
   "properties": {
    "name": "4 DRUMMOND STREET BOREE CREEK 2652",
    "locID": "ChIJS70Sp_7mIWsRy3uqo6v-SgY",
    "tech": "SATELLITE",
    "upgrade": "UNKNOWN",
    "gnaf_pid": "GANSW717371303"
   }
  },
  {
   "type": "Feature",
   "geometry": {
    "type": "Point",
    "coordinates": [
     146.61118562,
     -35.11027847
    ]
   },
   "properties": {
    "name": "6 DRUMMOND STREET BOREE CREEK 2652",
    "locID": "ChIJS70Sp_7mIWsRAPYZsdALUwQ",
    "tech": "SATELLITE",
    "upgrade": "UNKNOWN",
    "gnaf_pid": "GANSW717371304"
   }
  },
  {
   "type": "Feature",
   "geometry": {
    "type": "Point",
    "coordinates": [
     146.61118562,
     -35.11027847
    ]
   },
   "properties": {
    "name": "8 DRUMMOND STREET BOREE CREEK 2652",
    "locID": "ChIJS70Sp_7mIWsRjqWjBjvrU8I",
    "tech": "SATELLITE",
    "upgrade": "UNKNOWN",
    "gnaf_pid": "GANSW717371305"
   }
  },
  {
   "type": "Feature",
   "geometry": {
    "type": "Point",
    "coordinates": [
     146.60545509,
     -35.11005964
    ]
   },
   "properties": {
    "name": "11 EADES STREET BOREE CREEK 2652",
    "locID": "ChIJKccnxAHnIWsRsd4JF7OFnuc",
    "tech": "SATELLITE",
    "upgrade": "UNKNOWN",
    "gnaf_pid": "GANSW717371437"
   }
  },
  {
   "type": "Feature",
   "geometry": {
    "type": "Point",
    "coordinates": [
     146.60545509,
     -35.11005964
    ]
   },
   "properties": {
    "name": "13 EADES STREET BOREE CREEK 2652",
    "locID": "ChIJKccnxAHnIWsRFiPGhvD-v0o",
    "tech": "SATELLITE",
    "upgrade": "UNKNOWN",
    "gnaf_pid": "GANSW717371438"
   }
  },
  {
   "type": "Feature",
   "geometry": {
    "type": "Point",
    "coordinates": [
     146.60545509,
     -35.11005964
    ]
   },
   "properties": {
    "name": "15 EADES STREET BOREE CREEK 2652",
    "locID": "ChIJKccnxAHnIWsRtvwYasjjTl0",
    "tech": "SATELLITE",
    "upgrade": "UNKNOWN",
    "gnaf_pid": "GANSW717371439"
   }
  },
  {
   "type": "Feature",
   "geometry": {
    "type": "Point",
    "coordinates": [
     146.60545509,
     -35.11005964
    ]
   },
   "properties": {
    "name": "1 EADES STREET BOREE CREEK 2652",
    "locID": "ChIJKccnxAHnIWsRWeI7sKknZKU",
    "tech": "SATELLITE",
    "upgrade": "UNKNOWN",
    "gnaf_pid": "GANSW717371441"
   }
  },
  {
   "type": "Feature",
   "geometry": {
    "type": "Point",
    "coordinates": [
     146.60545509,
     -35.11005964
    ]
   },
   "properties": {
    "name": "3 EADES STREET BOREE CREEK 2652",
    "locID": "LOC000142491291",
    "tech": "SATELLITE",
    "upgrade": "NULL_NA",
    "gnaf_pid": "GANSW717371442"
   }
  },
  {
   "type": "Feature",
   "geometry": {
    "type": "Point",
    "coordinates": [
     146.60545509,
     -35.11005964
    ]
   },
   "properties": {
    "name": "5 EADES STREET BOREE CREEK 2652",
    "locID": "Eis1IEVhZGVzIFN0LCBCb3JlZSBDcmVlayBOU1cgMjY1MiwgQXVzdHJhbGlhIjASLgoUChIJ0zjetgHnIWsREWOYdLQJBhMQBSoUChIJcbfFEf7mIWsRCyqlQ1EVTPg",
    "tech": "SATELLITE",
    "upgrade": "UNKNOWN",
    "gnaf_pid": "GANSW717371443"
   }
  },
  {
   "type": "Feature",
   "geometry": {
    "type": "Point",
    "coordinates": [
     146.60545509,
     -35.11005964
    ]
   },
   "properties": {
    "name": "7 EADES STREET BOREE CREEK 2652",
    "locID": "ChIJKccnxAHnIWsR25rg-Zvd7Wc",
    "tech": "SATELLITE",
    "upgrade": "UNKNOWN",
    "gnaf_pid": "GANSW717371444"
   }
  },
  {
   "type": "Feature",
   "geometry": {
    "type": "Point",
    "coordinates": [
     146.60545509,
     -35.11005964
    ]
   },
   "properties": {
    "name": "9 EADES STREET BOREE CREEK 2652",
    "locID": "Eis5IEVhZGVzIFN0LCBCb3JlZSBDcmVlayBOU1cgMjY1MiwgQXVzdHJhbGlhIjASLgoUChIJ0zjetgHnIWsREWOYdLQJBhMQCSoUChIJcbfFEf7mIWsRCyqlQ1EVTPg",
    "tech": "SATELLITE",
    "upgrade": "UNKNOWN",
    "gnaf_pid": "GANSW717371445"
   }
  },
  {
   "type": "Feature",
   "geometry": {
    "type": "Point",
    "coordinates": [
     146.6122714,
     -35.10857363
    ]
   },
   "properties": {
    "name": "11 GREINER STREET BOREE CREEK 2652",
    "locID": "ChIJ11Csh_vmIWsRIml-aL2oCh8",
    "tech": "SATELLITE",
    "upgrade": "UNKNOWN",
    "gnaf_pid": "GANSW717374065"
   }
  },
  {
   "type": "Feature",
   "geometry": {
    "type": "Point",
    "coordinates": [
     146.6122714,
     -35.10857363
    ]
   },
   "properties": {
    "name": "3 GREINER STREET BOREE CREEK 2652",
    "locID": "ChIJ11Csh_vmIWsRzt5HyjKm5pg",
    "tech": "SATELLITE",
    "upgrade": "UNKNOWN",
    "gnaf_pid": "GANSW717374066"
   }
  },
  {
   "type": "Feature",
   "geometry": {
    "type": "Point",
    "coordinates": [
     146.61183909,
     -35.10841531
    ]
   },
   "properties": {
    "name": "5 GREINER STREET BOREE CREEK 2652",
    "locID": "LOC000092399287",
    "tech": "SATELLITE",
    "upgrade": "NULL_NA",
    "gnaf_pid": "GANSW717374067"
   }
  },
  {
   "type": "Feature",
   "geometry": {
    "type": "Point",
    "coordinates": [
     146.6122714,
     -35.10857363
    ]
   },
   "properties": {
    "name": "7 GREINER STREET BOREE CREEK 2652",
    "locID": "ChIJ11Csh_vmIWsRNPaDLotkNQs",
    "tech": "SATELLITE",
    "upgrade": "UNKNOWN",
    "gnaf_pid": "GANSW717374068"
   }
  },
  {
   "type": "Feature",
   "geometry": {
    "type": "Point",
    "coordinates": [
     146.6122714,
     -35.10857363
    ]
   },
   "properties": {
    "name": "9 GREINER STREET BOREE CREEK 2652",
    "locID": "ChIJ11Csh_vmIWsRYW1YgDrdhVI",
    "tech": "SATELLITE",
    "upgrade": "UNKNOWN",
    "gnaf_pid": "GANSW717374069"
   }
  },
  {
   "type": "Feature",
   "geometry": {
    "type": "Point",
    "coordinates": [
     146.61112263,
     -35.10604458
    ]
   },
   "properties": {
    "name": "17-19 HUME STREET BOREE CREEK 2652",
    "locID": "ChIJ12EzuvzmIWsR1pBW6xB3L5g",
    "tech": "SATELLITE",
    "upgrade": "UNKNOWN",
    "gnaf_pid": "GANSW717375382"
   }
  },
  {
   "type": "Feature",
   "geometry": {
    "type": "Point",
    "coordinates": [
     146.61103613,
     -35.10633305
    ]
   },
   "properties": {
    "name": "9 HUME STREET BOREE CREEK 2652",
    "locID": "ChIJlwt-vvzmIWsRQUOwE9NBPFk",
    "tech": "SATELLITE",
    "upgrade": "UNKNOWN",
    "gnaf_pid": "GANSW717375383"
   }
  },
  {
   "type": "Feature",
   "geometry": {
    "type": "Point",
    "coordinates": [
     146.60484025,
     -35.10761833
    ]
   },
   "properties": {
    "name": "23 LACHLAN STREET BOREE CREEK 2652",
    "locID": "LOC000045536011",
    "tech": "SATELLITE",
    "upgrade": "NULL_NA",
    "gnaf_pid": "GANSW717377238"
   }
  },
  {
   "type": "Feature",
   "geometry": {
    "type": "Point",
    "coordinates": [
     146.60452755,
     -35.10732583
    ]
   },
   "properties": {
    "name": "27 LACHLAN STREET BOREE CREEK 2652",
    "locID": "ChIJoV9FOgLnIWsRK-NBVFcQJh8",
    "tech": "SATELLITE",
    "upgrade": "UNKNOWN",
    "gnaf_pid": "GANSW717377240"
   }
  },
  {
   "type": "Feature",
   "geometry": {
    "type": "Point",
    "coordinates": [
     146.6059604,
     -35.109188
    ]
   },
   "properties": {
    "name": "3 LACHLAN STREET BOREE CREEK 2652",
    "locID": "ChIJh9LU-gHnIWsR-1OdArbnxY8",
    "tech": "SATELLITE",
    "upgrade": "UNKNOWN",
    "gnaf_pid": "GANSW717377247"
   }
  },
  {
   "type": "Feature",
   "geometry": {
    "type": "Point",
    "coordinates": [
     146.6058403,
     -35.10903579
    ]
   },
   "properties": {
    "name": "5 LACHLAN STREET BOREE CREEK 2652",
    "locID": "ChIJSVKF-gHnIWsRTB9qpY__pbQ",
    "tech": "SATELLITE",
    "upgrade": "UNKNOWN",
    "gnaf_pid": "GANSW717377248"
   }
  },
  {
   "type": "Feature",
   "geometry": {
    "type": "Point",
    "coordinates": [
     146.6057202,
     -35.10888358
    ]
   },
   "properties": {
    "name": "7 LACHLAN STREET BOREE CREEK 2652",
    "locID": "ChIJzda_8AHnIWsRgVA4nsS4OSM",
    "tech": "SATELLITE",
    "upgrade": "UNKNOWN",
    "gnaf_pid": "GANSW717377250"
   }
  },
  {
   "type": "Feature",
   "geometry": {
    "type": "Point",
    "coordinates": [
     146.60554698,
     -35.10853869
    ]
   },
   "properties": {
    "name": "9 LACHLAN STREET BOREE CREEK 2652",
    "locID": "LOC000109491451",
    "tech": "SATELLITE",
    "upgrade": "NULL_NA",
    "gnaf_pid": "GANSW717377251"
   }
  },
  {
   "type": "Feature",
   "geometry": {
    "type": "Point",
    "coordinates": [
     146.60761336,
     -35.1061272
    ]
   },
   "properties": {
    "name": "10-12 NAMOI STREET BOREE CREEK 2652",
    "locID": "ChIJvQk8cv3mIWsRU61MTg1WlkM",
    "tech": "SATELLITE",
    "upgrade": "UNKNOWN",
    "gnaf_pid": "GANSW717379501"
   }
  },
  {
   "type": "Feature",
   "geometry": {
    "type": "Point",
    "coordinates": [
     146.60761336,
     -35.1061272
    ]
   },
   "properties": {
    "name": "14-16 NAMOI STREET BOREE CREEK 2652",
    "locID": "ChIJvQk8cv3mIWsRUqy6teOtYnc",
    "tech": "SATELLITE",
    "upgrade": "UNKNOWN",
    "gnaf_pid": "GANSW717379502"
   }
  },
  {
   "type": "Feature",
   "geometry": {
    "type": "Point",
    "coordinates": [
     146.60761336,
     -35.1061272
    ]
   },
   "properties": {
    "name": "18-20 NAMOI STREET BOREE CREEK 2652",
    "locID": "ChIJvQk8cv3mIWsRmcwPH0mjjms",
    "tech": "SATELLITE",
    "upgrade": "UNKNOWN",
    "gnaf_pid": "GANSW717379503"
   }
  },
  {
   "type": "Feature",
   "geometry": {
    "type": "Point",
    "coordinates": [
     146.60761336,
     -35.1061272
    ]
   },
   "properties": {
    "name": "24-26 NAMOI STREET BOREE CREEK 2652",
    "locID": "ChIJvQk8cv3mIWsR3UCQzNGhGyU",
    "tech": "SATELLITE",
    "upgrade": "UNKNOWN",
    "gnaf_pid": "GANSW717379505"
   }
  },
  {
   "type": "Feature",
   "geometry": {
    "type": "Point",
    "coordinates": [
     146.60761336,
     -35.1061272
    ]
   },
   "properties": {
    "name": "28-30 NAMOI STREET BOREE CREEK 2652",
    "locID": "ChIJvQk8cv3mIWsRep0HqfjnZTg",
    "tech": "SATELLITE",
    "upgrade": "UNKNOWN",
    "gnaf_pid": "GANSW717379506"
   }
  },
  {
   "type": "Feature",
   "geometry": {
    "type": "Point",
    "coordinates": [
     146.60761336,
     -35.1061272
    ]
   },
   "properties": {
    "name": "2 NAMOI STREET BOREE CREEK 2652",
    "locID": "LOC000150094374",
    "tech": "SATELLITE",
    "upgrade": "NULL_NA",
    "gnaf_pid": "GANSW717379508"
   }
  },
  {
   "type": "Feature",
   "geometry": {
    "type": "Point",
    "coordinates": [
     146.60761336,
     -35.1061272
    ]
   },
   "properties": {
    "name": "32-34 NAMOI STREET BOREE CREEK 2652",
    "locID": "ChIJvQk8cv3mIWsRIO5VSkHkkC4",
    "tech": "SATELLITE",
    "upgrade": "UNKNOWN",
    "gnaf_pid": "GANSW717379509"
   }
  },
  {
   "type": "Feature",
   "geometry": {
    "type": "Point",
    "coordinates": [
     146.60761336,
     -35.1061272
    ]
   },
   "properties": {
    "name": "33-35 NAMOI STREET BOREE CREEK 2652",
    "locID": "ChIJvQk8cv3mIWsRjkUdBi3caZY",
    "tech": "SATELLITE",
    "upgrade": "UNKNOWN",
    "gnaf_pid": "GANSW717379510"
   }
  },
  {
   "type": "Feature",
   "geometry": {
    "type": "Point",
    "coordinates": [
     146.60761336,
     -35.1061272
    ]
   },
   "properties": {
    "name": "36-38 NAMOI STREET BOREE CREEK 2652",
    "locID": "ChIJvQk8cv3mIWsRCjftT904oJU",
    "tech": "SATELLITE",
    "upgrade": "UNKNOWN",
    "gnaf_pid": "GANSW717379511"
   }
  },
  {
   "type": "Feature",
   "geometry": {
    "type": "Point",
    "coordinates": [
     146.60761336,
     -35.1061272
    ]
   },
   "properties": {
    "name": "37-39 NAMOI STREET BOREE CREEK 2652",
    "locID": "ChIJvQk8cv3mIWsRgiNx7FuQKEY",
    "tech": "SATELLITE",
    "upgrade": "UNKNOWN",
    "gnaf_pid": "GANSW717379512"
   }
  },
  {
   "type": "Feature",
   "geometry": {
    "type": "Point",
    "coordinates": [
     146.60761336,
     -35.1061272
    ]
   },
   "properties": {
    "name": "40-42 NAMOI STREET BOREE CREEK 2652",
    "locID": "ChIJvQk8cv3mIWsRZ3J55pO0BNo",
    "tech": "SATELLITE",
    "upgrade": "UNKNOWN",
    "gnaf_pid": "GANSW717379513"
   }
  },
  {
   "type": "Feature",
   "geometry": {
    "type": "Point",
    "coordinates": [
     146.60761336,
     -35.1061272
    ]
   },
   "properties": {
    "name": "41-43 NAMOI STREET BOREE CREEK 2652",
    "locID": "ChIJvQk8cv3mIWsR8L5eg4GqgTU",
    "tech": "SATELLITE",
    "upgrade": "UNKNOWN",
    "gnaf_pid": "GANSW717379514"
   }
  },
  {
   "type": "Feature",
   "geometry": {
    "type": "Point",
    "coordinates": [
     146.60761336,
     -35.1061272
    ]
   },
   "properties": {
    "name": "44-46 NAMOI STREET BOREE CREEK 2652",
    "locID": "ChIJvQk8cv3mIWsRzaZVS1b14oE",
    "tech": "SATELLITE",
    "upgrade": "UNKNOWN",
    "gnaf_pid": "GANSW717379515"
   }
  },
  {
   "type": "Feature",
   "geometry": {
    "type": "Point",
    "coordinates": [
     146.60761336,
     -35.1061272
    ]
   },
   "properties": {
    "name": "45-47 NAMOI STREET BOREE CREEK 2652",
    "locID": "Eiw0NSBOYW1vaSBTdCwgQm9yZWUgQ3JlZWsgTlNXIDI2NTIsIEF1c3RyYWxpYSIwEi4KFAoSCfejxoD95iFrEaHPtXK0CQYTEC0qFAoSCWmsnW395iFrEf36EZjGzWGQ",
    "tech": "SATELLITE",
    "upgrade": "UNKNOWN",
    "gnaf_pid": "GANSW717379516"
   }
  },
  {
   "type": "Feature",
   "geometry": {
    "type": "Point",
    "coordinates": [
     146.60761336,
     -35.1061272
    ]
   },
   "properties": {
    "name": "48-50 NAMOI STREET BOREE CREEK 2652",
    "locID": "ChIJvQk8cv3mIWsR0dB7qT-ccAc",
    "tech": "SATELLITE",
    "upgrade": "UNKNOWN",
    "gnaf_pid": "GANSW717379517"
   }
  },
  {
   "type": "Feature",
   "geometry": {
    "type": "Point",
    "coordinates": [
     146.60761336,
     -35.1061272
    ]
   },
   "properties": {
    "name": "49-51 NAMOI STREET BOREE CREEK 2652",
    "locID": "ChIJvQk8cv3mIWsRpQb1nK66MEg",
    "tech": "SATELLITE",
    "upgrade": "UNKNOWN",
    "gnaf_pid": "GANSW717379518"
   }
  },
  {
   "type": "Feature",
   "geometry": {
    "type": "Point",
    "coordinates": [
     146.60761336,
     -35.1061272
    ]
   },
   "properties": {
    "name": "4 NAMOI STREET BOREE CREEK 2652",
    "locID": "ChIJvQk8cv3mIWsRn_hawF7vjno",
    "tech": "SATELLITE",
    "upgrade": "UNKNOWN",
    "gnaf_pid": "GANSW717379519"
   }
  },
  {
   "type": "Feature",
   "geometry": {
    "type": "Point",
    "coordinates": [
     146.60761336,
     -35.1061272
    ]
   },
   "properties": {
    "name": "52-58 NAMOI STREET BOREE CREEK 2652",
    "locID": "ChIJvQk8cv3mIWsRYXU0UmO9bKs",
    "tech": "SATELLITE",
    "upgrade": "UNKNOWN",
    "gnaf_pid": "GANSW717379520"
   }
  },
  {
   "type": "Feature",
   "geometry": {
    "type": "Point",
    "coordinates": [
     146.60761336,
     -35.1061272
    ]
   },
   "properties": {
    "name": "53-55 NAMOI STREET BOREE CREEK 2652",
    "locID": "ChIJvQk8cv3mIWsRNL53PMwEN2E",
    "tech": "SATELLITE",
    "upgrade": "UNKNOWN",
    "gnaf_pid": "GANSW717379521"
   }
  },
  {
   "type": "Feature",
   "geometry": {
    "type": "Point",
    "coordinates": [
     146.60761336,
     -35.1061272
    ]
   },
   "properties": {
    "name": "57-59 NAMOI STREET BOREE CREEK 2652",
    "locID": "Eiw1NyBOYW1vaSBTdCwgQm9yZWUgQ3JlZWsgTlNXIDI2NTIsIEF1c3RyYWxpYSIwEi4KFAoSCfejxoD95iFrEaHPtXK0CQYTEDkqFAoSCWmsnW395iFrEf36EZjGzWGQ",
    "tech": "SATELLITE",
    "upgrade": "UNKNOWN",
    "gnaf_pid": "GANSW717379522"
   }
  },
  {
   "type": "Feature",
   "geometry": {
    "type": "Point",
    "coordinates": [
     146.60761336,
     -35.1061272
    ]
   },
   "properties": {
    "name": "60-62 NAMOI STREET BOREE CREEK 2652",
    "locID": "ChIJvQk8cv3mIWsRki2fVoVq_ps",
    "tech": "SATELLITE",
    "upgrade": "UNKNOWN",
    "gnaf_pid": "GANSW717379523"
   }
  },
  {
   "type": "Feature",
   "geometry": {
    "type": "Point",
    "coordinates": [
     146.60761336,
     -35.1061272
    ]
   },
   "properties": {
    "name": "61-63 NAMOI STREET BOREE CREEK 2652",
    "locID": "ChIJvQk8cv3mIWsR9m_Ju-gJUN8",
    "tech": "SATELLITE",
    "upgrade": "UNKNOWN",
    "gnaf_pid": "GANSW717379524"
   }
  },
  {
   "type": "Feature",
   "geometry": {
    "type": "Point",
    "coordinates": [
     146.60761336,
     -35.1061272
    ]
   },
   "properties": {
    "name": "65-67 NAMOI STREET BOREE CREEK 2652",
    "locID": "ChIJvQk8cv3mIWsRjOFCU6-DjfE",
    "tech": "SATELLITE",
    "upgrade": "UNKNOWN",
    "gnaf_pid": "GANSW717379525"
   }
  },
  {
   "type": "Feature",
   "geometry": {
    "type": "Point",
    "coordinates": [
     146.60972841,
     -35.10538585
    ]
   },
   "properties": {
    "name": "6-8 NAMOI STREET BOREE CREEK 2652",
    "locID": "LOC000016787385",
    "tech": "SATELLITE",
    "upgrade": "NULL_NA",
    "gnaf_pid": "GANSW717379526"
   }
  },
  {
   "type": "Feature",
   "geometry": {
    "type": "Point",
    "coordinates": [
     146.60492866,
     -35.10871968
    ]
   },
   "properties": {
    "name": "10 ORME STREET BOREE CREEK 2652",
    "locID": "LOC000093563668",
    "tech": "SATELLITE",
    "upgrade": "NULL_NA",
    "gnaf_pid": "GANSW717380314"
   }
  },
  {
   "type": "Feature",
   "geometry": {
    "type": "Point",
    "coordinates": [
     146.60481087,
     -35.10856629
    ]
   },
   "properties": {
    "name": "12 ORME STREET BOREE CREEK 2652",
    "locID": "LOC000094551483",
    "tech": "SATELLITE",
    "upgrade": "NULL_NA",
    "gnaf_pid": "GANSW717380316"
   }
  },
  {
   "type": "Feature",
   "geometry": {
    "type": "Point",
    "coordinates": [
     146.6038852,
     -35.10878364
    ]
   },
   "properties": {
    "name": "15 ORME STREET BOREE CREEK 2652",
    "locID": "LOC000102902783",
    "tech": "SATELLITE",
    "upgrade": "NULL_NA",
    "gnaf_pid": "GANSW717380319"
   }
  },
  {
   "type": "Feature",
   "geometry": {
    "type": "Point",
    "coordinates": [
     146.60469309,
     -35.10841289
    ]
   },
   "properties": {
    "name": "20 ORME STREET BOREE CREEK 2652",
    "locID": "LOC000089255752",
    "tech": "SATELLITE",
    "upgrade": "NULL_NA",
    "gnaf_pid": "GANSW717380323"
   }
  },
  {
   "type": "Feature",
   "geometry": {
    "type": "Point",
    "coordinates": [
     146.6044452,
     -35.1093724
    ]
   },
   "properties": {
    "name": "7 ORME STREET BOREE CREEK 2652",
    "locID": "LOC000057235592",
    "tech": "SATELLITE",
    "upgrade": "NULL_NA",
    "gnaf_pid": "GANSW717380331"
   }
  },
  {
   "type": "Feature",
   "geometry": {
    "type": "Point",
    "coordinates": [
     146.61010239,
     -35.10875439
    ]
   },
   "properties": {
    "name": "10 RICHMOND STREET BOREE CREEK 2652",
    "locID": "ChIJVXlIOPzmIWsRBlZIU_Onl8I",
    "tech": "SATELLITE",
    "upgrade": "UNKNOWN",
    "gnaf_pid": "GANSW717382690"
   }
  },
  {
   "type": "Feature",
   "geometry": {
    "type": "Point",
    "coordinates": [
     146.61180589,
     -35.10746371
    ]
   },
   "properties": {
    "name": "11-13 RICHMOND STREET BOREE CREEK 2652",
    "locID": "ChIJrbBwg_zmIWsRK7DKAxl1FJ4",
    "tech": "SATELLITE",
    "upgrade": "UNKNOWN",
    "gnaf_pid": "GANSW717382691"
   }
  },
  {
   "type": "Feature",
   "geometry": {
    "type": "Point",
    "coordinates": [
     146.61042029,
     -35.1085915
    ]
   },
   "properties": {
    "name": "12 RICHMOND STREET BOREE CREEK 2652",
    "locID": "Ei8xMiBSaWNobW9uZCBTdCwgQm9yZWUgQ3JlZWsgTlNXIDI2NTIsIEF1c3RyYWxpYSIwEi4KFAoSCV3ObmH85iFrEeDPtXK0CQYTEAwqFAoSCeFSfj_v5iFrESfkVKS6kUHX",
    "tech": "SATELLITE",
    "upgrade": "UNKNOWN",
    "gnaf_pid": "GANSW717382692"
   }
  },
  {
   "type": "Feature",
   "geometry": {
    "type": "Point",
    "coordinates": [
     146.61057931,
     -35.10852442
    ]
   },
   "properties": {
    "name": "14 RICHMOND STREET BOREE CREEK 2652",
    "locID": "LOC000041986950",
    "tech": "SATELLITE",
    "upgrade": "NULL_NA",
    "gnaf_pid": "GANSW717382693"
   }
  },
  {
   "type": "Feature",
   "geometry": {
    "type": "Point",
    "coordinates": [
     146.61180589,
     -35.10746371
    ]
   },
   "properties": {
    "name": "15-21 RICHMOND STREET BOREE CREEK 2652",
    "locID": "ChIJrbBwg_zmIWsRqncy6vITVfo",
    "tech": "SATELLITE",
    "upgrade": "UNKNOWN",
    "gnaf_pid": "GANSW717382694"
   }
  },
  {
   "type": "Feature",
   "geometry": {
    "type": "Point",
    "coordinates": [
     146.61095195,
     -35.10826319
    ]
   },
   "properties": {
    "name": "16 RICHMOND STREET BOREE CREEK 2652",
    "locID": "ChIJJZkjZvzmIWsR-pH32lKmBNo",
    "tech": "SATELLITE",
    "upgrade": "UNKNOWN",
    "gnaf_pid": "GANSW717382695"
   }
  },
  {
   "type": "Feature",
   "geometry": {
    "type": "Point",
    "coordinates": [
     146.61106046,
     -35.10821758
    ]
   },
   "properties": {
    "name": "18 RICHMOND STREET BOREE CREEK 2652",
    "locID": "LOC000076344319",
    "tech": "SATELLITE",
    "upgrade": "NULL_NA",
    "gnaf_pid": "GANSW717382696"
   }
  },
  {
   "type": "Feature",
   "geometry": {
    "type": "Point",
    "coordinates": [
     146.61126561,
     -35.10811092
    ]
   },
   "properties": {
    "name": "20 RICHMOND STREET BOREE CREEK 2652",
    "locID": "ChIJNwCFZPzmIWsRVRBeNOJU-Js",
    "tech": "SATELLITE",
    "upgrade": "UNKNOWN",
    "gnaf_pid": "GANSW717382698"
   }
  },
  {
   "type": "Feature",
   "geometry": {
    "type": "Point",
    "coordinates": [
     146.61147076,
     -35.10800427
    ]
   },
   "properties": {
    "name": "22 RICHMOND STREET BOREE CREEK 2652",
    "locID": "ChIJlS_ZfPzmIWsRWuj0UGWrQUI",
    "tech": "SATELLITE",
    "upgrade": "UNKNOWN",
    "gnaf_pid": "GANSW717382699"
   }
  },
  {
   "type": "Feature",
   "geometry": {
    "type": "Point",
    "coordinates": [
     146.61180589,
     -35.10746371
    ]
   },
   "properties": {
    "name": "23-29 RICHMOND STREET BOREE CREEK 2652",
    "locID": "Ei8yMyBSaWNobW9uZCBTdCwgQm9yZWUgQ3JlZWsgTlNXIDI2NTIsIEF1c3RyYWxpYSIwEi4KFAoSCQPrGzb85iFrEdGptXK0CQYTEBcqFAoSCeFSfj_v5iFrESfkVKS6kUHX",
    "tech": "SATELLITE",
    "upgrade": "UNKNOWN",
    "gnaf_pid": "GANSW717382700"
   }
  },
  {
   "type": "Feature",
   "geometry": {
    "type": "Point",
    "coordinates": [
     146.6116759,
     -35.10789761
    ]
   },
   "properties": {
    "name": "24 RICHMOND STREET BOREE CREEK 2652",
    "locID": "ChIJV79fh_zmIWsROUI0XSy34HI",
    "tech": "SATELLITE",
    "upgrade": "UNKNOWN",
    "gnaf_pid": "GANSW717382701"
   }
  },
  {
   "type": "Feature",
   "geometry": {
    "type": "Point",
    "coordinates": [
     146.61188105,
     -35.10779095
    ]
   },
   "properties": {
    "name": "26 RICHMOND STREET BOREE CREEK 2652",
    "locID": "LOC000150094255",
    "tech": "SATELLITE",
    "upgrade": "NULL_NA",
    "gnaf_pid": "GANSW717382702"
   }
  },
  {
   "type": "Feature",
   "geometry": {
    "type": "Point",
    "coordinates": [
     146.61198956,
     -35.10774534
    ]
   },
   "properties": {
    "name": "28 RICHMOND STREET BOREE CREEK 2652",
    "locID": "ChIJWxuRgfzmIWsR2h3Ixs0Ebfc",
    "tech": "SATELLITE",
    "upgrade": "UNKNOWN",
    "gnaf_pid": "GANSW717382703"
   }
  },
  {
   "type": "Feature",
   "geometry": {
    "type": "Point",
    "coordinates": [
     146.61180589,
     -35.10746371
    ]
   },
   "properties": {
    "name": "2-4 RICHMOND STREET BOREE CREEK 2652",
    "locID": "LOC000150094255",
    "tech": "SATELLITE",
    "upgrade": "NULL_NA",
    "gnaf_pid": "GANSW717382704"
   }
  },
  {
   "type": "Feature",
   "geometry": {
    "type": "Point",
    "coordinates": [
     146.61011231,
     -35.10796243
    ]
   },
   "properties": {
    "name": "37 RICHMOND STREET BOREE CREEK 2652",
    "locID": "LOC000098493091",
    "tech": "SATELLITE",
    "upgrade": "NULL_NA",
    "gnaf_pid": "GANSW717382706"
   }
  },
  {
   "type": "Feature",
   "geometry": {
    "type": "Point",
    "coordinates": [
     146.61078969,
     -35.10735581
    ]
   },
   "properties": {
    "name": "43-45 RICHMOND STREET BOREE CREEK 2652",
    "locID": "ChIJMWpdi_zmIWsRug3KEy7BlNE",
    "tech": "SATELLITE",
    "upgrade": "UNKNOWN",
    "gnaf_pid": "GANSW717382708"
   }
  },
  {
   "type": "Feature",
   "geometry": {
    "type": "Point",
    "coordinates": [
     146.61095093,
     -35.10727199
    ]
   },
   "properties": {
    "name": "47-49 RICHMOND STREET BOREE CREEK 2652",
    "locID": "ChIJUZZGjPzmIWsR_QDUgqZD0Hk",
    "tech": "SATELLITE",
    "upgrade": "UNKNOWN",
    "gnaf_pid": "GANSW717382709"
   }
  },
  {
   "type": "Feature",
   "geometry": {
    "type": "Point",
    "coordinates": [
     146.61111217,
     -35.10718816
    ]
   },
   "properties": {
    "name": "51-53 RICHMOND STREET BOREE CREEK 2652",
    "locID": "ChIJrR8TjvzmIWsRFj0M0_vLGEA",
    "tech": "SATELLITE",
    "upgrade": "UNKNOWN",
    "gnaf_pid": "GANSW717382710"
   }
  },
  {
   "type": "Feature",
   "geometry": {
    "type": "Point",
    "coordinates": [
     146.6112734,
     -35.10710433
    ]
   },
   "properties": {
    "name": "55-57 RICHMOND STREET BOREE CREEK 2652",
    "locID": "ChIJLWY3kPzmIWsR3hqia9GtxNo",
    "tech": "SATELLITE",
    "upgrade": "UNKNOWN",
    "gnaf_pid": "GANSW717382711"
   }
  },
  {
   "type": "Feature",
   "geometry": {
    "type": "Point",
    "coordinates": [
     146.61180589,
     -35.10746371
    ]
   },
   "properties": {
    "name": "63-65 RICHMOND STREET BOREE CREEK 2652",
    "locID": "ChIJrbBwg_zmIWsRxGforLx5DOQ",
    "tech": "SATELLITE",
    "upgrade": "UNKNOWN",
    "gnaf_pid": "GANSW717382713"
   }
  },
  {
   "type": "Feature",
   "geometry": {
    "type": "Point",
    "coordinates": [
     146.61180589,
     -35.10746371
    ]
   },
   "properties": {
    "name": "67-69 RICHMOND STREET BOREE CREEK 2652",
    "locID": "ChIJrbBwg_zmIWsR3fWGwzSwiH0",
    "tech": "SATELLITE",
    "upgrade": "UNKNOWN",
    "gnaf_pid": "GANSW717382714"
   }
  },
  {
   "type": "Feature",
   "geometry": {
    "type": "Point",
    "coordinates": [
     146.61180589,
     -35.10746371
    ]
   },
   "properties": {
    "name": "6 RICHMOND STREET BOREE CREEK 2652",
    "locID": "ChIJrbBwg_zmIWsRsqTUuDKfYpQ",
    "tech": "SATELLITE",
    "upgrade": "UNKNOWN",
    "gnaf_pid": "GANSW717382715"
   }
  },
  {
   "type": "Feature",
   "geometry": {
    "type": "Point",
    "coordinates": [
     146.61180589,
     -35.10746371
    ]
   },
   "properties": {
    "name": "71-73 RICHMOND STREET BOREE CREEK 2652",
    "locID": "ChIJrbBwg_zmIWsRDVSXCNSijh4",
    "tech": "SATELLITE",
    "upgrade": "UNKNOWN",
    "gnaf_pid": "GANSW717382716"
   }
  },
  {
   "type": "Feature",
   "geometry": {
    "type": "Point",
    "coordinates": [
     146.61180589,
     -35.10746371
    ]
   },
   "properties": {
    "name": "75-77 RICHMOND STREET BOREE CREEK 2652",
    "locID": "ChIJrbBwg_zmIWsRCtcdphP65sI",
    "tech": "SATELLITE",
    "upgrade": "UNKNOWN",
    "gnaf_pid": "GANSW717382717"
   }
  },
  {
   "type": "Feature",
   "geometry": {
    "type": "Point",
    "coordinates": [
     146.61180589,
     -35.10746371
    ]
   },
   "properties": {
    "name": "79-81 RICHMOND STREET BOREE CREEK 2652",
    "locID": "ChIJrbBwg_zmIWsRitdkwHI7R5o",
    "tech": "SATELLITE",
    "upgrade": "UNKNOWN",
    "gnaf_pid": "GANSW717382718"
   }
  },
  {
   "type": "Feature",
   "geometry": {
    "type": "Point",
    "coordinates": [
     146.61180589,
     -35.10746371
    ]
   },
   "properties": {
    "name": "7-9 RICHMOND STREET BOREE CREEK 2652",
    "locID": "ChIJrbBwg_zmIWsRyqdzeOo94Hk",
    "tech": "SATELLITE",
    "upgrade": "UNKNOWN",
    "gnaf_pid": "GANSW717382719"
   }
  },
  {
   "type": "Feature",
   "geometry": {
    "type": "Point",
    "coordinates": [
     146.61180589,
     -35.10746371
    ]
   },
   "properties": {
    "name": "83-85 RICHMOND STREET BOREE CREEK 2652",
    "locID": "ChIJrbBwg_zmIWsRxQe3jAyRBGk",
    "tech": "SATELLITE",
    "upgrade": "UNKNOWN",
    "gnaf_pid": "GANSW717382720"
   }
  },
  {
   "type": "Feature",
   "geometry": {
    "type": "Point",
    "coordinates": [
     146.61180589,
     -35.10746371
    ]
   },
   "properties": {
    "name": "87-89 RICHMOND STREET BOREE CREEK 2652",
    "locID": "ChIJrbBwg_zmIWsRawIKcWwNQ5M",
    "tech": "SATELLITE",
    "upgrade": "UNKNOWN",
    "gnaf_pid": "GANSW717382721"
   }
  },
  {
   "type": "Feature",
   "geometry": {
    "type": "Point",
    "coordinates": [
     146.6099399,
     -35.10881559
    ]
   },
   "properties": {
    "name": "8 RICHMOND STREET BOREE CREEK 2652",
    "locID": "LOC000030659631",
    "tech": "SATELLITE",
    "upgrade": "NULL_NA",
    "gnaf_pid": "GANSW717382722"
   }
  },
  {
   "type": "Feature",
   "geometry": {
    "type": "Point",
    "coordinates": [
     146.61180589,
     -35.10746371
    ]
   },
   "properties": {
    "name": "91-93 RICHMOND STREET BOREE CREEK 2652",
    "locID": "ChIJrbBwg_zmIWsRdkmsXQTt8fE",
    "tech": "SATELLITE",
    "upgrade": "UNKNOWN",
    "gnaf_pid": "GANSW717382723"
   }
  },
  {
   "type": "Feature",
   "geometry": {
    "type": "Point",
    "coordinates": [
     146.61396949,
     -35.10145408
    ]
   },
   "properties": {
    "name": "32-34 SEVERN STREET BOREE CREEK 2652",
    "locID": "ChIJhZvmJuTmIWsRD3alvi06Hg4",
    "tech": "SATELLITE",
    "upgrade": "UNKNOWN",
    "gnaf_pid": "GANSW717383486"
   }
  },
  {
   "type": "Feature",
   "geometry": {
    "type": "Point",
    "coordinates": [
     146.61396949,
     -35.10145408
    ]
   },
   "properties": {
    "name": "36-38 SEVERN STREET BOREE CREEK 2652",
    "locID": "ChIJhZvmJuTmIWsRT_RjEuKghCU",
    "tech": "SATELLITE",
    "upgrade": "UNKNOWN",
    "gnaf_pid": "GANSW717383487"
   }
  },
  {
   "type": "Feature",
   "geometry": {
    "type": "Point",
    "coordinates": [
     146.61396949,
     -35.10145408
    ]
   },
   "properties": {
    "name": "40-42 SEVERN STREET BOREE CREEK 2652",
    "locID": "ChIJhZvmJuTmIWsRLzzYFyuuOL0",
    "tech": "SATELLITE",
    "upgrade": "UNKNOWN",
    "gnaf_pid": "GANSW717383488"
   }
  },
  {
   "type": "Feature",
   "geometry": {
    "type": "Point",
    "coordinates": [
     146.61396949,
     -35.10145408
    ]
   },
   "properties": {
    "name": "46-48 SEVERN STREET BOREE CREEK 2652",
    "locID": "ChIJhZvmJuTmIWsRMVUz_BuEouI",
    "tech": "SATELLITE",
    "upgrade": "UNKNOWN",
    "gnaf_pid": "GANSW717383489"
   }
  },
  {
   "type": "Feature",
   "geometry": {
    "type": "Point",
    "coordinates": [
     146.61396949,
     -35.10145408
    ]
   },
   "properties": {
    "name": "50-52 SEVERN STREET BOREE CREEK 2652",
    "locID": "ChIJhZvmJuTmIWsRkJpjm4uEurk",
    "tech": "SATELLITE",
    "upgrade": "UNKNOWN",
    "gnaf_pid": "GANSW717383490"
   }
  },
  {
   "type": "Feature",
   "geometry": {
    "type": "Point",
    "coordinates": [
     146.61396949,
     -35.10145408
    ]
   },
   "properties": {
    "name": "54-56 SEVERN STREET BOREE CREEK 2652",
    "locID": "Ei01NCBTZXZlcm4gU3QsIEJvcmVlIENyZWVrIE5TVyAyNjUyLCBBdXN0cmFsaWEiMBIuChQKEglFYfAm5OYhaxGeTxOJzB3xqBA2KhQKEglFYfAm5OYhaxHpRSo3SRf_6w",
    "tech": "SATELLITE",
    "upgrade": "UNKNOWN",
    "gnaf_pid": "GANSW717383491"
   }
  },
  {
   "type": "Feature",
   "geometry": {
    "type": "Point",
    "coordinates": [
     146.61396949,
     -35.10145408
    ]
   },
   "properties": {
    "name": "58-60 SEVERN STREET BOREE CREEK 2652",
    "locID": "ChIJhZvmJuTmIWsRAlNl4_axWMw",
    "tech": "SATELLITE",
    "upgrade": "UNKNOWN",
    "gnaf_pid": "GANSW717383492"
   }
  },
  {
   "type": "Feature",
   "geometry": {
    "type": "Point",
    "coordinates": [
     146.60354804,
     -35.1099633
    ]
   },
   "properties": {
    "name": "10 WILLIAM STREET BOREE CREEK 2652",
    "locID": "ChIJb-ssBwHnIWsR2tzJNvdD0lE",
    "tech": "SATELLITE",
    "upgrade": "UNKNOWN",
    "gnaf_pid": "GANSW717386771"
   }
  },
  {
   "type": "Feature",
   "geometry": {
    "type": "Point",
    "coordinates": [
     146.60354804,
     -35.1099633
    ]
   },
   "properties": {
    "name": "12 WILLIAM STREET BOREE CREEK 2652",
    "locID": "ChIJb-ssBwHnIWsRdc61kf0HCTE",
    "tech": "SATELLITE",
    "upgrade": "UNKNOWN",
    "gnaf_pid": "GANSW717386772"
   }
  },
  {
   "type": "Feature",
   "geometry": {
    "type": "Point",
    "coordinates": [
     146.60354804,
     -35.1099633
    ]
   },
   "properties": {
    "name": "14 WILLIAM STREET BOREE CREEK 2652",
    "locID": "ChIJb-ssBwHnIWsRTsAeTE4P-LU",
    "tech": "SATELLITE",
    "upgrade": "UNKNOWN",
    "gnaf_pid": "GANSW717386773"
   }
  },
  {
   "type": "Feature",
   "geometry": {
    "type": "Point",
    "coordinates": [
     146.60354804,
     -35.1099633
    ]
   },
   "properties": {
    "name": "16 WILLIAM STREET BOREE CREEK 2652",
    "locID": "ChIJb-ssBwHnIWsR_9HR0qzG9eE",
    "tech": "SATELLITE",
    "upgrade": "UNKNOWN",
    "gnaf_pid": "GANSW717386774"
   }
  },
  {
   "type": "Feature",
   "geometry": {
    "type": "Point",
    "coordinates": [
     146.60354804,
     -35.1099633
    ]
   },
   "properties": {
    "name": "18-24 WILLIAM STREET BOREE CREEK 2652",
    "locID": "ChIJb-ssBwHnIWsRRCDKlXPJKvQ",
    "tech": "SATELLITE",
    "upgrade": "UNKNOWN",
    "gnaf_pid": "GANSW717386775"
   }
  },
  {
   "type": "Feature",
   "geometry": {
    "type": "Point",
    "coordinates": [
     146.60354804,
     -35.1099633
    ]
   },
   "properties": {
    "name": "26-28 WILLIAM STREET BOREE CREEK 2652",
    "locID": "ChIJb-ssBwHnIWsRZk_pEemNfR0",
    "tech": "SATELLITE",
    "upgrade": "UNKNOWN",
    "gnaf_pid": "GANSW717386776"
   }
  },
  {
   "type": "Feature",
   "geometry": {
    "type": "Point",
    "coordinates": [
     146.60362131,
     -35.10937067
    ]
   },
   "properties": {
    "name": "2 WILLIAM STREET BOREE CREEK 2652",
    "locID": "ChIJC_geCgHnIWsRBB1zPv79XXg",
    "tech": "SATELLITE",
    "upgrade": "UNKNOWN",
    "gnaf_pid": "GANSW717386777"
   }
  },
  {
   "type": "Feature",
   "geometry": {
    "type": "Point",
    "coordinates": [
     146.60354804,
     -35.1099633
    ]
   },
   "properties": {
    "name": "30 WILLIAM STREET BOREE CREEK 2652",
    "locID": "ChIJb-ssBwHnIWsRg5u2OaxU6sk",
    "tech": "SATELLITE",
    "upgrade": "UNKNOWN",
    "gnaf_pid": "GANSW717386778"
   }
  },
  {
   "type": "Feature",
   "geometry": {
    "type": "Point",
    "coordinates": [
     146.60354804,
     -35.1099633
    ]
   },
   "properties": {
    "name": "32 WILLIAM STREET BOREE CREEK 2652",
    "locID": "ChIJb-ssBwHnIWsReGA-YdxzlcY",
    "tech": "SATELLITE",
    "upgrade": "UNKNOWN",
    "gnaf_pid": "GANSW717386779"
   }
  },
  {
   "type": "Feature",
   "geometry": {
    "type": "Point",
    "coordinates": [
     146.60354804,
     -35.1099633
    ]
   },
   "properties": {
    "name": "34 WILLIAM STREET BOREE CREEK 2652",
    "locID": "ChIJb-ssBwHnIWsRc4Tqu6so2_M",
    "tech": "SATELLITE",
    "upgrade": "UNKNOWN",
    "gnaf_pid": "GANSW717386780"
   }
  },
  {
   "type": "Feature",
   "geometry": {
    "type": "Point",
    "coordinates": [
     146.60354804,
     -35.1099633
    ]
   },
   "properties": {
    "name": "4 WILLIAM STREET BOREE CREEK 2652",
    "locID": "ChIJb-ssBwHnIWsR2lgZKpoNHrQ",
    "tech": "SATELLITE",
    "upgrade": "UNKNOWN",
    "gnaf_pid": "GANSW717386781"
   }
  },
  {
   "type": "Feature",
   "geometry": {
    "type": "Point",
    "coordinates": [
     146.60354804,
     -35.1099633
    ]
   },
   "properties": {
    "name": "6 WILLIAM STREET BOREE CREEK 2652",
    "locID": "Ei02IFdpbGxpYW0gU3QsIEJvcmVlIENyZWVrIE5TVyAyNjUyLCBBdXN0cmFsaWEiMBIuChQKEglDIHsGAechaxG_dQmlxmwbdRAGKhQKEgl3HzAHAechaxHzrENnIdgStw",
    "tech": "SATELLITE",
    "upgrade": "UNKNOWN",
    "gnaf_pid": "GANSW717386782"
   }
  },
  {
   "type": "Feature",
   "geometry": {
    "type": "Point",
    "coordinates": [
     146.60354804,
     -35.1099633
    ]
   },
   "properties": {
    "name": "8 WILLIAM STREET BOREE CREEK 2652",
    "locID": "ChIJb-ssBwHnIWsRXnxKnoK_CM4",
    "tech": "SATELLITE",
    "upgrade": "UNKNOWN",
    "gnaf_pid": "GANSW717386783"
   }
  },
  {
   "type": "Feature",
   "geometry": {
    "type": "Point",
    "coordinates": [
     146.61307985,
     -35.10881533
    ]
   },
   "properties": {
    "name": "13 ASTON STREET BOREE CREEK 2652",
    "locID": "ChIJ39s1mvvmIWsRunPlfz9d72o",
    "tech": "SATELLITE",
    "upgrade": "UNKNOWN",
    "gnaf_pid": "GANSW717590108"
   }
  },
  {
   "type": "Feature",
   "geometry": {
    "type": "Point",
    "coordinates": [
     146.60851749,
     -35.10711995
    ]
   },
   "properties": {
    "name": "60 CLARENCE STREET BOREE CREEK 2652",
    "locID": "ChIJ1XI4pv3mIWsR5jRl2vzSVFk",
    "tech": "SATELLITE",
    "upgrade": "UNKNOWN",
    "gnaf_pid": "GANSW717593587"
   }
  },
  {
   "type": "Feature",
   "geometry": {
    "type": "Point",
    "coordinates": [
     146.60851749,
     -35.10711995
    ]
   },
   "properties": {
    "name": "62-64 CLARENCE STREET BOREE CREEK 2652",
    "locID": "ChIJ1XI4pv3mIWsRB_dHN6vPwXA",
    "tech": "SATELLITE",
    "upgrade": "UNKNOWN",
    "gnaf_pid": "GANSW717593588"
   }
  },
  {
   "type": "Feature",
   "geometry": {
    "type": "Point",
    "coordinates": [
     146.60851749,
     -35.10711995
    ]
   },
   "properties": {
    "name": "66-68 CLARENCE STREET BOREE CREEK 2652",
    "locID": "ChIJ1XI4pv3mIWsRY0qnbW57wsE",
    "tech": "SATELLITE",
    "upgrade": "UNKNOWN",
    "gnaf_pid": "GANSW717593589"
   }
  },
  {
   "type": "Feature",
   "geometry": {
    "type": "Point",
    "coordinates": [
     146.61079294,
     -35.10645415
    ]
   },
   "properties": {
    "name": "6-12 CLARENCE STREET BOREE CREEK 2652",
    "locID": "ChIJ271BlfzmIWsRiBhG6zMusyw",
    "tech": "SATELLITE",
    "upgrade": "UNKNOWN",
    "gnaf_pid": "GANSW717593590"
   }
  },
  {
   "type": "Feature",
   "geometry": {
    "type": "Point",
    "coordinates": [
     146.60851749,
     -35.10711995
    ]
   },
   "properties": {
    "name": "70-72 CLARENCE STREET BOREE CREEK 2652",
    "locID": "ChIJ1XI4pv3mIWsR_WTbDvWbroA",
    "tech": "SATELLITE",
    "upgrade": "UNKNOWN",
    "gnaf_pid": "GANSW717593591"
   }
  },
  {
   "type": "Feature",
   "geometry": {
    "type": "Point",
    "coordinates": [
     146.60851749,
     -35.10711995
    ]
   },
   "properties": {
    "name": "74-76 CLARENCE STREET BOREE CREEK 2652",
    "locID": "ChIJ1XI4pv3mIWsRoRbT-Hy7XZ4",
    "tech": "SATELLITE",
    "upgrade": "UNKNOWN",
    "gnaf_pid": "GANSW717593592"
   }
  },
  {
   "type": "Feature",
   "geometry": {
    "type": "Point",
    "coordinates": [
     146.60851749,
     -35.10711995
    ]
   },
   "properties": {
    "name": "78-80 CLARENCE STREET BOREE CREEK 2652",
    "locID": "ChIJ1XI4pv3mIWsR4RSO_U1DnL8",
    "tech": "SATELLITE",
    "upgrade": "UNKNOWN",
    "gnaf_pid": "GANSW717593593"
   }
  },
  {
   "type": "Feature",
   "geometry": {
    "type": "Point",
    "coordinates": [
     146.60851749,
     -35.10711995
    ]
   },
   "properties": {
    "name": "82-84 CLARENCE STREET BOREE CREEK 2652",
    "locID": "ChIJ1XI4pv3mIWsRAM0Ztmi-YpE",
    "tech": "SATELLITE",
    "upgrade": "UNKNOWN",
    "gnaf_pid": "GANSW717593594"
   }
  },
  {
   "type": "Feature",
   "geometry": {
    "type": "Point",
    "coordinates": [
     146.60851749,
     -35.10711995
    ]
   },
   "properties": {
    "name": "86-88 CLARENCE STREET BOREE CREEK 2652",
    "locID": "Ei84NiBDbGFyZW5jZSBTdCwgQm9yZWUgQ3JlZWsgTlNXIDI2NTIsIEF1c3RyYWxpYSIwEi4KFAoSCaEyc5P95iFrETHxtXK0CQYTEFYqFAoSCTm70qf95iFrEV05rVK0mtUB",
    "tech": "SATELLITE",
    "upgrade": "UNKNOWN",
    "gnaf_pid": "GANSW717593595"
   }
  },
  {
   "type": "Feature",
   "geometry": {
    "type": "Point",
    "coordinates": [
     146.61299576,
     -35.10447298
    ]
   },
   "properties": {
    "name": "13-15 MURRAY STREET BOREE CREEK 2652",
    "locID": "ChIJg33-luTmIWsRIQP4fnh849o",
    "tech": "SATELLITE",
    "upgrade": "UNKNOWN",
    "gnaf_pid": "GANSW717601249"
   }
  },
  {
   "type": "Feature",
   "geometry": {
    "type": "Point",
    "coordinates": [
     146.60285175,
     -34.97547016
    ]
   },
   "properties": {
    "name": "112 AXEHANDLE ROAD BOREE CREEK 2652",
    "locID": "ChIJT3WPYp9fH2sRuHqki1GFOdg",
    "tech": "SATELLITE",
    "upgrade": "UNKNOWN",
    "gnaf_pid": "GANSW717665920"
   }
  },
  {
   "type": "Feature",
   "geometry": {
    "type": "Point",
    "coordinates": [
     146.56335115,
     -35.02780482
    ]
   },
   "properties": {
    "name": "LOT 1 TELEPHONE ROAD BOREE CREEK 2652",
    "locID": "LOC000038361256",
    "tech": "SATELLITE",
    "upgrade": "NULL_NA",
    "gnaf_pid": "GANSW717680197"
   }
  },
  {
   "type": "Feature",
   "geometry": {
    "type": "Point",
    "coordinates": [
     146.56335115,
     -35.02780482
    ]
   },
   "properties": {
    "name": "LOT 3 TELEPHONE ROAD BOREE CREEK 2652",
    "locID": "Ei8zIFRlbGVwaG9uZSBSZCwgQm9yZWUgQ3JlZWsgTlNXIDI2NTIsIEF1c3RyYWxpYSIwEi4KFAoSCUvgg16A4CFrEXDAEIFU1saoEAMqFAoSCbOFhjGC4CFrESNa9T5U70ps",
    "tech": "SATELLITE",
    "upgrade": "UNKNOWN",
    "gnaf_pid": "GANSW717680198"
   }
  },
  {
   "type": "Feature",
   "geometry": {
    "type": "Point",
    "coordinates": [
     146.56335115,
     -35.02780482
    ]
   },
   "properties": {
    "name": "LOT 42 TELEPHONE ROAD BOREE CREEK 2652",
    "locID": "EjA0MiBUZWxlcGhvbmUgUmQsIEJvcmVlIENyZWVrIE5TVyAyNjUyLCBBdXN0cmFsaWEiMBIuChQKEglL4INegOAhaxFwwBCBVNbGqBAqKhQKEgmzhYYxguAhaxEjWvU-VO9KbA",
    "tech": "SATELLITE",
    "upgrade": "UNKNOWN",
    "gnaf_pid": "GANSW717680199"
   }
  },
  {
   "type": "Feature",
   "geometry": {
    "type": "Point",
    "coordinates": [
     146.56335115,
     -35.02780482
    ]
   },
   "properties": {
    "name": "LOT 52 TELEPHONE ROAD BOREE CREEK 2652",
    "locID": "EjA1MiBUZWxlcGhvbmUgUmQsIEJvcmVlIENyZWVrIE5TVyAyNjUyLCBBdXN0cmFsaWEiMBIuChQKEglL4INegOAhaxFwwBCBVNbGqBA0KhQKEgmzhYYxguAhaxEjWvU-VO9KbA",
    "tech": "SATELLITE",
    "upgrade": "UNKNOWN",
    "gnaf_pid": "GANSW717680200"
   }
  },
  {
   "type": "Feature",
   "geometry": {
    "type": "Point",
    "coordinates": [
     146.57905719,
     -34.96725909
    ]
   },
   "properties": {
    "name": "476 AXEHANDLE ROAD BOREE CREEK 2652",
    "locID": "LOC000037909911",
    "tech": "SATELLITE",
    "upgrade": "NULL_NA",
    "gnaf_pid": "GANSW717690158"
   }
  },
  {
   "type": "Feature",
   "geometry": {
    "type": "Point",
    "coordinates": [
     146.42555627,
     -35.13687201
    ]
   },
   "properties": {
    "name": "1485 BARRAGUNDA ROAD BOREE CREEK 2652",
    "locID": "LOC000121793429",
    "tech": "SATELLITE",
    "upgrade": "NULL_NA",
    "gnaf_pid": "GANSW717690648"
   }
  },
  {
   "type": "Feature",
   "geometry": {
    "type": "Point",
    "coordinates": [
     146.46043168,
     -35.10784098
    ]
   },
   "properties": {
    "name": "1937 BARRAGUNDA ROAD BOREE CREEK 2652",
    "locID": "ChIJ6fvLqLLEIWsRrYOgFXeXLSE",
    "tech": "SATELLITE",
    "upgrade": "UNKNOWN",
    "gnaf_pid": "GANSW717690649"
   }
  },
  {
   "type": "Feature",
   "geometry": {
    "type": "Point",
    "coordinates": [
     146.48124451,
     -35.09925598
    ]
   },
   "properties": {
    "name": "2085 BARRAGUNDA ROAD BOREE CREEK 2652",
    "locID": "LOC000121796742",
    "tech": "SATELLITE",
    "upgrade": "NULL_NA",
    "gnaf_pid": "GANSW717690650"
   }
  },
  {
   "type": "Feature",
   "geometry": {
    "type": "Point",
    "coordinates": [
     146.4939148,
     -35.08545783
    ]
   },
   "properties": {
    "name": "2343 BARRAGUNDA ROAD BOREE CREEK 2652",
    "locID": "LOC100078122214",
    "tech": "SATELLITE",
    "upgrade": "NULL_NA",
    "gnaf_pid": "GANSW717690652"
   }
  },
  {
   "type": "Feature",
   "geometry": {
    "type": "Point",
    "coordinates": [
     146.65502304,
     -35.09198125
    ]
   },
   "properties": {
    "name": "1503 BOREE CREEK ROAD BOREE CREEK 2652",
    "locID": "ChIJUWDYBgHkIWsRt7cMMybBPgs",
    "tech": "SATELLITE",
    "upgrade": "UNKNOWN",
    "gnaf_pid": "GANSW717692200"
   }
  },
  {
   "type": "Feature",
   "geometry": {
    "type": "Point",
    "coordinates": [
     146.65634562,
     -35.07586913
    ]
   },
   "properties": {
    "name": "1550 BOREE CREEK ROAD BOREE CREEK 2652",
    "locID": "ChIJM5wSA6vmIWsRggwnyXAwp20",
    "tech": "SATELLITE",
    "upgrade": "UNKNOWN",
    "gnaf_pid": "GANSW717692201"
   }
  },
  {
   "type": "Feature",
   "geometry": {
    "type": "Point",
    "coordinates": [
     146.61454913,
     -35.10562935
    ]
   },
   "properties": {
    "name": "1904 BOREE CREEK ROAD BOREE CREEK 2652",
    "locID": "LOC000121793493",
    "tech": "SATELLITE",
    "upgrade": "NULL_NA",
    "gnaf_pid": "GANSW717692202"
   }
  },
  {
   "type": "Feature",
   "geometry": {
    "type": "Point",
    "coordinates": [
     146.60190652,
     -35.11244408
    ]
   },
   "properties": {
    "name": "2043 BOREE CREEK ROAD BOREE CREEK 2652",
    "locID": "LOC000175948452",
    "tech": "SATELLITE",
    "upgrade": "NULL_NA",
    "gnaf_pid": "GANSW717692203"
   }
  },
  {
   "type": "Feature",
   "geometry": {
    "type": "Point",
    "coordinates": [
     146.55230851,
     -35.1224554
    ]
   },
   "properties": {
    "name": "2514 BOREE CREEK ROAD BOREE CREEK 2652",
    "locID": "LOC000121796816",
    "tech": "SATELLITE",
    "upgrade": "NULL_NA",
    "gnaf_pid": "GANSW717692204"
   }
  },
  {
   "type": "Feature",
   "geometry": {
    "type": "Point",
    "coordinates": [
     146.4090064,
     -35.19653458
    ]
   },
   "properties": {
    "name": "3920 BOREE CREEK ROAD BOREE CREEK 2652",
    "locID": "LOC000121796902",
    "tech": "SATELLITE",
    "upgrade": "NULL_NA",
    "gnaf_pid": "GANSW717692205"
   }
  },
  {
   "type": "Feature",
   "geometry": {
    "type": "Point",
    "coordinates": [
     146.60969973,
     -35.02936805
    ]
   },
   "properties": {
    "name": "777 BOUNDARY ROAD BOREE CREEK 2652",
    "locID": "LOC000121817198",
    "tech": "SATELLITE",
    "upgrade": "NULL_NA",
    "gnaf_pid": "GANSW717692298"
   }
  },
  {
   "type": "Feature",
   "geometry": {
    "type": "Point",
    "coordinates": [
     146.51836785,
     -35.09344913
    ]
   },
   "properties": {
    "name": "161 BUCKINGBONG ROAD BOREE CREEK 2652",
    "locID": "LOC000121793455",
    "tech": "SATELLITE",
    "upgrade": "NULL_NA",
    "gnaf_pid": "GANSW717693298"
   }
  },
  {
   "type": "Feature",
   "geometry": {
    "type": "Point",
    "coordinates": [
     146.59701688,
     -35.10204779
    ]
   },
   "properties": {
    "name": "48 CEMETERY ROAD BOREE CREEK 2652",
    "locID": "ChIJOeSmGwXnIWsR5WwfHt8nCzE",
    "tech": "SATELLITE",
    "upgrade": "UNKNOWN",
    "gnaf_pid": "GANSW717695488"
   }
  },
  {
   "type": "Feature",
   "geometry": {
    "type": "Point",
    "coordinates": [
     146.59864424,
     -35.10120739
    ]
   },
   "properties": {
    "name": "62 CEMETERY ROAD BOREE CREEK 2652",
    "locID": "LOC000121800604",
    "tech": "SATELLITE",
    "upgrade": "NULL_NA",
    "gnaf_pid": "GANSW717695489"
   }
  },
  {
   "type": "Feature",
   "geometry": {
    "type": "Point",
    "coordinates": [
     146.58187032,
     -35.09193316
    ]
   },
   "properties": {
    "name": "62 DAVENPORT ROAD BOREE CREEK 2652",
    "locID": "ChIJZ5GKj2znIWsRvg7F8Y8M34Y",
    "tech": "SATELLITE",
    "upgrade": "UNKNOWN",
    "gnaf_pid": "GANSW717697883"
   }
  },
  {
   "type": "Feature",
   "geometry": {
    "type": "Point",
    "coordinates": [
     146.62642287,
     -35.07108675
    ]
   },
   "properties": {
    "name": "218 DUNLEAVYS ROAD BOREE CREEK 2652",
    "locID": "ChIJZ947gTfhIWsRC4VVJ4-bJwE",
    "tech": "SATELLITE",
    "upgrade": "UNKNOWN",
    "gnaf_pid": "GANSW717698631"
   }
  },
  {
   "type": "Feature",
   "geometry": {
    "type": "Point",
    "coordinates": [
     146.62925042,
     -35.06168662
    ]
   },
   "properties": {
    "name": "231 DUNLEAVYS ROAD BOREE CREEK 2652",
    "locID": "LOC000121796788",
    "tech": "SATELLITE",
    "upgrade": "NULL_NA",
    "gnaf_pid": "GANSW717698632"
   }
  },
  {
   "type": "Feature",
   "geometry": {
    "type": "Point",
    "coordinates": [
     146.40901113,
     -35.19653458
    ]
   },
   "properties": {
    "name": "342 EXTONS ROAD BOREE CREEK 2652",
    "locID": "ChIJ6QGpYEbGIWsREcQT1mimXyk",
    "tech": "SATELLITE",
    "upgrade": "UNKNOWN",
    "gnaf_pid": "GANSW717699684"
   }
  },
  {
   "type": "Feature",
   "geometry": {
    "type": "Point",
    "coordinates": [
     146.34758383,
     -35.16187462
    ]
   },
   "properties": {
    "name": "460 EXTONS ROAD BOREE CREEK 2652",
    "locID": "ChIJnXYa3drIIWsR6D9Z9ZkI9dc",
    "tech": "SATELLITE",
    "upgrade": "UNKNOWN",
    "gnaf_pid": "GANSW717699685"
   }
  },
  {
   "type": "Feature",
   "geometry": {
    "type": "Point",
    "coordinates": [
     146.4044332,
     -35.17091683
    ]
   },
   "properties": {
    "name": "667 EXTONS ROAD BOREE CREEK 2652",
    "locID": "LOC000121800643",
    "tech": "SATELLITE",
    "upgrade": "NULL_NA",
    "gnaf_pid": "GANSW717699686"
   }
  },
  {
   "type": "Feature",
   "geometry": {
    "type": "Point",
    "coordinates": [
     146.65474525,
     -35.0072864
    ]
   },
   "properties": {
    "name": "1046 FAITHFULL ROAD BOREE CREEK 2652",
    "locID": "LOC000001605818",
    "tech": "SATELLITE",
    "upgrade": "NULL_NA",
    "gnaf_pid": "GANSW717699758"
   }
  },
  {
   "type": "Feature",
   "geometry": {
    "type": "Point",
    "coordinates": [
     146.64772238,
     -35.00540065
    ]
   },
   "properties": {
    "name": "1065 FAITHFULL ROAD BOREE CREEK 2652",
    "locID": "LOC000105345844",
    "tech": "SATELLITE",
    "upgrade": "NULL_NA",
    "gnaf_pid": "GANSW717699759"
   }
  },
  {
   "type": "Feature",
   "geometry": {
    "type": "Point",
    "coordinates": [
     146.6570826,
     -34.99143379
    ]
   },
   "properties": {
    "name": "1228 FAITHFULL ROAD BOREE CREEK 2652",
    "locID": "LOC000016381826",
    "tech": "SATELLITE",
    "upgrade": "NULL_NA",
    "gnaf_pid": "GANSW717699760"
   }
  },
  {
   "type": "Feature",
   "geometry": {
    "type": "Point",
    "coordinates": [
     146.62642287,
     -35.07108675
    ]
   },
   "properties": {
    "name": "277 FAITHFULL ROAD BOREE CREEK 2652",
    "locID": "LOC000121796828",
    "tech": "SATELLITE",
    "upgrade": "NULL_NA",
    "gnaf_pid": "GANSW717699761"
   }
  },
  {
   "type": "Feature",
   "geometry": {
    "type": "Point",
    "coordinates": [
     146.62925042,
     -35.06168662
    ]
   },
   "properties": {
    "name": "395 FAITHFULL ROAD BOREE CREEK 2652",
    "locID": "LOC000121796925",
    "tech": "SATELLITE",
    "upgrade": "NULL_NA",
    "gnaf_pid": "GANSW717699762"
   }
  },
  {
   "type": "Feature",
   "geometry": {
    "type": "Point",
    "coordinates": [
     146.63038148,
     -35.04855114
    ]
   },
   "properties": {
    "name": "515 FAITHFULL ROAD BOREE CREEK 2652",
    "locID": "LOC000121796973",
    "tech": "SATELLITE",
    "upgrade": "NULL_NA",
    "gnaf_pid": "GANSW717699763"
   }
  },
  {
   "type": "Feature",
   "geometry": {
    "type": "Point",
    "coordinates": [
     146.64965462,
     -35.01589227
    ]
   },
   "properties": {
    "name": "945 FAITHFULL ROAD BOREE CREEK 2652",
    "locID": "LOC100078120800",
    "tech": "SATELLITE",
    "upgrade": "NULL_NA",
    "gnaf_pid": "GANSW717699764"
   }
  },
  {
   "type": "Feature",
   "geometry": {
    "type": "Point",
    "coordinates": [
     146.44528954,
     -35.14704343
    ]
   },
   "properties": {
    "name": "104 GOLDERS ROAD BOREE CREEK 2652",
    "locID": "LOC000121793298",
    "tech": "SATELLITE",
    "upgrade": "NULL_NA",
    "gnaf_pid": "GANSW717701429"
   }
  },
  {
   "type": "Feature",
   "geometry": {
    "type": "Point",
    "coordinates": [
     146.4480011,
     -35.13790993
    ]
   },
   "properties": {
    "name": "109 GOLDERS ROAD BOREE CREEK 2652",
    "locID": "LOC000121793320",
    "tech": "SATELLITE",
    "upgrade": "NULL_NA",
    "gnaf_pid": "GANSW717701430"
   }
  },
  {
   "type": "Feature",
   "geometry": {
    "type": "Point",
    "coordinates": [
     146.51856565,
     -34.99656881
    ]
   },
   "properties": {
    "name": "1740 GREENVALE ROAD BOREE CREEK 2652",
    "locID": "LOC000121793486",
    "tech": "SATELLITE",
    "upgrade": "NULL_NA",
    "gnaf_pid": "GANSW717701941"
   }
  },
  {
   "type": "Feature",
   "geometry": {
    "type": "Point",
    "coordinates": [
     146.51994294,
     -34.98923908
    ]
   },
   "properties": {
    "name": "1755 GREENVALE ROAD BOREE CREEK 2652",
    "locID": "LOC000121825508",
    "tech": "SATELLITE",
    "upgrade": "NULL_NA",
    "gnaf_pid": "GANSW717701942"
   }
  },
  {
   "type": "Feature",
   "geometry": {
    "type": "Point",
    "coordinates": [
     146.5409093,
     -35.0649631
    ]
   },
   "properties": {
    "name": "31 HAMLINS ROAD BOREE CREEK 2652",
    "locID": "LOC000114327599",
    "tech": "SATELLITE",
    "upgrade": "NULL_NA",
    "gnaf_pid": "GANSW717702542"
   }
  },
  {
   "type": "Feature",
   "geometry": {
    "type": "Point",
    "coordinates": [
     146.53029022,
     -35.12496269
    ]
   },
   "properties": {
    "name": "136 JOHNS ROAD BOREE CREEK 2652",
    "locID": "LOC000121793396",
    "tech": "SATELLITE",
    "upgrade": "NULL_NA",
    "gnaf_pid": "GANSW717705092"
   }
  },
  {
   "type": "Feature",
   "geometry": {
    "type": "Point",
    "coordinates": [
     146.53792295,
     -35.12986402
    ]
   },
   "properties": {
    "name": "89 JOHNS ROAD BOREE CREEK 2652",
    "locID": "LOC000121800754",
    "tech": "SATELLITE",
    "upgrade": "NULL_NA",
    "gnaf_pid": "GANSW717705093"
   }
  },
  {
   "type": "Feature",
   "geometry": {
    "type": "Point",
    "coordinates": [
     146.54971219,
     -35.03689896
    ]
   },
   "properties": {
    "name": "115 O'CONNELLS ROAD BOREE CREEK 2652",
    "locID": "LOC000121793331",
    "tech": "SATELLITE",
    "upgrade": "NULL_NA",
    "gnaf_pid": "GANSW717712637"
   }
  },
  {
   "type": "Feature",
   "geometry": {
    "type": "Point",
    "coordinates": [
     146.57375905,
     -35.04915602
    ]
   },
   "properties": {
    "name": "352 O'CONNELLS ROAD BOREE CREEK 2652",
    "locID": "LOC000121793331",
    "tech": "SATELLITE",
    "upgrade": "NULL_NA",
    "gnaf_pid": "GANSW717712638"
   }
  },
  {
   "type": "Feature",
   "geometry": {
    "type": "Point",
    "coordinates": [
     146.59550581,
     -35.03447076
    ]
   },
   "properties": {
    "name": "531 O'CONNELLS ROAD BOREE CREEK 2652",
    "locID": "LOC000121793331",
    "tech": "SATELLITE",
    "upgrade": "NULL_NA",
    "gnaf_pid": "GANSW717712639"
   }
  },
  {
   "type": "Feature",
   "geometry": {
    "type": "Point",
    "coordinates": [
     146.5977762,
     -35.04748047
    ]
   },
   "properties": {
    "name": "570 O'CONNELLS ROAD BOREE CREEK 2652",
    "locID": "ChIJ__7QfubgIWsR8e4qVxa_o90",
    "tech": "SATELLITE",
    "upgrade": "UNKNOWN",
    "gnaf_pid": "GANSW717712640"
   }
  },
  {
   "type": "Feature",
   "geometry": {
    "type": "Point",
    "coordinates": [
     146.39306914,
     -35.11365578
    ]
   },
   "properties": {
    "name": "536 PEARCES ROAD BOREE CREEK 2652",
    "locID": "ChIJS9MDe2XFIWsRRuYUkMm0tGY",
    "tech": "SATELLITE",
    "upgrade": "UNKNOWN",
    "gnaf_pid": "GANSW717714761"
   }
  },
  {
   "type": "Feature",
   "geometry": {
    "type": "Point",
    "coordinates": [
     146.60385706,
     -35.08364412
    ]
   },
   "properties": {
    "name": "279 SANDIGO ROAD BOREE CREEK 2652",
    "locID": "LOC000114960101",
    "tech": "SATELLITE",
    "upgrade": "NULL_NA",
    "gnaf_pid": "GANSW717717640"
   }
  },
  {
   "type": "Feature",
   "geometry": {
    "type": "Point",
    "coordinates": [
     146.60890325,
     -35.0793999
    ]
   },
   "properties": {
    "name": "300 SANDIGO ROAD BOREE CREEK 2652",
    "locID": "LOC000121796837",
    "tech": "SATELLITE",
    "upgrade": "NULL_NA",
    "gnaf_pid": "GANSW717717641"
   }
  },
  {
   "type": "Feature",
   "geometry": {
    "type": "Point",
    "coordinates": [
     146.59777007,
     -35.04749244
    ]
   },
   "properties": {
    "name": "671 SANDIGO ROAD BOREE CREEK 2652",
    "locID": "LOC000121800662",
    "tech": "SATELLITE",
    "upgrade": "NULL_NA",
    "gnaf_pid": "GANSW717717642"
   }
  },
  {
   "type": "Feature",
   "geometry": {
    "type": "Point",
    "coordinates": [
     146.59049459,
     -35.03215364
    ]
   },
   "properties": {
    "name": "819 SANDIGO ROAD BOREE CREEK 2652",
    "locID": "LOC000121800712",
    "tech": "SATELLITE",
    "upgrade": "NULL_NA",
    "gnaf_pid": "GANSW717717643"
   }
  },
  {
   "type": "Feature",
   "geometry": {
    "type": "Point",
    "coordinates": [
     146.44553267,
     -35.16376958
    ]
   },
   "properties": {
    "name": "394 SNARVIL ROAD BOREE CREEK 2652",
    "locID": "LOC000121796918",
    "tech": "SATELLITE",
    "upgrade": "NULL_NA",
    "gnaf_pid": "GANSW717718407"
   }
  },
  {
   "type": "Feature",
   "geometry": {
    "type": "Point",
    "coordinates": [
     146.42741623,
     -35.16643121
    ]
   },
   "properties": {
    "name": "652 SNARVIL ROAD BOREE CREEK 2652",
    "locID": "ChIJHbWsSy3EIWsR_hYZixW6pGg",
    "tech": "SATELLITE",
    "upgrade": "UNKNOWN",
    "gnaf_pid": "GANSW717718408"
   }
  },
  {
   "type": "Feature",
   "geometry": {
    "type": "Point",
    "coordinates": [
     146.46580595,
     -35.17073758
    ]
   },
   "properties": {
    "name": "69 SNARVIL ROAD BOREE CREEK 2652",
    "locID": "LOC000121800670",
    "tech": "SATELLITE",
    "upgrade": "NULL_NA",
    "gnaf_pid": "GANSW717718409"
   }
  },
  {
   "type": "Feature",
   "geometry": {
    "type": "Point",
    "coordinates": [
     146.45864814,
     -35.15845236
    ]
   },
   "properties": {
    "name": "59 STOKES ROAD BOREE CREEK 2652",
    "locID": "LOC000121797041",
    "tech": "SATELLITE",
    "upgrade": "NULL_NA",
    "gnaf_pid": "GANSW717718998"
   }
  },
  {
   "type": "Feature",
   "geometry": {
    "type": "Point",
    "coordinates": [
     146.51222451,
     -34.98610316
    ]
   },
   "properties": {
    "name": "1063 STONYBANK ROAD BOREE CREEK 2652",
    "locID": "LOC000121793312",
    "tech": "SATELLITE",
    "upgrade": "NULL_NA",
    "gnaf_pid": "GANSW717719040"
   }
  },
  {
   "type": "Feature",
   "geometry": {
    "type": "Point",
    "coordinates": [
     146.5079034,
     -34.99671555
    ]
   },
   "properties": {
    "name": "953 STONYBANK ROAD BOREE CREEK 2652",
    "locID": "ChIJ_9VP_QTfIWsRoJX8gZ5pDgk",
    "tech": "SATELLITE",
    "upgrade": "UNKNOWN",
    "gnaf_pid": "GANSW717719041"
   }
  },
  {
   "type": "Feature",
   "geometry": {
    "type": "Point",
    "coordinates": [
     146.59680512,
     -35.10406518
    ]
   },
   "properties": {
    "name": "120 STRONTIAN ROAD BOREE CREEK 2652",
    "locID": "LOC000121793354",
    "tech": "SATELLITE",
    "upgrade": "NULL_NA",
    "gnaf_pid": "GANSW717719075"
   }
  },
  {
   "type": "Feature",
   "geometry": {
    "type": "Point",
    "coordinates": [
     146.53862278,
     -35.04204333
    ]
   },
   "properties": {
    "name": "1218 STRONTIAN ROAD BOREE CREEK 2652",
    "locID": "LOC000121793365",
    "tech": "SATELLITE",
    "upgrade": "NULL_NA",
    "gnaf_pid": "GANSW717719076"
   }
  },
  {
   "type": "Feature",
   "geometry": {
    "type": "Point",
    "coordinates": [
     146.52516164,
     -35.03468495
    ]
   },
   "properties": {
    "name": "1297 STRONTIAN ROAD BOREE CREEK 2652",
    "locID": "LOC000121793383",
    "tech": "SATELLITE",
    "upgrade": "NULL_NA",
    "gnaf_pid": "GANSW717719077"
   }
  },
  {
   "type": "Feature",
   "geometry": {
    "type": "Point",
    "coordinates": [
     146.52203265,
     -35.009867
    ]
   },
   "properties": {
    "name": "1433 STRONTIAN ROAD BOREE CREEK 2652",
    "locID": "LOC100078120719",
    "tech": "SATELLITE",
    "upgrade": "NULL_NA",
    "gnaf_pid": "GANSW717719078"
   }
  },
  {
   "type": "Feature",
   "geometry": {
    "type": "Point",
    "coordinates": [
     146.53642921,
     -35.0201335
    ]
   },
   "properties": {
    "name": "1498 STRONTIAN ROAD BOREE CREEK 2652",
    "locID": "LOC000121793438",
    "tech": "SATELLITE",
    "upgrade": "NULL_NA",
    "gnaf_pid": "GANSW717719079"
   }
  },
  {
   "type": "Feature",
   "geometry": {
    "type": "Point",
    "coordinates": [
     146.52876257,
     -34.99880045
    ]
   },
   "properties": {
    "name": "1611 STRONTIAN ROAD BOREE CREEK 2652",
    "locID": "ChIJnbD-u1TeIWsRWogcfMxwzKg",
    "tech": "SATELLITE",
    "upgrade": "UNKNOWN",
    "gnaf_pid": "GANSW717719080"
   }
  },
  {
   "type": "Feature",
   "geometry": {
    "type": "Point",
    "coordinates": [
     146.53731042,
     -34.98321129
    ]
   },
   "properties": {
    "name": "1906 STRONTIAN ROAD BOREE CREEK 2652",
    "locID": "LOC000054630726",
    "tech": "SATELLITE",
    "upgrade": "NULL_NA",
    "gnaf_pid": "GANSW717719081"
   }
  },
  {
   "type": "Feature",
   "geometry": {
    "type": "Point",
    "coordinates": [
     146.56023842,
     -34.98316326
    ]
   },
   "properties": {
    "name": "1932 STRONTIAN ROAD BOREE CREEK 2652",
    "locID": "LOC000105451250",
    "tech": "SATELLITE",
    "upgrade": "NULL_NA",
    "gnaf_pid": "GANSW717719082"
   }
  },
  {
   "type": "Feature",
   "geometry": {
    "type": "Point",
    "coordinates": [
     146.53841855,
     -34.97044504
    ]
   },
   "properties": {
    "name": "2053 STRONTIAN ROAD BOREE CREEK 2652",
    "locID": "LOC000069096832",
    "tech": "SATELLITE",
    "upgrade": "NULL_NA",
    "gnaf_pid": "GANSW717719083"
   }
  },
  {
   "type": "Feature",
   "geometry": {
    "type": "Point",
    "coordinates": [
     146.54450146,
     -34.97146093
    ]
   },
   "properties": {
    "name": "2054 STRONTIAN ROAD BOREE CREEK 2652",
    "locID": "LOC000095457211",
    "tech": "SATELLITE",
    "upgrade": "NULL_NA",
    "gnaf_pid": "GANSW717719084"
   }
  },
  {
   "type": "Feature",
   "geometry": {
    "type": "Point",
    "coordinates": [
     146.58677632,
     -35.09669388
    ]
   },
   "properties": {
    "name": "218 STRONTIAN ROAD BOREE CREEK 2652",
    "locID": "LOC000121796761",
    "tech": "SATELLITE",
    "upgrade": "NULL_NA",
    "gnaf_pid": "GANSW717719085"
   }
  },
  {
   "type": "Feature",
   "geometry": {
    "type": "Point",
    "coordinates": [
     146.53253928,
     -34.95770105
    ]
   },
   "properties": {
    "name": "2195 STRONTIAN ROAD BOREE CREEK 2652",
    "locID": "LOC000090399984",
    "tech": "SATELLITE",
    "upgrade": "NULL_NA",
    "gnaf_pid": "GANSW717719086"
   }
  },
  {
   "type": "Feature",
   "geometry": {
    "type": "Point",
    "coordinates": [
     146.55214238,
     -35.0930331
    ]
   },
   "properties": {
    "name": "549 STRONTIAN ROAD BOREE CREEK 2652",
    "locID": "LOC000121797002",
    "tech": "SATELLITE",
    "upgrade": "NULL_NA",
    "gnaf_pid": "GANSW717719087"
   }
  },
  {
   "type": "Feature",
   "geometry": {
    "type": "Point",
    "coordinates": [
     146.53596737,
     -35.07104815
    ]
   },
   "properties": {
    "name": "875 STRONTIAN ROAD BOREE CREEK 2652",
    "locID": "ChIJcRHyjMDdIWsRFydKjA6zvHo",
    "tech": "SATELLITE",
    "upgrade": "UNKNOWN",
    "gnaf_pid": "GANSW717719088"
   }
  },
  {
   "type": "Feature",
   "geometry": {
    "type": "Point",
    "coordinates": [
     146.56624204,
     -35.00065428
    ]
   },
   "properties": {
    "name": "1015 TELEPHONE ROAD BOREE CREEK 2652",
    "locID": "LOC000038361256",
    "tech": "SATELLITE",
    "upgrade": "NULL_NA",
    "gnaf_pid": "GANSW717719989"
   }
  },
  {
   "type": "Feature",
   "geometry": {
    "type": "Point",
    "coordinates": [
     146.56023842,
     -34.98316271
    ]
   },
   "properties": {
    "name": "1197 TELEPHONE ROAD BOREE CREEK 2652",
    "locID": "ChIJ136Hv__fIWsR8LDURAUwHiw",
    "tech": "SATELLITE",
    "upgrade": "UNKNOWN",
    "gnaf_pid": "GANSW717719990"
   }
  },
  {
   "type": "Feature",
   "geometry": {
    "type": "Point",
    "coordinates": [
     146.57905874,
     -34.96725938
    ]
   },
   "properties": {
    "name": "1400 TELEPHONE ROAD BOREE CREEK 2652",
    "locID": "ChIJTRe38cFfH2sR-pX6mFGkFoE",
    "tech": "SATELLITE",
    "upgrade": "UNKNOWN",
    "gnaf_pid": "GANSW717719991"
   }
  },
  {
   "type": "Feature",
   "geometry": {
    "type": "Point",
    "coordinates": [
     146.57375022,
     -35.04917676
    ]
   },
   "properties": {
    "name": "494 TELEPHONE ROAD BOREE CREEK 2652",
    "locID": "LOC000121796960",
    "tech": "SATELLITE",
    "upgrade": "NULL_NA",
    "gnaf_pid": "GANSW717719992"
   }
  },
  {
   "type": "Feature",
   "geometry": {
    "type": "Point",
    "coordinates": [
     146.56594479,
     -35.02863611
    ]
   },
   "properties": {
    "name": "712 TELEPHONE ROAD BOREE CREEK 2652",
    "locID": "LOC000121800689",
    "tech": "SATELLITE",
    "upgrade": "NULL_NA",
    "gnaf_pid": "GANSW717719993"
   }
  },
  {
   "type": "Feature",
   "geometry": {
    "type": "Point",
    "coordinates": [
     146.56066947,
     -35.01715552
    ]
   },
   "properties": {
    "name": "827 TELEPHONE ROAD BOREE CREEK 2652",
    "locID": "LOC000121800720",
    "tech": "SATELLITE",
    "upgrade": "NULL_NA",
    "gnaf_pid": "GANSW717719994"
   }
  },
  {
   "type": "Feature",
   "geometry": {
    "type": "Point",
    "coordinates": [
     146.56984881,
     -35.00559291
    ]
   },
   "properties": {
    "name": "966 TELEPHONE ROAD BOREE CREEK 2652",
    "locID": "LOC000042931880",
    "tech": "SATELLITE",
    "upgrade": "NULL_NA",
    "gnaf_pid": "GANSW717719995"
   }
  },
  {
   "type": "Feature",
   "geometry": {
    "type": "Point",
    "coordinates": [
     146.43771704,
     -35.18812284
    ]
   },
   "properties": {
    "name": "25 URQUHARTS ROAD BOREE CREEK 2652",
    "locID": "LOC000121796800",
    "tech": "SATELLITE",
    "upgrade": "NULL_NA",
    "gnaf_pid": "GANSW717721049"
   }
  },
  {
   "type": "Feature",
   "geometry": {
    "type": "Point",
    "coordinates": [
     146.6122714,
     -35.10857363
    ]
   },
   "properties": {
    "name": "6 GREINER STREET BOREE CREEK 2652",
    "locID": "LOC000092399294",
    "tech": "SATELLITE",
    "upgrade": "NULL_NA",
    "gnaf_pid": "GANSW717726393"
   }
  },
  {
   "type": "Feature",
   "geometry": {
    "type": "Point",
    "coordinates": [
     146.57136295,
     -35.15893932
    ]
   },
   "properties": {
    "name": "203 AMERYS LANE BOREE CREEK 2652",
    "locID": "LOC000068655666",
    "tech": "SATELLITE",
    "upgrade": "NULL_NA",
    "gnaf_pid": "GANSW717728997"
   }
  },
  {
   "type": "Feature",
   "geometry": {
    "type": "Point",
    "coordinates": [
     146.57759534,
     -35.16062254
    ]
   },
   "properties": {
    "name": "210 AMERYS LANE BOREE CREEK 2652",
    "locID": "LOC000006898535",
    "tech": "SATELLITE",
    "upgrade": "NULL_NA",
    "gnaf_pid": "GANSW717728998"
   }
  },
  {
   "type": "Feature",
   "geometry": {
    "type": "Point",
    "coordinates": [
     146.55525867,
     -35.15308874
    ]
   },
   "properties": {
    "name": "309 AMERYS LANE BOREE CREEK 2652",
    "locID": "Ei4zMDkgQW1lcnlzIExuLCBCb3JlZSBDcmVlayBOU1cgMjY1MiwgQXVzdHJhbGlhIjESLwoUChIJGSpcvxnoIWsRsFrC3xeoXUEQtQIqFAoSCcFoBPMZ6CFrEawpMD7o4GYN",
    "tech": "SATELLITE",
    "upgrade": "UNKNOWN",
    "gnaf_pid": "GANSW717728999"
   }
  },
  {
   "type": "Feature",
   "geometry": {
    "type": "Point",
    "coordinates": [
     146.57136295,
     -35.15893932
    ]
   },
   "properties": {
    "name": "380 AMERYS LANE BOREE CREEK 2652",
    "locID": "ChIJpxg2tRnoIWsR8Sc0gEKA6ok",
    "tech": "SATELLITE",
    "upgrade": "UNKNOWN",
    "gnaf_pid": "GANSW717729000"
   }
  },
  {
   "type": "Feature",
   "geometry": {
    "type": "Point",
    "coordinates": [
     146.57308785,
     -35.11673797
    ]
   },
   "properties": {
    "name": "1082 BOREE CREEK ROAD BOREE CREEK 2652",
    "locID": "ChIJ1Y2b4JHnIWsR8v-SAjUYX60",
    "tech": "SATELLITE",
    "upgrade": "UNKNOWN",
    "gnaf_pid": "GANSW717729530"
   }
  },
  {
   "type": "Feature",
   "geometry": {
    "type": "Point",
    "coordinates": [
     146.57308785,
     -35.11673797
    ]
   },
   "properties": {
    "name": "210 BOREE CREEK ROAD BOREE CREEK 2652",
    "locID": "ChIJ1Y2b4JHnIWsRfeerqYuARmE",
    "tech": "SATELLITE",
    "upgrade": "UNKNOWN",
    "gnaf_pid": "GANSW717729531"
   }
  },
  {
   "type": "Feature",
   "geometry": {
    "type": "Point",
    "coordinates": [
     146.57308785,
     -35.11673797
    ]
   },
   "properties": {
    "name": "212 BOREE CREEK ROAD BOREE CREEK 2652",
    "locID": "ChIJ1Y2b4JHnIWsRoGkfzXZc0lU",
    "tech": "SATELLITE",
    "upgrade": "UNKNOWN",
    "gnaf_pid": "GANSW717729532"
   }
  },
  {
   "type": "Feature",
   "geometry": {
    "type": "Point",
    "coordinates": [
     146.57308785,
     -35.11673797
    ]
   },
   "properties": {
    "name": "216 BOREE CREEK ROAD BOREE CREEK 2652",
    "locID": "ChIJ1Y2b4JHnIWsRn46k5VcCwNA",
    "tech": "SATELLITE",
    "upgrade": "UNKNOWN",
    "gnaf_pid": "GANSW717729533"
   }
  },
  {
   "type": "Feature",
   "geometry": {
    "type": "Point",
    "coordinates": [
     146.57308785,
     -35.11673797
    ]
   },
   "properties": {
    "name": "367 BOREE CREEK ROAD BOREE CREEK 2652",
    "locID": "ChIJ1Y2b4JHnIWsRXqg8PSeEbxg",
    "tech": "SATELLITE",
    "upgrade": "UNKNOWN",
    "gnaf_pid": "GANSW717729534"
   }
  },
  {
   "type": "Feature",
   "geometry": {
    "type": "Point",
    "coordinates": [
     146.57308785,
     -35.11673797
    ]
   },
   "properties": {
    "name": "423 BOREE CREEK ROAD BOREE CREEK 2652",
    "locID": "ChIJ1Y2b4JHnIWsRD685CLbjyJc",
    "tech": "SATELLITE",
    "upgrade": "UNKNOWN",
    "gnaf_pid": "GANSW717729535"
   }
  },
  {
   "type": "Feature",
   "geometry": {
    "type": "Point",
    "coordinates": [
     146.57308785,
     -35.11673797
    ]
   },
   "properties": {
    "name": "685 BOREE CREEK ROAD BOREE CREEK 2652",
    "locID": "ChIJ1Y2b4JHnIWsRhNBck4Vt6X8",
    "tech": "SATELLITE",
    "upgrade": "UNKNOWN",
    "gnaf_pid": "GANSW717729536"
   }
  },
  {
   "type": "Feature",
   "geometry": {
    "type": "Point",
    "coordinates": [
     146.57308785,
     -35.11673797
    ]
   },
   "properties": {
    "name": "744 BOREE CREEK ROAD BOREE CREEK 2652",
    "locID": "EjM3NDQgQm9yZWUgQ3JlZWsgUmQsIEJvcmVlIENyZWVrIE5TVyAyNjUyLCBBdXN0cmFsaWEiMRIvChQKEgmZVp3yo-chaxHApOcUUmxg7RDoBSoUChIJFdH4UObGIWsRYLvuHm63qag",
    "tech": "SATELLITE",
    "upgrade": "UNKNOWN",
    "gnaf_pid": "GANSW717729537"
   }
  },
  {
   "type": "Feature",
   "geometry": {
    "type": "Point",
    "coordinates": [
     146.57308785,
     -35.11673797
    ]
   },
   "properties": {
    "name": "783 BOREE CREEK ROAD BOREE CREEK 2652",
    "locID": "ChIJ1Y2b4JHnIWsR3LcxbNr2WMA",
    "tech": "SATELLITE",
    "upgrade": "UNKNOWN",
    "gnaf_pid": "GANSW717729538"
   }
  },
  {
   "type": "Feature",
   "geometry": {
    "type": "Point",
    "coordinates": [
     146.64149551,
     -35.12189299
    ]
   },
   "properties": {
    "name": "65 ELLIS LANE BOREE CREEK 2652",
    "locID": "LOC000028092052",
    "tech": "SATELLITE",
    "upgrade": "NULL_NA",
    "gnaf_pid": "GANSW717731061"
   }
  },
  {
   "type": "Feature",
   "geometry": {
    "type": "Point",
    "coordinates": [
     146.62448651,
     -35.16543855
    ]
   },
   "properties": {
    "name": "100 JACK MITCHELLS LANE BOREE CREEK 2652",
    "locID": "ChIJzdNrdJnoIWsRKSfVaUMs5fE",
    "tech": "SATELLITE",
    "upgrade": "UNKNOWN",
    "gnaf_pid": "GANSW717732906"
   }
  },
  {
   "type": "Feature",
   "geometry": {
    "type": "Point",
    "coordinates": [
     146.62448651,
     -35.16543855
    ]
   },
   "properties": {
    "name": "160 JACK MITCHELLS LANE BOREE CREEK 2652",
    "locID": "EjYxNjAgSmFjayBNaXRjaGVsbHMgTG4sIEJvcmVlIENyZWVrIE5TVyAyNjU2LCBBdXN0cmFsaWEiMRIvChQKEgkRGSITheghaxGS2TymmHUUgBCgASoUChIJwXgcdpnoIWsRpgA6VeyuuWc",
    "tech": "SATELLITE",
    "upgrade": "UNKNOWN",
    "gnaf_pid": "GANSW717732907"
   }
  },
  {
   "type": "Feature",
   "geometry": {
    "type": "Point",
    "coordinates": [
     146.60674908,
     -35.11174968
    ]
   },
   "properties": {
    "name": "10 LAWRENCE STREET BOREE CREEK 2652",
    "locID": "ChIJ1yIZ1__mIWsRbBi-VZ-jyFg",
    "tech": "SATELLITE",
    "upgrade": "UNKNOWN",
    "gnaf_pid": "GANSW717733478"
   }
  },
  {
   "type": "Feature",
   "geometry": {
    "type": "Point",
    "coordinates": [
     146.60674908,
     -35.11174968
    ]
   },
   "properties": {
    "name": "11 LAWRENCE STREET BOREE CREEK 2652",
    "locID": "ChIJ1yIZ1__mIWsRF6fwqgT5NR4",
    "tech": "SATELLITE",
    "upgrade": "UNKNOWN",
    "gnaf_pid": "GANSW717733479"
   }
  },
  {
   "type": "Feature",
   "geometry": {
    "type": "Point",
    "coordinates": [
     146.60674908,
     -35.11174968
    ]
   },
   "properties": {
    "name": "13 LAWRENCE STREET BOREE CREEK 2652",
    "locID": "ChIJ1yIZ1__mIWsRNoy8CSu8dmA",
    "tech": "SATELLITE",
    "upgrade": "UNKNOWN",
    "gnaf_pid": "GANSW717733480"
   }
  },
  {
   "type": "Feature",
   "geometry": {
    "type": "Point",
    "coordinates": [
     146.60741546,
     -35.11195808
    ]
   },
   "properties": {
    "name": "14 LAWRENCE STREET BOREE CREEK 2652",
    "locID": "ChIJYcEEz__mIWsReKBYuDEdaJw",
    "tech": "SATELLITE",
    "upgrade": "UNKNOWN",
    "gnaf_pid": "GANSW717733481"
   }
  },
  {
   "type": "Feature",
   "geometry": {
    "type": "Point",
    "coordinates": [
     146.60674908,
     -35.11174968
    ]
   },
   "properties": {
    "name": "15 LAWRENCE STREET BOREE CREEK 2652",
    "locID": "ChIJ1yIZ1__mIWsRrcbbObpRVrQ",
    "tech": "SATELLITE",
    "upgrade": "UNKNOWN",
    "gnaf_pid": "GANSW717733482"
   }
  },
  {
   "type": "Feature",
   "geometry": {
    "type": "Point",
    "coordinates": [
     146.60674908,
     -35.11174968
    ]
   },
   "properties": {
    "name": "1-3 LAWRENCE STREET BOREE CREEK 2652",
    "locID": "LOC000048406594",
    "tech": "SATELLITE",
    "upgrade": "NULL_NA",
    "gnaf_pid": "GANSW717733483"
   }
  },
  {
   "type": "Feature",
   "geometry": {
    "type": "Point",
    "coordinates": [
     146.60674908,
     -35.11174968
    ]
   },
   "properties": {
    "name": "2 LAWRENCE STREET BOREE CREEK 2652",
    "locID": "LOC000048406594",
    "tech": "SATELLITE",
    "upgrade": "NULL_NA",
    "gnaf_pid": "GANSW717733484"
   }
  },
  {
   "type": "Feature",
   "geometry": {
    "type": "Point",
    "coordinates": [
     146.60674908,
     -35.11174968
    ]
   },
   "properties": {
    "name": "4 LAWRENCE STREET BOREE CREEK 2652",
    "locID": "ChIJ1yIZ1__mIWsRT_sZyOnLr_U",
    "tech": "SATELLITE",
    "upgrade": "UNKNOWN",
    "gnaf_pid": "GANSW717733485"
   }
  },
  {
   "type": "Feature",
   "geometry": {
    "type": "Point",
    "coordinates": [
     146.60674908,
     -35.11174968
    ]
   },
   "properties": {
    "name": "5 LAWRENCE STREET BOREE CREEK 2652",
    "locID": "ChIJ1yIZ1__mIWsRBRCw9eBfGlw",
    "tech": "SATELLITE",
    "upgrade": "UNKNOWN",
    "gnaf_pid": "GANSW717733486"
   }
  },
  {
   "type": "Feature",
   "geometry": {
    "type": "Point",
    "coordinates": [
     146.60674908,
     -35.11174968
    ]
   },
   "properties": {
    "name": "6 LAWRENCE STREET BOREE CREEK 2652",
    "locID": "ChIJ1yIZ1__mIWsRKDAVKBr9ZYc",
    "tech": "SATELLITE",
    "upgrade": "UNKNOWN",
    "gnaf_pid": "GANSW717733487"
   }
  },
  {
   "type": "Feature",
   "geometry": {
    "type": "Point",
    "coordinates": [
     146.60674908,
     -35.11174968
    ]
   },
   "properties": {
    "name": "7 LAWRENCE STREET BOREE CREEK 2652",
    "locID": "ChIJ1yIZ1__mIWsRa6G7V96PrxE",
    "tech": "SATELLITE",
    "upgrade": "UNKNOWN",
    "gnaf_pid": "GANSW717733488"
   }
  },
  {
   "type": "Feature",
   "geometry": {
    "type": "Point",
    "coordinates": [
     146.60674908,
     -35.11174968
    ]
   },
   "properties": {
    "name": "8 LAWRENCE STREET BOREE CREEK 2652",
    "locID": "ChIJ1yIZ1__mIWsRWvqAGEZTqs4",
    "tech": "SATELLITE",
    "upgrade": "UNKNOWN",
    "gnaf_pid": "GANSW717733489"
   }
  },