{
 "type": "FeatureCollection",
 "generated": "2023-12-26T07:47:21.704062",
 "suburb": "BROUGHAMS GATE",
 "features": [
  {
   "type": "Feature",
   "geometry": {
    "type": "Point",
    "coordinates": [
     141.09122282,
     -30.89791227
    ]
   },
   "properties": {
    "name": "1852 BORDER DOWNS ROAD BROUGHAMS GATE 2880",
    "locID": "LOC000115617869",
    "tech": "SATELLITE",
    "upgrade": "NULL_NA",
    "gnaf_pid": "GANSW718187110"
   }
  },
  {
   "type": "Feature",
   "geometry": {
    "type": "Point",
    "coordinates": [
     141.20885221,
     -30.80954768
    ]
   },
   "properties": {
    "name": "254 BORDER DOWNS ROAD BROUGHAMS GATE 2880",
    "locID": "ChIJcdJ0z_j67WoRXM23Pk4Ja7k",
    "tech": "SATELLITE",
    "upgrade": "UNKNOWN",
    "gnaf_pid": "GANSW718187111"
   }
  },
  {
   "type": "Feature",
   "geometry": {
    "type": "Point",
    "coordinates": [
     141.00914125,
     -30.82960558
    ]
   },
   "properties": {
    "name": "2633 BORDER DOWNS ROAD BROUGHAMS GATE 2880",
    "locID": "LOC000115623068",
    "tech": "SATELLITE",
    "upgrade": "NULL_NA",
    "gnaf_pid": "GANSW718187112"
   }
  },
  {
   "type": "Feature",
   "geometry": {
    "type": "Point",
    "coordinates": [
     141.21511851,
     -30.630982
    ]
   },
   "properties": {
    "name": "4127 BORDER DOWNS ROAD BROUGHAMS GATE 2880",
    "locID": "ChIJPabTQ3sG8moRpYufOdPOOKY",
    "tech": "SATELLITE",
    "upgrade": "UNKNOWN",
    "gnaf_pid": "GANSW718187113"
   }
  },
  {
   "type": "Feature",
   "geometry": {
    "type": "Point",
    "coordinates": [
     141.1923905,
     -30.28596013
    ]
   },
   "properties": {
    "name": "8487 BORDER DOWNS ROAD BROUGHAMS GATE 2880",
    "locID": "LOC000115617103",
    "tech": "SATELLITE",
    "upgrade": "NULL_NA",
    "gnaf_pid": "GANSW718187114"
   }
  },
  {
   "type": "Feature",
   "geometry": {
    "type": "Point",
    "coordinates": [
     141.37143842,
     -31.33337968
    ]
   },
   "properties": {
    "name": "4834 CORONA ROAD BROUGHAMS GATE 2880",
    "locID": "LOC000115628221",
    "tech": "SATELLITE",
    "upgrade": "NULL_NA",
    "gnaf_pid": "GANSW718190437"
   }
  },
  {
   "type": "Feature",
   "geometry": {
    "type": "Point",
    "coordinates": [
     141.15028547,
     -31.00891924
    ]
   },
   "properties": {
    "name": "8469 CORONA ROAD BROUGHAMS GATE 2880",
    "locID": "LOC000115617093",
    "tech": "SATELLITE",
    "upgrade": "NULL_NA",
    "gnaf_pid": "GANSW718190438"
   }
  },
  {
   "type": "Feature",
   "geometry": {
    "type": "Point",
    "coordinates": [
     141.37205355,
     -30.48434363
    ]
   },
   "properties": {
    "name": "3158 JOULNIE ROAD BROUGHAMS GATE 2880",
    "locID": "LOC000115623178",
    "tech": "SATELLITE",
    "upgrade": "NULL_NA",
    "gnaf_pid": "GANSW718197490"
   }
  },
  {
   "type": "Feature",
   "geometry": {
    "type": "Point",
    "coordinates": [
     141.42724951,
     -31.18351201
    ]
   },
   "properties": {
    "name": "1599 MCDOUGALLS WELL ROAD BROUGHAMS GATE 2880",
    "locID": "LOC000115612855",
    "tech": "SATELLITE",
    "upgrade": "NULL_NA",
    "gnaf_pid": "GANSW718199848"
   }
  },
  {
   "type": "Feature",
   "geometry": {
    "type": "Point",
    "coordinates": [
     141.40646218,
     -30.93941716
    ]
   },
   "properties": {
    "name": "3781 MOUNT WESTWOOD ROAD BROUGHAMS GATE 2880",
    "locID": "LOC000115623262",
    "tech": "SATELLITE",
    "upgrade": "NULL_NA",
    "gnaf_pid": "GANSW718201006"
   }
  },
  {
   "type": "Feature",
   "geometry": {
    "type": "Point",
    "coordinates": [
     141.16361763,
     -31.18309943
    ]
   },
   "properties": {
    "name": "1598 MOUNT WOOWOOLAHRA ROAD BROUGHAMS GATE 2880",
    "locID": "LOC000122343780",
    "tech": "SATELLITE",
    "upgrade": "NULL_NA",
    "gnaf_pid": "GANSW718201008"
   }
  },
  {
   "type": "Feature",
   "geometry": {
    "type": "Point",
    "coordinates": [
     141.32134862,
     -31.45935851
    ]
   },
   "properties": {
    "name": "5314 WILANGEE ROAD BROUGHAMS GATE 2880",
    "locID": "LOC000115628324",
    "tech": "SATELLITE",
    "upgrade": "NULL_NA",
    "gnaf_pid": "GANSW718210633"
   }
  },
  {
   "type": "Feature",
   "geometry": {
    "type": "Point",
    "coordinates": [
     141.16361763,
     -31.18309943
    ]
   },
   "properties": {
    "name": "6931 WILANGEE ROAD BROUGHAMS GATE 2880",
    "locID": "LOC000115612990",
    "tech": "SATELLITE",
    "upgrade": "NULL_NA",
    "gnaf_pid": "GANSW718210634"
   }
  },
  {
   "type": "Feature",
   "geometry": {
    "type": "Point",
    "coordinates": [
     141.25046816,
     -31.41355699
    ]
   },
   "properties": {
    "name": "7769 WILANGEE ROAD BROUGHAMS GATE 2880",
    "locID": "LOC000115613056",
    "tech": "SATELLITE",
    "upgrade": "NULL_NA",
    "gnaf_pid": "GANSW718210635"
   }
  },
  {
   "type": "Feature",
   "geometry": {
    "type": "Point",
    "coordinates": [
     141.09424976,
     -31.29695294
    ]
   },
   "properties": {
    "name": "7771 WILANGEE ROAD BROUGHAMS GATE 2880",
    "locID": "LOC000115613060",
    "tech": "SATELLITE",
    "upgrade": "NULL_NA",
    "gnaf_pid": "GANSW718210636"
   }
  },
  {
   "type": "Feature",
   "geometry": {
    "type": "Point",
    "coordinates": [
     141.09424976,
     -31.29695294
    ]
   },
   "properties": {
    "name": "7773 WILANGEE ROAD BROUGHAMS GATE 2880",
    "locID": "LOC000115613073",
    "tech": "SATELLITE",
    "upgrade": "NULL_NA",
    "gnaf_pid": "GANSW718210637"
   }
  },
  {
   "type": "Feature",
   "geometry": {
    "type": "Point",
    "coordinates": [
     141.33970856,
     -30.57645049
    ]
   },
   "properties": {
    "name": "4652 SANPAH ROAD BROUGHAMS GATE 2880",
    "locID": "ChIJq4l0UFod8moREEn5rJT0-T4",
    "tech": "SATELLITE",
    "upgrade": "UNKNOWN",
    "gnaf_pid": "GANSW718244256"
   }
  },
  {
   "type": "Feature",
   "geometry": {
    "type": "Point",
    "coordinates": [
     141.14503295,
     -31.35724692
    ]
   },
   "properties": {
    "name": "1873 CORONA ROAD BROUGHAMS GATE 2880",
    "locID": "LOC000186630206",
    "tech": "SATELLITE",
    "upgrade": "NULL_NA",
    "gnaf_pid": "GANSW718456531"
   }
  }
 ]
}