{
 "type": "FeatureCollection",
 "generated": "2024-03-05T11:22:46.209194",
 "suburb": "CANONBA",
 "features": [
  {
   "type": "Feature",
   "geometry": {
    "type": "Point",
    "coordinates": [
     147.41476452,
     -31.41550615
    ]
   },
   "properties": {
    "name": "1 MERRYANBONE ROAD CANONBA 2825",
    "locID": "LOC000122116127",
    "tech": "SATELLITE",
    "upgrade": "NULL_NA",
    "gnaf_pid": "GANSW717194998"
   }
  },
  {
   "type": "Feature",
   "geometry": {
    "type": "Point",
    "coordinates": [
     147.41476452,
     -31.41550615
    ]
   },
   "properties": {
    "name": "2 MERRYANBONE ROAD CANONBA 2825",
    "locID": "LOC000122116127",
    "tech": "SATELLITE",
    "upgrade": "NULL_NA",
    "gnaf_pid": "GANSW717194999"
   }
  },
  {
   "type": "Feature",
   "geometry": {
    "type": "Point",
    "coordinates": [
     147.43188814,
     -31.19332136
    ]
   },
   "properties": {
    "name": "4577 CANONBA ROAD CANONBA 2825",
    "locID": "LOC100078052622",
    "tech": "SATELLITE",
    "upgrade": "NULL_NA",
    "gnaf_pid": "GANSW717694857"
   }
  },
  {
   "type": "Feature",
   "geometry": {
    "type": "Point",
    "coordinates": [
     147.4677671,
     -31.18898708
    ]
   },
   "properties": {
    "name": "1871 REIDS ROAD CANONBA 2825",
    "locID": "LOC000101489251",
    "tech": "SATELLITE",
    "upgrade": "NULL_NA",
    "gnaf_pid": "GANSW718036717"
   }
  },
  {
   "type": "Feature",
   "geometry": {
    "type": "Point",
    "coordinates": [
     147.49972,
     -31.29880113
    ]
   },
   "properties": {
    "name": "1875 REIDS ROAD CANONBA 2825",
    "locID": "LOC000074339280",
    "tech": "SATELLITE",
    "upgrade": "NULL_NA",
    "gnaf_pid": "GANSW718036719"
   }
  },
  {
   "type": "Feature",
   "geometry": {
    "type": "Point",
    "coordinates": [
     147.33904963,
     -31.34138458
    ]
   },
   "properties": {
    "name": "1000 BENAH ROAD CANONBA 2825",
    "locID": "LOC000122111114",
    "tech": "SATELLITE",
    "upgrade": "NULL_NA",
    "gnaf_pid": "GANSW718064876"
   }
  },
  {
   "type": "Feature",
   "geometry": {
    "type": "Point",
    "coordinates": [
     147.39694398,
     -31.34680724
    ]
   },
   "properties": {
    "name": "1790 MERRYANBONE ROAD CANONBA 2825",
    "locID": "LOC000155593290",
    "tech": "SATELLITE",
    "upgrade": "NULL_NA",
    "gnaf_pid": "GANSW718071816"
   }
  },
  {
   "type": "Feature",
   "geometry": {
    "type": "Point",
    "coordinates": [
     147.40350532,
     -31.28637239
    ]
   },
   "properties": {
    "name": "LOT 26 CANONBA ROAD CANONBA 2825",
    "locID": "LOC100078052622",
    "tech": "SATELLITE",
    "upgrade": "NULL_NA",
    "gnaf_pid": "GANSW718776893"
   }
  },
  {
   "type": "Feature",
   "geometry": {
    "type": "Point",
    "coordinates": [
     147.33904963,
     -31.34138458
    ]
   },
   "properties": {
    "name": "HOUSE 2, 1000 BENAH ROAD CANONBA 2825",
    "locID": "LOC000122111114",
    "tech": "SATELLITE",
    "upgrade": "NULL_NA",
    "gnaf_pid": "GANSW720547053"
   }
  },
  {
   "type": "Feature",
   "geometry": {
    "type": "Point",
    "coordinates": [
     147.33904963,
     -31.34138458
    ]
   },
   "properties": {
    "name": "HOUSE 1, 1000 BENAH ROAD CANONBA 2825",
    "locID": "LOC000122111114",
    "tech": "SATELLITE",
    "upgrade": "NULL_NA",
    "gnaf_pid": "GANSW720547417"
   }
  },
  {
   "type": "Feature",
   "geometry": {
    "type": "Point",
    "coordinates": [
     147.37504578,
     -31.37809121
    ]
   },
   "properties": {
    "name": "465 MERRYANBONE ROAD CANONBA 2825",
    "locID": "LOC000177878094",
    "tech": "SATELLITE",
    "upgrade": "NULL_NA",
    "gnaf_pid": "GANSW720688286"
   }
  },
  {
   "type": "Feature",
   "geometry": {
    "type": "Point",
    "coordinates": [
     147.30357543,
     -31.36134367
    ]
   },
   "properties": {
    "name": "1000 CANONBA ROAD CANONBA 2825",
    "locID": "LOC000122111114",
    "tech": "SATELLITE",
    "upgrade": "NULL_NA",
    "gnaf_pid": "GANSW720689183"
   }
  },
  {
   "type": "Feature",
   "geometry": {
    "type": "Point",
    "coordinates": [
     147.37438451,
     -31.24444645
    ]
   },
   "properties": {
    "name": "4138 CANONBA ROAD CANONBA 2825",
    "locID": "LOC100079386748",
    "tech": "SATELLITE",
    "upgrade": "NULL_NA",
    "gnaf_pid": "GANSW720786042"
   }
  },
  {
   "type": "Feature",
   "geometry": {
    "type": "Point",
    "coordinates": [
     147.34734691,
     -31.34697671
    ]
   },
   "properties": {
    "name": "17 MERRYANBONE ROAD CANONBA 2825",
    "locID": "LOC000155593290",
    "tech": "SATELLITE",
    "upgrade": "NULL_NA",
    "gnaf_pid": "GANSW721121694"
   }
  }
 ]
}