{
 "type": "FeatureCollection",
 "generated": "2024-08-20T15:27:23.630206",
 "suburb": "COWABBIE",
 "features": [
  {
   "type": "Feature",
   "geometry": {
    "type": "Point",
    "coordinates": [
     146.9240043,
     -34.62328872
    ]
   },
   "properties": {
    "name": "92 EVANS LANE COWABBIE 2652",
    "locID": "LOC000021486714",
    "tech": "SATELLITE",
    "upgrade": "NULL_NA",
    "gnaf_pid": "GANSW717699634",
    "tech_change_status": "Not Planned"
   }
  },
  {
   "type": "Feature",
   "geometry": {
    "type": "Point",
    "coordinates": [
     146.92957972,
     -34.54754826
    ]
   },
   "properties": {
    "name": "183 HEALYS LANE COWABBIE 2652",
    "locID": "LOC000008728547",
    "tech": "SATELLITE",
    "upgrade": "NULL_NA",
    "gnaf_pid": "GANSW717703068",
    "tech_change_status": "Not Planned"
   }
  },
  {
   "type": "Feature",
   "geometry": {
    "type": "Point",
    "coordinates": [
     146.93787697,
     -34.59659137
    ]
   },
   "properties": {
    "name": "2085 MATONG NORTH ROAD COWABBIE 2652",
    "locID": "LOC000089550466",
    "tech": "SATELLITE",
    "upgrade": "NULL_NA",
    "gnaf_pid": "GANSW717709127",
    "tech_change_status": "Not Planned"
   }
  },
  {
   "type": "Feature",
   "geometry": {
    "type": "Point",
    "coordinates": [
     146.94261916,
     -34.56843164
    ]
   },
   "properties": {
    "name": "2387 MATONG NORTH ROAD COWABBIE 2652",
    "locID": "LOC000012243044",
    "tech": "SATELLITE",
    "upgrade": "NULL_NA",
    "gnaf_pid": "GANSW717709128",
    "tech_change_status": "Not Planned"
   }
  },
  {
   "type": "Feature",
   "geometry": {
    "type": "Point",
    "coordinates": [
     146.91603676,
     -34.58263731
    ]
   },
   "properties": {
    "name": "238 TURNBULLS LANE COWABBIE 2652",
    "locID": "LOC000088343321",
    "tech": "SATELLITE",
    "upgrade": "NULL_NA",
    "gnaf_pid": "GANSW717720840",
    "tech_change_status": "Not Planned"
   }
  },
  {
   "type": "Feature",
   "geometry": {
    "type": "Point",
    "coordinates": [
     146.91559539,
     -34.61534924
    ]
   },
   "properties": {
    "name": "97 WALLS LANE COWABBIE 2652",
    "locID": "LOC000107869063",
    "tech": "SATELLITE",
    "upgrade": "NULL_NA",
    "gnaf_pid": "GANSW717721881",
    "tech_change_status": "Not Planned"
   }
  },
  {
   "type": "Feature",
   "geometry": {
    "type": "Point",
    "coordinates": [
     146.90203329,
     -34.62130131
    ]
   },
   "properties": {
    "name": "240 EVANS LANE COWABBIE 2652",
    "locID": "LOC000032055293",
    "tech": "NULL",
    "upgrade": "NULL_NA",
    "gnaf_pid": "GANSW717890222",
    "tech_change_status": "Not Planned"
   }
  },
  {
   "type": "Feature",
   "geometry": {
    "type": "Point",
    "coordinates": [
     146.91948436,
     -34.59020085
    ]
   },
   "properties": {
    "name": "194 HARRISONS LANE COWABBIE 2652",
    "locID": "LOC000012206170",
    "tech": "SATELLITE",
    "upgrade": "NULL_NA",
    "gnaf_pid": "GANSW717891469",
    "tech_change_status": "Not Planned"
   }
  },
  {
   "type": "Feature",
   "geometry": {
    "type": "Point",
    "coordinates": [
     146.90336495,
     -34.59109833
    ]
   },
   "properties": {
    "name": "330 HARRISONS LANE COWABBIE 2652",
    "locID": "LOC000024704233",
    "tech": "SATELLITE",
    "upgrade": "NULL_NA",
    "gnaf_pid": "GANSW717891470",
    "tech_change_status": "Not Planned"
   }
  },
  {
   "type": "Feature",
   "geometry": {
    "type": "Point",
    "coordinates": [
     147.05509863,
     -34.63972763
    ]
   },
   "properties": {
    "name": "2265 ARDLETHAN ROAD COWABBIE 2652",
    "locID": "LOC000027328048",
    "tech": "WIRELESS",
    "upgrade": "NULL_NA",
    "gnaf_pid": "GANSW717942087",
    "tech_change_status": "Not Planned",
    "program_type": "Fixed Wireless and Satellite Upgrade Program",
    "target_eligibility_quarter": "NA"
   }
  },
  {
   "type": "Feature",
   "geometry": {
    "type": "Point",
    "coordinates": [
     146.96056078,
     -34.53064393
    ]
   },
   "properties": {
    "name": "3799 ARDLETHAN ROAD COWABBIE 2652",
    "locID": "LOC000092426599",
    "tech": "SATELLITE",
    "upgrade": "NULL_NA",
    "gnaf_pid": "GANSW717942088",
    "tech_change_status": "Not Planned"
   }
  },
  {
   "type": "Feature",
   "geometry": {
    "type": "Point",
    "coordinates": [
     146.94368762,
     -34.61885304
    ]
   },
   "properties": {
    "name": "1842 MATONG NORTH ROAD COWABBIE 2652",
    "locID": "LOC000040931575",
    "tech": "SATELLITE",
    "upgrade": "NULL_NA",
    "gnaf_pid": "GANSW717958848",
    "tech_change_status": "Not Planned"
   }
  },
  {
   "type": "Feature",
   "geometry": {
    "type": "Point",
    "coordinates": [
     146.9532664,
     -34.61476065
    ]
   },
   "properties": {
    "name": "1906 MATONG NORTH ROAD COWABBIE 2652",
    "locID": "LOC000055989315",
    "tech": "SATELLITE",
    "upgrade": "NULL_NA",
    "gnaf_pid": "GANSW717958849",
    "tech_change_status": "Not Planned"
   }
  },
  {
   "type": "Feature",
   "geometry": {
    "type": "Point",
    "coordinates": [
     146.95948829,
     -34.56920856
    ]
   },
   "properties": {
    "name": "2408 MATONG NORTH ROAD COWABBIE 2652",
    "locID": "LOC000101543727",
    "tech": "SATELLITE",
    "upgrade": "NULL_NA",
    "gnaf_pid": "GANSW717958850",
    "tech_change_status": "Not Planned"
   }
  },
  {
   "type": "Feature",
   "geometry": {
    "type": "Point",
    "coordinates": [
     146.93400563,
     -34.52390359
    ]
   },
   "properties": {
    "name": "129 MURRELL CREEK ROAD COWABBIE 2652",
    "locID": "LOC000023937515",
    "tech": "SATELLITE",
    "upgrade": "NULL_NA",
    "gnaf_pid": "GANSW717997143",
    "tech_change_status": "Not Planned"
   }
  },
  {
   "type": "Feature",
   "geometry": {
    "type": "Point",
    "coordinates": [
     146.93246272,
     -34.61038016
    ]
   },
   "properties": {
    "name": "1 MATONG NORTH ROAD COWABBIE 2652",
    "locID": "LOC000055989315",
    "tech": "SATELLITE",
    "upgrade": "NULL_NA",
    "gnaf_pid": "GANSW720680425",
    "tech_change_status": "Not Planned"
   }
  }
 ]
}