{
 "type": "FeatureCollection",
 "generated": "2024-09-09T16:21:23.799977",
 "suburb": "DAYSDALE",
 "features": [
  {
   "type": "Feature",
   "geometry": {
    "type": "Point",
    "coordinates": [
     146.30234569,
     -35.64481549
    ]
   },
   "properties": {
    "name": "1 ROBINSON STREET DAYSDALE 2646",
    "locID": "LOC000142558690",
    "tech": "SATELLITE",
    "upgrade": "NULL_NA",
    "gnaf_pid": "GANSW712716763",
    "tech_change_status": "Not Planned"
   }
  },
  {
   "type": "Feature",
   "geometry": {
    "type": "Point",
    "coordinates": [
     146.30384725,
     -35.64337952
    ]
   },
   "properties": {
    "name": "LOT 8 YOUNG STREET DAYSDALE 2646",
    "locID": "LOC000109604766",
    "tech": "SATELLITE",
    "upgrade": "NULL_NA",
    "gnaf_pid": "GANSW716600667",
    "tech_change_status": "Not Planned"
   }
  },
  {
   "type": "Feature",
   "geometry": {
    "type": "Point",
    "coordinates": [
     146.30233458,
     -35.64311867
    ]
   },
   "properties": {
    "name": "LOT 3 DENISON STREET DAYSDALE 2646",
    "locID": "LOC000107570009",
    "tech": "SATELLITE",
    "upgrade": "NULL_NA",
    "gnaf_pid": "GANSW717160439",
    "tech_change_status": "Not Planned"
   }
  },
  {
   "type": "Feature",
   "geometry": {
    "type": "Point",
    "coordinates": [
     146.33871941,
     -35.62121609
    ]
   },
   "properties": {
    "name": "6 DAY STREET DAYSDALE 2646",
    "locID": "LOC100087018086",
    "tech": "NULL",
    "upgrade": "NULL_NA",
    "gnaf_pid": "GANSW717180712",
    "tech_change_status": "Not Planned"
   }
  },
  {
   "type": "Feature",
   "geometry": {
    "type": "Point",
    "coordinates": [
     146.3670055,
     -35.59222898
    ]
   },
   "properties": {
    "name": "140 BELLS ROAD DAYSDALE 2646",
    "locID": "LOC000121804362",
    "tech": "SATELLITE",
    "upgrade": "NULL_NA",
    "gnaf_pid": "GANSW717691203",
    "tech_change_status": "Not Planned"
   }
  },
  {
   "type": "Feature",
   "geometry": {
    "type": "Point",
    "coordinates": [
     146.27256352,
     -35.60965837
    ]
   },
   "properties": {
    "name": "148 HARBINGERS ROAD DAYSDALE 2646",
    "locID": "LOC100078130883",
    "tech": "WIRELESS",
    "upgrade": "NULL_NA",
    "gnaf_pid": "GANSW717702659",
    "tech_change_status": "Not Planned",
    "program_type": "Fixed Wireless and Satellite Upgrade Program",
    "target_eligibility_quarter": "Dec 2024"
   }
  },
  {
   "type": "Feature",
   "geometry": {
    "type": "Point",
    "coordinates": [
     146.30402532,
     -35.61769192
    ]
   },
   "properties": {
    "name": "13 KERRS ROAD DAYSDALE 2646",
    "locID": "LOC000121797503",
    "tech": "WIRELESS",
    "upgrade": "NULL_NA",
    "gnaf_pid": "GANSW717705572",
    "tech_change_status": "Not Planned",
    "program_type": "Fixed Wireless and Satellite Upgrade Program",
    "target_eligibility_quarter": "Dec 2024"
   }
  },
  {
   "type": "Feature",
   "geometry": {
    "type": "Point",
    "coordinates": [
     146.33675173,
     -35.60831538
    ]
   },
   "properties": {
    "name": "415 KERRS ROAD DAYSDALE 2646",
    "locID": "LOC000121810130",
    "tech": "SATELLITE",
    "upgrade": "NULL_NA",
    "gnaf_pid": "GANSW717705573",
    "tech_change_status": "Not Planned"
   }
  },
  {
   "type": "Feature",
   "geometry": {
    "type": "Point",
    "coordinates": [
     146.33327262,
     -35.56702614
    ]
   },
   "properties": {
    "name": "95 SAFFRON ROAD DAYSDALE 2646",
    "locID": "LOC000121801967",
    "tech": "NULL",
    "upgrade": "NULL_NA",
    "gnaf_pid": "GANSW717717541",
    "tech_change_status": "Not Planned"
   }
  },
  {
   "type": "Feature",
   "geometry": {
    "type": "Point",
    "coordinates": [
     146.41605206,
     -35.64752705
    ]
   },
   "properties": {
    "name": "931 DAYSDALE-WALBUNDRIE ROAD DAYSDALE 2646",
    "locID": "LOC100078131383",
    "tech": "NULL",
    "upgrade": "NULL_NA",
    "gnaf_pid": "GANSW717767359",
    "tech_change_status": "Not Planned"
   }
  },
  {
   "type": "Feature",
   "geometry": {
    "type": "Point",
    "coordinates": [
     146.30389535,
     -35.63792942
    ]
   },
   "properties": {
    "name": "1941 FEDERATION WAY DAYSDALE 2646",
    "locID": "LOC000086778294",
    "tech": "SATELLITE",
    "upgrade": "WIRELESS",
    "gnaf_pid": "GANSW718043176",
    "tech_change_status": "Eligible to Order",
    "program_type": "Fixed Wireless and Satellite Upgrade Program",
    "target_eligibility_quarter": "Dec 2024"
   }
  },
  {
   "type": "Feature",
   "geometry": {
    "type": "Point",
    "coordinates": [
     146.28649305,
     -35.67724001
    ]
   },
   "properties": {
    "name": "578 COADS TANK ROAD DAYSDALE 2646",
    "locID": "LOC000121774921",
    "tech": "SATELLITE",
    "upgrade": "NULL_NA",
    "gnaf_pid": "GANSW718260538",
    "tech_change_status": "Not Planned"
   }
  },
  {
   "type": "Feature",
   "geometry": {
    "type": "Point",
    "coordinates": [
     146.28934568,
     -35.65553071
    ]
   },
   "properties": {
    "name": "830 COADS TANK ROAD DAYSDALE 2646",
    "locID": "LOC000121794520",
    "tech": "SATELLITE",
    "upgrade": "WIRELESS",
    "gnaf_pid": "GANSW718260540",
    "tech_change_status": "Eligible to Order",
    "program_type": "Fixed Wireless and Satellite Upgrade Program",
    "target_eligibility_quarter": "Dec 2024"
   }
  },
  {
   "type": "Feature",
   "geometry": {
    "type": "Point",
    "coordinates": [
     146.40385916,
     -35.6726971
    ]
   },
   "properties": {
    "name": "485 COREEN VALE ROAD DAYSDALE 2646",
    "locID": "LOC000121769958",
    "tech": "NULL",
    "upgrade": "NULL_NA",
    "gnaf_pid": "GANSW718260949",
    "tech_change_status": "Not Planned"
   }
  },
  {
   "type": "Feature",
   "geometry": {
    "type": "Point",
    "coordinates": [
     146.51873819,
     -35.66907882
    ]
   },
   "properties": {
    "name": "2197 DAYSDALE-WALBUNDRIE ROAD DAYSDALE 2646",
    "locID": "LOC000121777114",
    "tech": "NULL",
    "upgrade": "NULL_NA",
    "gnaf_pid": "GANSW718261448",
    "tech_change_status": "Not Planned"
   }
  },
  {
   "type": "Feature",
   "geometry": {
    "type": "Point",
    "coordinates": [
     146.36538909,
     -35.654482
    ]
   },
   "properties": {
    "name": "3648 DAYSDALE-WALBUNDRIE ROAD DAYSDALE 2646",
    "locID": "LOC000121801663",
    "tech": "WIRELESS",
    "upgrade": "NULL_NA",
    "gnaf_pid": "GANSW718261449",
    "tech_change_status": "Not Planned",
    "program_type": "Fixed Wireless and Satellite Upgrade Program",
    "target_eligibility_quarter": "Dec 2024"
   }
  },
  {
   "type": "Feature",
   "geometry": {
    "type": "Point",
    "coordinates": [
     146.34842447,
     -35.65880077
    ]
   },
   "properties": {
    "name": "3781 DAYSDALE-WALBUNDRIE ROAD DAYSDALE 2646",
    "locID": "LOC000121804793",
    "tech": "WIRELESS",
    "upgrade": "NULL_NA",
    "gnaf_pid": "GANSW718261450",
    "tech_change_status": "Not Planned",
    "program_type": "Fixed Wireless and Satellite Upgrade Program",
    "target_eligibility_quarter": "Dec 2024"
   }
  },
  {
   "type": "Feature",
   "geometry": {
    "type": "Point",
    "coordinates": [
     146.3302783,
     -35.65447744
    ]
   },
   "properties": {
    "name": "3943 DAYSDALE-WALBUNDRIE ROAD DAYSDALE 2646",
    "locID": "LOC000121807459",
    "tech": "NULL",
    "upgrade": "NULL_NA",
    "gnaf_pid": "GANSW718261451",
    "tech_change_status": "Not Planned"
   }
  },
  {
   "type": "Feature",
   "geometry": {
    "type": "Point",
    "coordinates": [
     146.30524615,
     -35.64284086
    ]
   },
   "properties": {
    "name": "1887 FEDERATION WAY DAYSDALE 2646",
    "locID": "LOC000121769700",
    "tech": "NULL",
    "upgrade": "NULL_NA",
    "gnaf_pid": "GANSW718262560",
    "tech_change_status": "Not Planned"
   }
  },
  {
   "type": "Feature",
   "geometry": {
    "type": "Point",
    "coordinates": [
     146.30522473,
     -35.64184863
    ]
   },
   "properties": {
    "name": "1901 FEDERATION WAY DAYSDALE 2646",
    "locID": "LOC000121769860",
    "tech": "NULL",
    "upgrade": "NULL_NA",
    "gnaf_pid": "GANSW718262561",
    "tech_change_status": "Not Planned"
   }
  },
  {
   "type": "Feature",
   "geometry": {
    "type": "Point",
    "coordinates": [
     146.30479802,
     -35.63868145
    ]
   },
   "properties": {
    "name": "1933 FEDERATION WAY DAYSDALE 2646",
    "locID": "LOC000121769904",
    "tech": "WIRELESS",
    "upgrade": "NULL_NA",
    "gnaf_pid": "GANSW718262562",
    "tech_change_status": "Not Planned",
    "program_type": "Fixed Wireless and Satellite Upgrade Program",
    "target_eligibility_quarter": "Dec 2024"
   }
  },
  {
   "type": "Feature",
   "geometry": {
    "type": "Point",
    "coordinates": [
     146.30104878,
     -35.63336823
    ]
   },
   "properties": {
    "name": "2009 FEDERATION WAY DAYSDALE 2646",
    "locID": "LOC000121774461",
    "tech": "WIRELESS",
    "upgrade": "NULL_NA",
    "gnaf_pid": "GANSW718262563",
    "tech_change_status": "Not Planned",
    "program_type": "Fixed Wireless and Satellite Upgrade Program",
    "target_eligibility_quarter": "Dec 2024"
   }
  },
  {
   "type": "Feature",
   "geometry": {
    "type": "Point",
    "coordinates": [
     146.29935419,
     -35.61082
    ]
   },
   "properties": {
    "name": "2255 FEDERATION WAY DAYSDALE 2646",
    "locID": "LOC000121779938",
    "tech": "WIRELESS",
    "upgrade": "NULL_NA",
    "gnaf_pid": "GANSW718262564",
    "tech_change_status": "Not Planned",
    "program_type": "Fixed Wireless and Satellite Upgrade Program",
    "target_eligibility_quarter": "Dec 2024"
   }
  },
  {
   "type": "Feature",
   "geometry": {
    "type": "Point",
    "coordinates": [
     146.31273989,
     -35.57598244
    ]
   },
   "properties": {
    "name": "2616 FEDERATION WAY DAYSDALE 2646",
    "locID": "LOC000121785953",
    "tech": "SATELLITE",
    "upgrade": "NULL_NA",
    "gnaf_pid": "GANSW718262565",
    "tech_change_status": "Not Planned"
   }
  },
  {
   "type": "Feature",
   "geometry": {
    "type": "Point",
    "coordinates": [
     146.33835685,
     -35.67369689
    ]
   },
   "properties": {
    "name": "113 HANRAHANS ROAD DAYSDALE 2646",
    "locID": "LOC000121790984",
    "tech": "SATELLITE",
    "upgrade": "NULL_NA",
    "gnaf_pid": "GANSW718263681",
    "tech_change_status": "Not Planned"
   }
  },
  {
   "type": "Feature",
   "geometry": {
    "type": "Point",
    "coordinates": [
     146.3453381,
     -35.67606963
    ]
   },
   "properties": {
    "name": "176 HANRAHANS ROAD DAYSDALE 2646",
    "locID": "LOC000121812616",
    "tech": "NULL",
    "upgrade": "NULL_NA",
    "gnaf_pid": "GANSW718263682",
    "tech_change_status": "Not Planned"
   }
  },
  {
   "type": "Feature",
   "geometry": {
    "type": "Point",
    "coordinates": [
     146.18894868,
     -35.66558287
    ]
   },
   "properties": {
    "name": "546 JONES ROAD DAYSDALE 2646",
    "locID": "LOC000121774708",
    "tech": "SATELLITE",
    "upgrade": "NULL_NA",
    "gnaf_pid": "GANSW718264615",
    "tech_change_status": "Not Planned"
   }
  },
  {
   "type": "Feature",
   "geometry": {
    "type": "Point",
    "coordinates": [
     146.27921107,
     -35.66188882
    ]
   },
   "properties": {
    "name": "79 ARGUS ROAD DAYSDALE 2646",
    "locID": "LOC000121789021",
    "tech": "SATELLITE",
    "upgrade": "NULL_NA",
    "gnaf_pid": "GANSW718280907",
    "tech_change_status": "Not Planned"
   }
  },
  {
   "type": "Feature",
   "geometry": {
    "type": "Point",
    "coordinates": [
     146.28622438,
     -35.692862
    ]
   },
   "properties": {
    "name": "391 BLUE ROAD DAYSDALE 2646",
    "locID": "LOC000121804937",
    "tech": "NULL",
    "upgrade": "NULL_NA",
    "gnaf_pid": "GANSW718281316",
    "tech_change_status": "Not Planned"
   }
  },
  {
   "type": "Feature",
   "geometry": {
    "type": "Point",
    "coordinates": [
     146.44881688,
     -35.66554672
    ]
   },
   "properties": {
    "name": "2873 DAYSDALE-WALBUNDRIE ROAD DAYSDALE 2646",
    "locID": "LOC000121791283",
    "tech": "NULL",
    "upgrade": "NULL_NA",
    "gnaf_pid": "GANSW718283149",
    "tech_change_status": "Not Planned"
   }
  },
  {
   "type": "Feature",
   "geometry": {
    "type": "Point",
    "coordinates": [
     146.20412901,
     -35.6656027
    ]
   },
   "properties": {
    "name": "35 LOCK GATE LANE DAYSDALE 2646",
    "locID": "LOC000121801443",
    "tech": "SATELLITE",
    "upgrade": "NULL_NA",
    "gnaf_pid": "GANSW718285050",
    "tech_change_status": "Not Planned"
   }
  },
  {
   "type": "Feature",
   "geometry": {
    "type": "Point",
    "coordinates": [
     146.201119,
     -35.66182316
    ]
   },
   "properties": {
    "name": "61 LOCK GATE LANE DAYSDALE 2646",
    "locID": "LOC000142544882",
    "tech": "SATELLITE",
    "upgrade": "NULL_NA",
    "gnaf_pid": "GANSW718285051",
    "tech_change_status": "Not Planned"
   }
  },
  {
   "type": "Feature",
   "geometry": {
    "type": "Point",
    "coordinates": [
     146.30738576,
     -35.63578516
    ]
   },
   "properties": {
    "name": "19 MILLS ROAD DAYSDALE 2646",
    "locID": "LOC000121769792",
    "tech": "WIRELESS",
    "upgrade": "NULL_NA",
    "gnaf_pid": "GANSW718285603",
    "tech_change_status": "Not Planned",
    "program_type": "Fixed Wireless and Satellite Upgrade Program",
    "target_eligibility_quarter": "Dec 2024"
   }
  },
  {
   "type": "Feature",
   "geometry": {
    "type": "Point",
    "coordinates": [
     146.35568641,
     -35.63629258
    ]
   },
   "properties": {
    "name": "461 MILLS ROAD DAYSDALE 2646",
    "locID": "LOC000121813006",
    "tech": "SATELLITE",
    "upgrade": "NULL_NA",
    "gnaf_pid": "GANSW718285604",
    "tech_change_status": "Not Planned"
   }
  },
  {
   "type": "Feature",
   "geometry": {
    "type": "Point",
    "coordinates": [
     146.24133829,
     -35.66170833
    ]
   },
   "properties": {
    "name": "655 MINNS ROAD DAYSDALE 2646",
    "locID": "LOC000121783079",
    "tech": "SATELLITE",
    "upgrade": "NULL_NA",
    "gnaf_pid": "GANSW718285626",
    "tech_change_status": "Not Planned"
   }
  },
  {
   "type": "Feature",
   "geometry": {
    "type": "Point",
    "coordinates": [
     146.26195012,
     -35.66153485
    ]
   },
   "properties": {
    "name": "662 MINNS ROAD DAYSDALE 2646",
    "locID": "LOC000121783131",
    "tech": "SATELLITE",
    "upgrade": "NULL_NA",
    "gnaf_pid": "GANSW718285627",
    "tech_change_status": "Not Planned"
   }
  },
  {
   "type": "Feature",
   "geometry": {
    "type": "Point",
    "coordinates": [
     146.30412326,
     -35.66925235
    ]
   },
   "properties": {
    "name": "142 RESERVE ROAD DAYSDALE 2646",
    "locID": "LOC000121804447",
    "tech": "WIRELESS",
    "upgrade": "NULL_NA",
    "gnaf_pid": "GANSW718287157",
    "tech_change_status": "Not Planned",
    "program_type": "Fixed Wireless and Satellite Upgrade Program",
    "target_eligibility_quarter": "Dec 2024"
   }
  },
  {
   "type": "Feature",
   "geometry": {
    "type": "Point",
    "coordinates": [
     146.35590398,
     -35.64522163
    ]
   },
   "properties": {
    "name": "99 TRIANGLE PARK ROAD DAYSDALE 2646",
    "locID": "LOC000121805080",
    "tech": "SATELLITE",
    "upgrade": "NULL_NA",
    "gnaf_pid": "GANSW718288265",
    "tech_change_status": "Not Planned"
   }
  },
  {
   "type": "Feature",
   "geometry": {
    "type": "Point",
    "coordinates": [
     146.30317593,
     -35.64410756
    ]
   },
   "properties": {
    "name": "5 DENISON STREET DAYSDALE 2646",
    "locID": "LOC000143010198",
    "tech": "SATELLITE",
    "upgrade": "NULL_NA",
    "gnaf_pid": "GANSW718376611",
    "tech_change_status": "Not Planned"
   }
  },
  {
   "type": "Feature",
   "geometry": {
    "type": "Point",
    "coordinates": [
     146.40727977,
     -35.59093321
    ]
   },
   "properties": {
    "name": "1481 BYNEDALE ROAD DAYSDALE 2646",
    "locID": "LOC000148381180",
    "tech": "SATELLITE",
    "upgrade": "NULL_NA",
    "gnaf_pid": "GANSW718527427",
    "tech_change_status": "Not Planned"
   }
  },
  {
   "type": "Feature",
   "geometry": {
    "type": "Point",
    "coordinates": [
     146.3819629,
     -35.57926123
    ]
   },
   "properties": {
    "name": "749 BYNEDALE ROAD DAYSDALE 2646",
    "locID": "LOC000148100559",
    "tech": "SATELLITE",
    "upgrade": "NULL_NA",
    "gnaf_pid": "GANSW718527428",
    "tech_change_status": "Not Planned"
   }
  },
  {
   "type": "Feature",
   "geometry": {
    "type": "Point",
    "coordinates": [
     146.30665468,
     -35.56415921
    ]
   },
   "properties": {
    "name": "77 BYNEDALE ROAD DAYSDALE 2646",
    "locID": "LOC000150106627",
    "tech": "WIRELESS",
    "upgrade": "NULL_NA",
    "gnaf_pid": "GANSW718527429",
    "tech_change_status": "Not Planned",
    "program_type": "Fixed Wireless and Satellite Upgrade Program",
    "target_eligibility_quarter": "Dec 2024"
   }
  },
  {
   "type": "Feature",
   "geometry": {
    "type": "Point",
    "coordinates": [
     146.41622828,
     -35.62551114
    ]
   },
   "properties": {
    "name": "637 ELLIOTS ROAD DAYSDALE 2646",
    "locID": "LOC000148381743",
    "tech": "NULL",
    "upgrade": "NULL_NA",
    "gnaf_pid": "GANSW718529290",
    "tech_change_status": "Not Planned"
   }
  },
  {
   "type": "Feature",
   "geometry": {
    "type": "Point",
    "coordinates": [
     146.30233458,
     -35.64311867
    ]
   },
   "properties": {
    "name": "LOT 5 DENISON STREET DAYSDALE 2646",
    "locID": "LOC000188071851",
    "tech": "SATELLITE",
    "upgrade": "NULL_NA",
    "gnaf_pid": "GANSW718809848",
    "tech_change_status": "Not Planned"
   }
  },
  {
   "type": "Feature",
   "geometry": {
    "type": "Point",
    "coordinates": [
     146.33871941,
     -35.62121609
    ]
   },
   "properties": {
    "name": "8 DAY STREET DAYSDALE 2646",
    "locID": "LOC000109604766",
    "tech": "SATELLITE",
    "upgrade": "NULL_NA",
    "gnaf_pid": "GANSW719714976",
    "tech_change_status": "Not Planned"
   }
  },
  {
   "type": "Feature",
   "geometry": {
    "type": "Point",
    "coordinates": [
     146.30519561,
     -35.64081855
    ]
   },
   "properties": {
    "name": "1914 FEDERATION WAY DAYSDALE 2646",
    "locID": "LOC100082840457",
    "tech": "SATELLITE",
    "upgrade": "NULL_NA",
    "gnaf_pid": "GANSW719872620",
    "tech_change_status": "Not Planned"
   }
  },
  {
   "type": "Feature",
   "geometry": {
    "type": "Point",
    "coordinates": [
     146.3023406,
     -35.64572684
    ]
   },
   "properties": {
    "name": "3 DENISON STREET DAYSDALE 2646",
    "locID": "LOC000107570009",
    "tech": "SATELLITE",
    "upgrade": "NULL_NA",
    "gnaf_pid": "GANSW720018925",
    "tech_change_status": "Not Planned"
   }
  },
  {
   "type": "Feature",
   "geometry": {
    "type": "Point",
    "coordinates": [
     146.30234569,
     -35.64481549
    ]
   },
   "properties": {
    "name": "LOT 1 ROBINSON STREET DAYSDALE 2646",
    "locID": "LOC000142558690",
    "tech": "SATELLITE",
    "upgrade": "NULL_NA",
    "gnaf_pid": "GANSW720096154",
    "tech_change_status": "Not Planned"
   }
  },
  {
   "type": "Feature",
   "geometry": {
    "type": "Point",
    "coordinates": [
     146.30727465,
     -35.63732983
    ]
   },
   "properties": {
    "name": "2-10 MILLS ROAD DAYSDALE 2646",
    "locID": "LOC000121813006",
    "tech": "SATELLITE",
    "upgrade": "NULL_NA",
    "gnaf_pid": "GANSW720322831",
    "tech_change_status": "Not Planned"
   }
  },
  {
   "type": "Feature",
   "geometry": {
    "type": "Point",
    "coordinates": [
     146.30303693,
     -35.64087171
    ]
   },
   "properties": {
    "name": "6 DENISON STREET DAYSDALE 2646",
    "locID": "LOC100087018086",
    "tech": "NULL",
    "upgrade": "NULL_NA",
    "gnaf_pid": "GANSW721441522",
    "tech_change_status": "Not Planned"
   }
  }
 ]
}