{
 "type": "FeatureCollection",
 "generated": "2024-01-27T05:52:01.430570",
 "suburb": "DAYSDALE",
 "features": [
  {
   "type": "Feature",
   "geometry": {
    "type": "Point",
    "coordinates": [
     146.28058611,
     -35.6150189
    ]
   },
   "properties": {
    "name": "126 HARBINGERS ROAD DAYSDALE 2646",
    "locID": "ChIJw9tERu0DIWsRCoBYpbvTqmQ",
    "tech": "SATELLITE",
    "upgrade": "UNKNOWN",
    "gnaf_pid": "GANSW712716762"
   }
  },
  {
   "type": "Feature",
   "geometry": {
    "type": "Point",
    "coordinates": [
     146.30234569,
     -35.64481549
    ]
   },
   "properties": {
    "name": "1 ROBINSON STREET DAYSDALE 2646",
    "locID": "LOC000142558690",
    "tech": "SATELLITE",
    "upgrade": "NULL_NA",
    "gnaf_pid": "GANSW712716763"
   }
  },
  {
   "type": "Feature",
   "geometry": {
    "type": "Point",
    "coordinates": [
     146.30384725,
     -35.64337952
    ]
   },
   "properties": {
    "name": "LOT 8 YOUNG STREET DAYSDALE 2646",
    "locID": "LOC000109604766",
    "tech": "SATELLITE",
    "upgrade": "NULL_NA",
    "gnaf_pid": "GANSW716600667"
   }
  },
  {
   "type": "Feature",
   "geometry": {
    "type": "Point",
    "coordinates": [
     146.30233458,
     -35.64311867
    ]
   },
   "properties": {
    "name": "LOT 3 DENISON STREET DAYSDALE 2646",
    "locID": "LOC000107570009",
    "tech": "SATELLITE",
    "upgrade": "NULL_NA",
    "gnaf_pid": "GANSW717160439"
   }
  },
  {
   "type": "Feature",
   "geometry": {
    "type": "Point",
    "coordinates": [
     146.33871941,
     -35.62121609
    ]
   },
   "properties": {
    "name": "6 DAY STREET DAYSDALE 2646",
    "locID": "ChIJsz6CPNMFIWsRWoGQaWULCWc",
    "tech": "SATELLITE",
    "upgrade": "UNKNOWN",
    "gnaf_pid": "GANSW717180712"
   }
  },
  {
   "type": "Feature",
   "geometry": {
    "type": "Point",
    "coordinates": [
     146.3670055,
     -35.59222898
    ]
   },
   "properties": {
    "name": "140 BELLS ROAD DAYSDALE 2646",
    "locID": "LOC000121804362",
    "tech": "SATELLITE",
    "upgrade": "NULL_NA",
    "gnaf_pid": "GANSW717691203"
   }
  },
  {
   "type": "Feature",
   "geometry": {
    "type": "Point",
    "coordinates": [
     146.27256352,
     -35.60965837
    ]
   },
   "properties": {
    "name": "148 HARBINGERS ROAD DAYSDALE 2646",
    "locID": "LOC100078130883",
    "tech": "WIRELESS",
    "upgrade": "NULL_NA",
    "gnaf_pid": "GANSW717702659"
   }
  },
  {
   "type": "Feature",
   "geometry": {
    "type": "Point",
    "coordinates": [
     146.30402532,
     -35.61769192
    ]
   },
   "properties": {
    "name": "13 KERRS ROAD DAYSDALE 2646",
    "locID": "LOC000121797503",
    "tech": "WIRELESS",
    "upgrade": "NULL_NA",
    "gnaf_pid": "GANSW717705572"
   }
  },
  {
   "type": "Feature",
   "geometry": {
    "type": "Point",
    "coordinates": [
     146.33675173,
     -35.60831538
    ]
   },
   "properties": {
    "name": "415 KERRS ROAD DAYSDALE 2646",
    "locID": "LOC000121810130",
    "tech": "SATELLITE",
    "upgrade": "NULL_NA",
    "gnaf_pid": "GANSW717705573"
   }
  },
  {
   "type": "Feature",
   "geometry": {
    "type": "Point",
    "coordinates": [
     146.38708165,
     -35.56429762
    ]
   },
   "properties": {
    "name": "311 MARDLINGS ROAD DAYSDALE 2646",
    "locID": "ChIJ9wECmAkIIWsR7MGdVO7bk8g",
    "tech": "SATELLITE",
    "upgrade": "UNKNOWN",
    "gnaf_pid": "GANSW717708363"
   }
  },
  {
   "type": "Feature",
   "geometry": {
    "type": "Point",
    "coordinates": [
     146.33675173,
     -35.60831538
    ]
   },
   "properties": {
    "name": "88 O'BRYANS ROAD DAYSDALE 2646",
    "locID": "ChIJW4t6RIcGIWsRhi0tpzCpw2s",
    "tech": "SATELLITE",
    "upgrade": "UNKNOWN",
    "gnaf_pid": "GANSW717712608"
   }
  },
  {
   "type": "Feature",
   "geometry": {
    "type": "Point",
    "coordinates": [
     146.33327262,
     -35.56702614
    ]
   },
   "properties": {
    "name": "95 SAFFRON ROAD DAYSDALE 2646",
    "locID": "LOC000121801967",
    "tech": "SATELLITE",
    "upgrade": "NULL_NA",
    "gnaf_pid": "GANSW717717541"
   }
  },
  {
   "type": "Feature",
   "geometry": {
    "type": "Point",
    "coordinates": [
     146.44881688,
     -35.66554672
    ]
   },
   "properties": {
    "name": "1224 DAYSDALE-WALBUNDRIE ROAD DAYSDALE 2646",
    "locID": "ChIJOwWEkMAOIWsRp5v4mRVFykc",
    "tech": "SATELLITE",
    "upgrade": "UNKNOWN",
    "gnaf_pid": "GANSW717767358"
   }
  },
  {
   "type": "Feature",
   "geometry": {
    "type": "Point",
    "coordinates": [
     146.41605206,
     -35.64752705
    ]
   },
   "properties": {
    "name": "931 DAYSDALE-WALBUNDRIE ROAD DAYSDALE 2646",
    "locID": "LOC100078131383",
    "tech": "SATELLITE",
    "upgrade": "NULL_NA",
    "gnaf_pid": "GANSW717767359"
   }
  },
  {
   "type": "Feature",
   "geometry": {
    "type": "Point",
    "coordinates": [
     146.30389535,
     -35.63792942
    ]
   },
   "properties": {
    "name": "1941 FEDERATION WAY DAYSDALE 2646",
    "locID": "LOC000086778294",
    "tech": "WIRELESS",
    "upgrade": "SAT_CT",
    "gnaf_pid": "GANSW718043176",
    "tech_change_status": "Eligible To Order"
   }
  },
  {
   "type": "Feature",
   "geometry": {
    "type": "Point",
    "coordinates": [
     146.30384725,
     -35.64337952
    ]
   },
   "properties": {
    "name": "LOT 4 YOUNG STREET DAYSDALE 2646",
    "locID": "Eig0IFlvdW5nIFN0LCBEYXlzZGFsZSBOU1cgMjY0NiwgQXVzdHJhbGlhIjASLgoUChIJT_IQ2YcEIWsRYMK1crQJBhMQBCoUChIJr01yLn0EIWsRltusHuDLdgQ",
    "tech": "SATELLITE",
    "upgrade": "UNKNOWN",
    "gnaf_pid": "GANSW718180712"
   }
  },
  {
   "type": "Feature",
   "geometry": {
    "type": "Point",
    "coordinates": [
     146.28649305,
     -35.67724001
    ]
   },
   "properties": {
    "name": "578 COADS TANK ROAD DAYSDALE 2646",
    "locID": "LOC000121774921",
    "tech": "SATELLITE",
    "upgrade": "NULL_NA",
    "gnaf_pid": "GANSW718260538"
   }
  },
  {
   "type": "Feature",
   "geometry": {
    "type": "Point",
    "coordinates": [
     146.28037747,
     -35.67779419
    ]
   },
   "properties": {
    "name": "579 COADS TANK ROAD DAYSDALE 2646",
    "locID": "LOC000121774932",
    "tech": "SATELLITE",
    "upgrade": "NULL_NA",
    "gnaf_pid": "GANSW718260539"
   }
  },
  {
   "type": "Feature",
   "geometry": {
    "type": "Point",
    "coordinates": [
     146.28934568,
     -35.65553071
    ]
   },
   "properties": {
    "name": "830 COADS TANK ROAD DAYSDALE 2646",
    "locID": "LOC000121794520",
    "tech": "WIRELESS",
    "upgrade": "SAT_CT",
    "gnaf_pid": "GANSW718260540",
    "tech_change_status": "Eligible To Order"
   }
  },
  {
   "type": "Feature",
   "geometry": {
    "type": "Point",
    "coordinates": [
     146.40385916,
     -35.6726971
    ]
   },
   "properties": {
    "name": "485 COREEN VALE ROAD DAYSDALE 2646",
    "locID": "LOC000121769958",
    "tech": "SATELLITE",
    "upgrade": "NULL_NA",
    "gnaf_pid": "GANSW718260949"
   }
  },
  {
   "type": "Feature",
   "geometry": {
    "type": "Point",
    "coordinates": [
     146.51873819,
     -35.66907882
    ]
   },
   "properties": {
    "name": "2197 DAYSDALE-WALBUNDRIE ROAD DAYSDALE 2646",
    "locID": "LOC000121777114",
    "tech": "SATELLITE",
    "upgrade": "NULL_NA",
    "gnaf_pid": "GANSW718261448"
   }
  },
  {
   "type": "Feature",
   "geometry": {
    "type": "Point",
    "coordinates": [
     146.36538909,
     -35.654482
    ]
   },
   "properties": {
    "name": "3648 DAYSDALE-WALBUNDRIE ROAD DAYSDALE 2646",
    "locID": "LOC000121801663",
    "tech": "WIRELESS",
    "upgrade": "NULL_NA",
    "gnaf_pid": "GANSW718261449"
   }
  },
  {
   "type": "Feature",
   "geometry": {
    "type": "Point",
    "coordinates": [
     146.34842447,
     -35.65880077
    ]
   },
   "properties": {
    "name": "3781 DAYSDALE-WALBUNDRIE ROAD DAYSDALE 2646",
    "locID": "LOC000121804793",
    "tech": "WIRELESS",
    "upgrade": "NULL_NA",
    "gnaf_pid": "GANSW718261450"
   }
  },
  {
   "type": "Feature",
   "geometry": {
    "type": "Point",
    "coordinates": [
     146.3302783,
     -35.65447744
    ]
   },
   "properties": {
    "name": "3943 DAYSDALE-WALBUNDRIE ROAD DAYSDALE 2646",
    "locID": "LOC000121807459",
    "tech": "SATELLITE",
    "upgrade": "NULL_NA",
    "gnaf_pid": "GANSW718261451"
   }
  },
  {
   "type": "Feature",
   "geometry": {
    "type": "Point",
    "coordinates": [
     146.30524615,
     -35.64284086
    ]
   },
   "properties": {
    "name": "1887 FEDERATION WAY DAYSDALE 2646",
    "locID": "LOC000121769700",
    "tech": "SATELLITE",
    "upgrade": "NULL_NA",
    "gnaf_pid": "GANSW718262560"
   }
  },
  {
   "type": "Feature",
   "geometry": {
    "type": "Point",
    "coordinates": [
     146.30522473,
     -35.64184863
    ]
   },
   "properties": {
    "name": "1901 FEDERATION WAY DAYSDALE 2646",
    "locID": "LOC000121769860",
    "tech": "SATELLITE",
    "upgrade": "NULL_NA",
    "gnaf_pid": "GANSW718262561"
   }
  },
  {
   "type": "Feature",
   "geometry": {
    "type": "Point",
    "coordinates": [
     146.30479802,
     -35.63868145
    ]
   },
   "properties": {
    "name": "1933 FEDERATION WAY DAYSDALE 2646",
    "locID": "LOC000121769904",
    "tech": "WIRELESS",
    "upgrade": "NULL_NA",
    "gnaf_pid": "GANSW718262562"
   }
  },
  {
   "type": "Feature",
   "geometry": {
    "type": "Point",
    "coordinates": [
     146.30104878,
     -35.63336823
    ]
   },
   "properties": {
    "name": "2009 FEDERATION WAY DAYSDALE 2646",
    "locID": "LOC000121774461",
    "tech": "WIRELESS",
    "upgrade": "NULL_NA",
    "gnaf_pid": "GANSW718262563"
   }
  },
  {
   "type": "Feature",
   "geometry": {
    "type": "Point",
    "coordinates": [
     146.29935419,
     -35.61082
    ]
   },
   "properties": {
    "name": "2255 FEDERATION WAY DAYSDALE 2646",
    "locID": "LOC000121779938",
    "tech": "WIRELESS",
    "upgrade": "NULL_NA",
    "gnaf_pid": "GANSW718262564"
   }
  },
  {
   "type": "Feature",
   "geometry": {
    "type": "Point",
    "coordinates": [
     146.31273989,
     -35.57598244
    ]
   },
   "properties": {
    "name": "2616 FEDERATION WAY DAYSDALE 2646",
    "locID": "LOC000121785953",
    "tech": "SATELLITE",
    "upgrade": "NULL_NA",
    "gnaf_pid": "GANSW718262565"
   }
  },
  {
   "type": "Feature",
   "geometry": {
    "type": "Point",
    "coordinates": [
     146.2846515,
     -35.53794319
    ]
   },
   "properties": {
    "name": "2743 FEDERATION WAY DAYSDALE 2646",
    "locID": "ChIJF0-W9tMGIWsRyy1aF7Zz00Q",
    "tech": "SATELLITE",
    "upgrade": "UNKNOWN",
    "gnaf_pid": "GANSW718262566"
   }
  },
  {
   "type": "Feature",
   "geometry": {
    "type": "Point",
    "coordinates": [
     146.33835685,
     -35.67369689
    ]
   },
   "properties": {
    "name": "113 HANRAHANS ROAD DAYSDALE 2646",
    "locID": "LOC000121790984",
    "tech": "SATELLITE",
    "upgrade": "NULL_NA",
    "gnaf_pid": "GANSW718263681"
   }
  },
  {
   "type": "Feature",
   "geometry": {
    "type": "Point",
    "coordinates": [
     146.3453381,
     -35.67606963
    ]
   },
   "properties": {
    "name": "176 HANRAHANS ROAD DAYSDALE 2646",
    "locID": "LOC000121812616",
    "tech": "SATELLITE",
    "upgrade": "NULL_NA",
    "gnaf_pid": "GANSW718263682"
   }
  },
  {
   "type": "Feature",
   "geometry": {
    "type": "Point",
    "coordinates": [
     146.27252783,
     -35.60957251
    ]
   },
   "properties": {
    "name": "309 HARBINGERS ROAD DAYSDALE 2646",
    "locID": "ChIJddL1yqMDIWsRRy8uUMPrXys",
    "tech": "SATELLITE",
    "upgrade": "UNKNOWN",
    "gnaf_pid": "GANSW718263691"
   }
  },
  {
   "type": "Feature",
   "geometry": {
    "type": "Point",
    "coordinates": [
     146.18894868,
     -35.66558287
    ]
   },
   "properties": {
    "name": "546 JONES ROAD DAYSDALE 2646",
    "locID": "LOC000121774708",
    "tech": "SATELLITE",
    "upgrade": "NULL_NA",
    "gnaf_pid": "GANSW718264615"
   }
  },
  {
   "type": "Feature",
   "geometry": {
    "type": "Point",
    "coordinates": [
     146.22820199,
     -35.65731384
    ]
   },
   "properties": {
    "name": "465 ARGUS ROAD DAYSDALE 2646",
    "locID": "ChIJZ7kigDQdIWsRxroJmDgyJ0A",
    "tech": "SATELLITE",
    "upgrade": "UNKNOWN",
    "gnaf_pid": "GANSW718280906"
   }
  },
  {
   "type": "Feature",
   "geometry": {
    "type": "Point",
    "coordinates": [
     146.27921107,
     -35.66188882
    ]
   },
   "properties": {
    "name": "79 ARGUS ROAD DAYSDALE 2646",
    "locID": "LOC000121789021",
    "tech": "SATELLITE",
    "upgrade": "NULL_NA",
    "gnaf_pid": "GANSW718280907"
   }
  },
  {
   "type": "Feature",
   "geometry": {
    "type": "Point",
    "coordinates": [
     146.28622438,
     -35.692862
    ]
   },
   "properties": {
    "name": "391 BLUE ROAD DAYSDALE 2646",
    "locID": "LOC000121804937",
    "tech": "SATELLITE",
    "upgrade": "NULL_NA",
    "gnaf_pid": "GANSW718281316"
   }
  },
  {
   "type": "Feature",
   "geometry": {
    "type": "Point",
    "coordinates": [
     146.28795977,
     -35.66621293
    ]
   },
   "properties": {
    "name": "706 COADS TANK ROAD DAYSDALE 2646",
    "locID": "ChIJlZQdJqcEIWsRAO3FY1zGJ1M",
    "tech": "SATELLITE",
    "upgrade": "UNKNOWN",
    "gnaf_pid": "GANSW718282669"
   }
  },
  {
   "type": "Feature",
   "geometry": {
    "type": "Point",
    "coordinates": [
     146.3646807,
     -35.67361759
    ]
   },
   "properties": {
    "name": "489 DAVEYS HILL ROAD DAYSDALE 2646",
    "locID": "EixEYXZleXMgSGlsbCBSZCwgRGF5c2RhbGUgTlNXIDI2NDYsIEF1c3RyYWxpYSIuKiwKFAoSCUPfH9BqBSFrEW65P25rqk9DEhQKEglbFUlYdwYhaxFgykOQtAkGBA",
    "tech": "SATELLITE",
    "upgrade": "UNKNOWN",
    "gnaf_pid": "GANSW718283143"
   }
  },
  {
   "type": "Feature",
   "geometry": {
    "type": "Point",
    "coordinates": [
     146.44881688,
     -35.66554672
    ]
   },
   "properties": {
    "name": "2873 DAYSDALE-WALBUNDRIE ROAD DAYSDALE 2646",
    "locID": "LOC000121791283",
    "tech": "SATELLITE",
    "upgrade": "NULL_NA",
    "gnaf_pid": "GANSW718283149"
   }
  },
  {
   "type": "Feature",
   "geometry": {
    "type": "Point",
    "coordinates": [
     146.30120378,
     -35.58980052
    ]
   },
   "properties": {
    "name": "1979 FEDERATION WAY DAYSDALE 2646",
    "locID": "EjExOTc5IEZlZGVyYXRpb24gV2F5LCBEYXlzZGFsZSBOU1cgMjY0NiwgQXVzdHJhbGlhIjESLwoUChIJpf3GYGMEIWsRQC-bdLQJBhMQuw8qFAoSCdltPNrQBiFrEduWhui5st-z",
    "tech": "SATELLITE",
    "upgrade": "UNKNOWN",
    "gnaf_pid": "GANSW718283446"
   }
  },
  {
   "type": "Feature",
   "geometry": {
    "type": "Point",
    "coordinates": [
     146.20412901,
     -35.6656027
    ]
   },
   "properties": {
    "name": "35 LOCK GATE LANE DAYSDALE 2646",
    "locID": "LOC000121801443",
    "tech": "SATELLITE",
    "upgrade": "NULL_NA",
    "gnaf_pid": "GANSW718285050"
   }
  },
  {
   "type": "Feature",
   "geometry": {
    "type": "Point",
    "coordinates": [
     146.201119,
     -35.66182316
    ]
   },
   "properties": {
    "name": "61 LOCK GATE LANE DAYSDALE 2646",
    "locID": "LOC000142544882",
    "tech": "SATELLITE",
    "upgrade": "NULL_NA",
    "gnaf_pid": "GANSW718285051"
   }
  },
  {
   "type": "Feature",
   "geometry": {
    "type": "Point",
    "coordinates": [
     146.30738576,
     -35.63578516
    ]
   },
   "properties": {
    "name": "19 MILLS ROAD DAYSDALE 2646",
    "locID": "ChIJzeOVr2UEIWsRzZIrCedQ00U",
    "tech": "SATELLITE",
    "upgrade": "UNKNOWN",
    "gnaf_pid": "GANSW718285603"
   }
  },
  {
   "type": "Feature",
   "geometry": {
    "type": "Point",
    "coordinates": [
     146.35568641,
     -35.63629258
    ]
   },
   "properties": {
    "name": "461 MILLS ROAD DAYSDALE 2646",
    "locID": "LOC000121813006",
    "tech": "SATELLITE",
    "upgrade": "NULL_NA",
    "gnaf_pid": "GANSW718285604"
   }
  },
  {
   "type": "Feature",
   "geometry": {
    "type": "Point",
    "coordinates": [
     146.24133829,
     -35.66170833
    ]
   },
   "properties": {
    "name": "655 MINNS ROAD DAYSDALE 2646",
    "locID": "LOC000121783079",
    "tech": "SATELLITE",
    "upgrade": "NULL_NA",
    "gnaf_pid": "GANSW718285626"
   }
  },
  {
   "type": "Feature",
   "geometry": {
    "type": "Point",
    "coordinates": [
     146.26195012,
     -35.66153485
    ]
   },
   "properties": {
    "name": "662 MINNS ROAD DAYSDALE 2646",
    "locID": "LOC000121783131",
    "tech": "SATELLITE",
    "upgrade": "NULL_NA",
    "gnaf_pid": "GANSW718285627"
   }
  },
  {
   "type": "Feature",
   "geometry": {
    "type": "Point",
    "coordinates": [
     146.24569398,
     -35.63300824
    ]
   },
   "properties": {
    "name": "600 NARROW PLAINS ROAD DAYSDALE 2646",
    "locID": "ChIJE8uzNeMCIWsRN-lMiJQ5VM4",
    "tech": "SATELLITE",
    "upgrade": "UNKNOWN",
    "gnaf_pid": "GANSW718285854"
   }
  },
  {
   "type": "Feature",
   "geometry": {
    "type": "Point",
    "coordinates": [
     146.30412326,
     -35.66925235
    ]
   },
   "properties": {
    "name": "142 RESERVE ROAD DAYSDALE 2646",
    "locID": "LOC000121804447",
    "tech": "WIRELESS",
    "upgrade": "NULL_NA",
    "gnaf_pid": "GANSW718287157"
   }
  },
  {
   "type": "Feature",
   "geometry": {
    "type": "Point",
    "coordinates": [
     146.36886061,
     -35.63415102
    ]
   },
   "properties": {
    "name": "306 TRIANGLE PARK ROAD DAYSDALE 2646",
    "locID": "ChIJ8XShhu8FIWsRFDxbu7KBaW0",
    "tech": "SATELLITE",
    "upgrade": "UNKNOWN",
    "gnaf_pid": "GANSW718288264"
   }
  },
  {
   "type": "Feature",
   "geometry": {
    "type": "Point",
    "coordinates": [
     146.35590398,
     -35.64522163
    ]
   },
   "properties": {
    "name": "99 TRIANGLE PARK ROAD DAYSDALE 2646",
    "locID": "LOC000121805080",
    "tech": "SATELLITE",
    "upgrade": "NULL_NA",
    "gnaf_pid": "GANSW718288265"
   }
  },
  {
   "type": "Feature",
   "geometry": {
    "type": "Point",
    "coordinates": [
     146.30317593,
     -35.64410756
    ]
   },
   "properties": {
    "name": "5 DENISON STREET DAYSDALE 2646",
    "locID": "LOC000143010198",
    "tech": "SATELLITE",
    "upgrade": "NULL_NA",
    "gnaf_pid": "GANSW718376611"
   }
  },
  {
   "type": "Feature",
   "geometry": {
    "type": "Point",
    "coordinates": [
     146.30120378,
     -35.58980052
    ]
   },
   "properties": {
    "name": "1939 FEDERATION WAY DAYSDALE 2646",
    "locID": "ChIJg9_YHbEGIWsRtDBC1y9pfWM",
    "tech": "SATELLITE",
    "upgrade": "UNKNOWN",
    "gnaf_pid": "GANSW718470634"
   }
  },
  {
   "type": "Feature",
   "geometry": {
    "type": "Point",
    "coordinates": [
     146.31869742,
     -35.69329144
    ]
   },
   "properties": {
    "name": "669 BLUE ROAD DAYSDALE 2646",
    "locID": "ChIJRQSzojYbIWsRKTWH_7tHFZM",
    "tech": "SATELLITE",
    "upgrade": "UNKNOWN",
    "gnaf_pid": "GANSW718526718"
   }
  },
  {
   "type": "Feature",
   "geometry": {
    "type": "Point",
    "coordinates": [
     146.40727977,
     -35.59093321
    ]
   },
   "properties": {
    "name": "1481 BYNEDALE ROAD DAYSDALE 2646",
    "locID": "LOC000148381180",
    "tech": "SATELLITE",
    "upgrade": "NULL_NA",
    "gnaf_pid": "GANSW718527427"
   }
  },
  {
   "type": "Feature",
   "geometry": {
    "type": "Point",
    "coordinates": [
     146.3819629,
     -35.57926123
    ]
   },
   "properties": {
    "name": "749 BYNEDALE ROAD DAYSDALE 2646",
    "locID": "LOC000148100559",
    "tech": "SATELLITE",
    "upgrade": "NULL_NA",
    "gnaf_pid": "GANSW718527428"
   }
  },
  {
   "type": "Feature",
   "geometry": {
    "type": "Point",
    "coordinates": [
     146.30665468,
     -35.56415921
    ]
   },
   "properties": {
    "name": "77 BYNEDALE ROAD DAYSDALE 2646",
    "locID": "LOC000150106627",
    "tech": "WIRELESS",
    "upgrade": "NULL_NA",
    "gnaf_pid": "GANSW718527429"
   }
  },
  {
   "type": "Feature",
   "geometry": {
    "type": "Point",
    "coordinates": [
     146.41622828,
     -35.62551114
    ]
   },
   "properties": {
    "name": "637 ELLIOTS ROAD DAYSDALE 2646",
    "locID": "LOC000148381743",
    "tech": "SATELLITE",
    "upgrade": "NULL_NA",
    "gnaf_pid": "GANSW718529290"
   }
  },
  {
   "type": "Feature",
   "geometry": {
    "type": "Point",
    "coordinates": [
     146.30376688,
     -35.64344955
    ]
   },
   "properties": {
    "name": "34 YOUNG STREET DAYSDALE 2646",
    "locID": "ChIJJV2s4IcEIWsRFzl39anJm_s",
    "tech": "SATELLITE",
    "upgrade": "UNKNOWN",
    "gnaf_pid": "GANSW718608570"
   }
  },
  {
   "type": "Feature",
   "geometry": {
    "type": "Point",
    "coordinates": [
     146.40118358,
     -35.62062053
    ]
   },
   "properties": {
    "name": "665 COREEN CREEK ROAD DAYSDALE 2646",
    "locID": "ChIJW1NsO7kIIWsRw3ipJxm9HCE",
    "tech": "SATELLITE",
    "upgrade": "UNKNOWN",
    "gnaf_pid": "GANSW718777083"
   }
  },
  {
   "type": "Feature",
   "geometry": {
    "type": "Point",
    "coordinates": [
     146.30233458,
     -35.64311867
    ]
   },
   "properties": {
    "name": "LOT 1 DENISON STREET DAYSDALE 2646",
    "locID": "ChIJAxj6ZH0EIWsRPP3o4BHYvCs",
    "tech": "SATELLITE",
    "upgrade": "UNKNOWN",
    "gnaf_pid": "GANSW718809847"
   }
  },
  {
   "type": "Feature",
   "geometry": {
    "type": "Point",
    "coordinates": [
     146.30233458,
     -35.64311867
    ]
   },
   "properties": {
    "name": "LOT 5 DENISON STREET DAYSDALE 2646",
    "locID": "LOC000188071851",
    "tech": "SATELLITE",
    "upgrade": "NULL_NA",
    "gnaf_pid": "GANSW718809848"
   }
  },
  {
   "type": "Feature",
   "geometry": {
    "type": "Point",
    "coordinates": [
     146.30233458,
     -35.64311867
    ]
   },
   "properties": {
    "name": "LOT 6 DENISON STREET DAYSDALE 2646",
    "locID": "EilEZW5pc29uIFN0LCBMb3dlc2RhbGUgTlNXIDI2NDYsIEF1c3RyYWxpYSIuKiwKFAoSCaPujVSvIiFrEUIAS3yIVlH5EhQKEgmJ5twrbxghaxEwzUOQtAkGBA",
    "tech": "SATELLITE",
    "upgrade": "UNKNOWN",
    "gnaf_pid": "GANSW718809849"
   }
  },
  {
   "type": "Feature",
   "geometry": {
    "type": "Point",
    "coordinates": [
     146.30531502,
     -35.64383422
    ]
   },
   "properties": {
    "name": "1819 FEDERATION WAY DAYSDALE 2646",
    "locID": "ChIJHX-GFogEIWsRn5I3NXBwtOg",
    "tech": "SATELLITE",
    "upgrade": "UNKNOWN",
    "gnaf_pid": "GANSW719026015"
   }
  },
  {
   "type": "Feature",
   "geometry": {
    "type": "Point",
    "coordinates": [
     146.24702507,
     -35.63661231
    ]
   },
   "properties": {
    "name": "LOT 247 NARROW PLAINS ROAD DAYSDALE 2646",
    "locID": "Ei5OYXJyb3cgUGxhaW5zIFJkLCBEYXlzZGFsZSBOU1cgMjY0NiwgQXVzdHJhbGlhIi4qLAoUChIJYSQNPMD8IGsRa-_4hC14eOISFAoSCVsVSVh3BiFrEWDKQ5C0CQYE",
    "tech": "SATELLITE",
    "upgrade": "UNKNOWN",
    "gnaf_pid": "GANSW719178196"
   }
  },
  {
   "type": "Feature",
   "geometry": {
    "type": "Point",
    "coordinates": [
     146.33871941,
     -35.62121609
    ]
   },
   "properties": {
    "name": "8 DAY STREET DAYSDALE 2646",
    "locID": "LOC000109604766",
    "tech": "SATELLITE",
    "upgrade": "NULL_NA",
    "gnaf_pid": "GANSW719714976"
   }
  },
  {
   "type": "Feature",
   "geometry": {
    "type": "Point",
    "coordinates": [
     146.33871941,
     -35.62121609
    ]
   },
   "properties": {
    "name": "4 DAY STREET DAYSDALE 2646",
    "locID": "ChIJsz6CPNMFIWsRF5S4LILSmko",
    "tech": "SATELLITE",
    "upgrade": "UNKNOWN",
    "gnaf_pid": "GANSW719833870"
   }
  },
  {
   "type": "Feature",
   "geometry": {
    "type": "Point",
    "coordinates": [
     146.30085993,
     -35.64301062
    ]
   },
   "properties": {
    "name": "LOT 2 FITZROY STREET DAYSDALE 2646",
    "locID": "EioyIEZpdHpyb3kgU3QsIERheXNkYWxlIE5TVyAyNjQ2LCBBdXN0cmFsaWEiMBIuChQKEgm9dWoGhwQhaxGBOJt0tAkGExACKhQKEgmZp7SKhgQhaxGLJ8FTn_WOCg",
    "tech": "SATELLITE",
    "upgrade": "UNKNOWN",
    "gnaf_pid": "GANSW719834824"
   }
  },
  {
   "type": "Feature",
   "geometry": {
    "type": "Point",
    "coordinates": [
     146.30085993,
     -35.64301062
    ]
   },
   "properties": {
    "name": "LOT 6 FITZROY STREET DAYSDALE 2646",
    "locID": "Eio2IEZpdHpyb3kgU3QsIERheXNkYWxlIE5TVyAyNjQ2LCBBdXN0cmFsaWEiMBIuChQKEgm9dWoGhwQhaxGBOJt0tAkGExAGKhQKEgmZp7SKhgQhaxGLJ8FTn_WOCg",
    "tech": "SATELLITE",
    "upgrade": "UNKNOWN",
    "gnaf_pid": "GANSW719838520"
   }
  },
  {
   "type": "Feature",
   "geometry": {
    "type": "Point",
    "coordinates": [
     146.30519561,
     -35.64081855
    ]
   },
   "properties": {
    "name": "1914 FEDERATION WAY DAYSDALE 2646",
    "locID": "ChIJVfEE3GIEIWsR1fDHXqNeN_A",
    "tech": "SATELLITE",
    "upgrade": "UNKNOWN",
    "gnaf_pid": "GANSW719872620"
   }
  },
  {
   "type": "Feature",
   "geometry": {
    "type": "Point",
    "coordinates": [
     146.3023406,
     -35.64572684
    ]
   },
   "properties": {
    "name": "3 DENISON STREET DAYSDALE 2646",
    "locID": "LOC000107570009",
    "tech": "SATELLITE",
    "upgrade": "NULL_NA",
    "gnaf_pid": "GANSW720018925"
   }
  },
  {
   "type": "Feature",
   "geometry": {
    "type": "Point",
    "coordinates": [
     146.30234569,
     -35.64481549
    ]
   },
   "properties": {
    "name": "LOT 1 ROBINSON STREET DAYSDALE 2646",
    "locID": "LOC000142558690",
    "tech": "SATELLITE",
    "upgrade": "NULL_NA",
    "gnaf_pid": "GANSW720096154"
   }
  },
  {
   "type": "Feature",
   "geometry": {
    "type": "Point",
    "coordinates": [
     146.30158707,
     -35.6428198
    ]
   },
   "properties": {
    "name": "9 NARROW PLAINS ROAD DAYSDALE 2646",
    "locID": "ChIJwXbenocEIWsRdcN1ZMULJRc",
    "tech": "SATELLITE",
    "upgrade": "UNKNOWN",
    "gnaf_pid": "GANSW720260345"
   }
  },
  {
   "type": "Feature",
   "geometry": {
    "type": "Point",
    "coordinates": [
     146.30727465,
     -35.63732983
    ]
   },
   "properties": {
    "name": "2-10 MILLS ROAD DAYSDALE 2646",
    "locID": "LOC000121813006",
    "tech": "SATELLITE",
    "upgrade": "NULL_NA",
    "gnaf_pid": "GANSW720322831"
   }
  },
  {
   "type": "Feature",
   "geometry": {
    "type": "Point",
    "coordinates": [
     146.30216675,
     -35.64153811
    ]
   },
   "properties": {
    "name": "1 DENISON STREET DAYSDALE 2646",
    "locID": "ChIJAxj6ZH0EIWsRPP3o4BHYvCs",
    "tech": "SATELLITE",
    "upgrade": "UNKNOWN",
    "gnaf_pid": "GANSW720537979"
   }
  },
  {
   "type": "Feature",
   "geometry": {
    "type": "Point",
    "coordinates": [
     146.299415,
     -35.61083372
    ]
   },
   "properties": {
    "name": "2256 FEDERATION WAY DAYSDALE 2646",
    "locID": "EjEyMjU2IEZlZGVyYXRpb24gV2F5LCBEYXlzZGFsZSBOU1cgMjY0NiwgQXVzdHJhbGlhIjESLwoUChIJMcdpHAUEIWsRoAamcrQJBhMQ0BEqFAoSCdltPNrQBiFrEduWhui5st-z",
    "tech": "SATELLITE",
    "upgrade": "UNKNOWN",
    "gnaf_pid": "GANSW720617305"
   }
  },
  {
   "type": "Feature",
   "geometry": {
    "type": "Point",
    "coordinates": [
     146.30161194,
     -35.64340645
    ]
   },
   "properties": {
    "name": "8 FITZROY STREET DAYSDALE 2646",
    "locID": "ChIJVayRpocEIWsRe0wtn7tGFbw",
    "tech": "SATELLITE",
    "upgrade": "UNKNOWN",
    "gnaf_pid": "GANSW720998265"
   }
  }
 ]
}