{
 "type": "FeatureCollection",
 "generated": "2024-06-01T00:01:43.384821",
 "suburb": "ELLERSTON",
 "features": [
  {
   "type": "Feature",
   "geometry": {
    "type": "Point",
    "coordinates": [
     151.29401423,
     -31.77760978
    ]
   },
   "properties": {
    "name": "1601 PAGES CREEK ROAD ELLERSTON 2337",
    "locID": "LOC000051992369",
    "tech": "SATELLITE",
    "upgrade": "NULL_NA",
    "gnaf_pid": "GANSW712015179"
   }
  },
  {
   "type": "Feature",
   "geometry": {
    "type": "Point",
    "coordinates": [
     151.29401423,
     -31.77760978
    ]
   },
   "properties": {
    "name": "2221 PAGES CREEK ROAD ELLERSTON 2337",
    "locID": "LOC000035920912",
    "tech": "SATELLITE",
    "upgrade": "NULL_NA",
    "gnaf_pid": "GANSW712015183"
   }
  },
  {
   "type": "Feature",
   "geometry": {
    "type": "Point",
    "coordinates": [
     151.32338662,
     -31.7260065
    ]
   },
   "properties": {
    "name": "890 BRANCH CREEK ROAD ELLERSTON 2337",
    "locID": "LOC000010652700",
    "tech": "SATELLITE",
    "upgrade": "NULL_NA",
    "gnaf_pid": "GANSW712032289"
   }
  },
  {
   "type": "Feature",
   "geometry": {
    "type": "Point",
    "coordinates": [
     151.35099493,
     -31.73853664
    ]
   },
   "properties": {
    "name": "488 BRANCH CREEK ROAD ELLERSTON 2337",
    "locID": "LOC000067417785",
    "tech": "SATELLITE",
    "upgrade": "NULL_NA",
    "gnaf_pid": "GANSW713139859"
   }
  },
  {
   "type": "Feature",
   "geometry": {
    "type": "Point",
    "coordinates": [
     151.34743502,
     -31.72993176
    ]
   },
   "properties": {
    "name": "660 BRANCH CREEK ROAD ELLERSTON 2337",
    "locID": "LOC000076902289",
    "tech": "SATELLITE",
    "upgrade": "NULL_NA",
    "gnaf_pid": "GANSW716519393"
   }
  },
  {
   "type": "Feature",
   "geometry": {
    "type": "Point",
    "coordinates": [
     151.33756799,
     -31.7231829
    ]
   },
   "properties": {
    "name": "770 BRANCH CREEK ROAD ELLERSTON 2337",
    "locID": "LOC100076947177",
    "tech": "SATELLITE",
    "upgrade": "NULL_NA",
    "gnaf_pid": "GANSW716549740"
   }
  },
  {
   "type": "Feature",
   "geometry": {
    "type": "Point",
    "coordinates": [
     151.34767762,
     -31.79575306
    ]
   },
   "properties": {
    "name": "LOT 2 HUNTER ROAD ELLERSTON 2337",
    "locID": "LOC000108169058",
    "tech": "SATELLITE",
    "upgrade": "NULL_NA",
    "gnaf_pid": "GANSW718053782"
   }
  },
  {
   "type": "Feature",
   "geometry": {
    "type": "Point",
    "coordinates": [
     151.2463022,
     -31.81520124
    ]
   },
   "properties": {
    "name": "6805 HUNTER ROAD ELLERSTON 2337",
    "locID": "LOC100080075414",
    "tech": "SATELLITE",
    "upgrade": "NULL_NA",
    "gnaf_pid": "GANSW719155813"
   }
  },
  {
   "type": "Feature",
   "geometry": {
    "type": "Point",
    "coordinates": [
     151.28037147,
     -31.82866941
    ]
   },
   "properties": {
    "name": "6781 HUNTER ROAD ELLERSTON 2337",
    "locID": "LOC000142495981",
    "tech": "SATELLITE",
    "upgrade": "NULL_NA",
    "gnaf_pid": "GANSW719165056"
   }
  },
  {
   "type": "Feature",
   "geometry": {
    "type": "Point",
    "coordinates": [
     151.34767762,
     -31.79575306
    ]
   },
   "properties": {
    "name": "6431 HUNTER ROAD ELLERSTON 2337",
    "locID": "LOC000161528975",
    "tech": "SATELLITE",
    "upgrade": "NULL_NA",
    "gnaf_pid": "GANSW719180264"
   }
  },
  {
   "type": "Feature",
   "geometry": {
    "type": "Point",
    "coordinates": [
     151.26331185,
     -31.79059104
    ]
   },
   "properties": {
    "name": "305 PAGES CREEK ROAD ELLERSTON 2337",
    "locID": "LOC000162483095",
    "tech": "SATELLITE",
    "upgrade": "NULL_NA",
    "gnaf_pid": "GANSW720155435"
   }
  },
  {
   "type": "Feature",
   "geometry": {
    "type": "Point",
    "coordinates": [
     151.26331185,
     -31.79059104
    ]
   },
   "properties": {
    "name": "81 PUDDLEDOCK ROAD ELLERSTON 2337",
    "locID": "LOC100078060149",
    "tech": "SATELLITE",
    "upgrade": "NULL_NA",
    "gnaf_pid": "GANSW720162228"
   }
  },
  {
   "type": "Feature",
   "geometry": {
    "type": "Point",
    "coordinates": [
     151.31983772,
     -31.85145551
    ]
   },
   "properties": {
    "name": "348 TOMALLA ROAD ELLERSTON 2337",
    "locID": "LOC100078060756",
    "tech": "SATELLITE",
    "upgrade": "NULL_NA",
    "gnaf_pid": "GANSW720258495"
   }
  },
  {
   "type": "Feature",
   "geometry": {
    "type": "Point",
    "coordinates": [
     151.36786665,
     -31.77652209
    ]
   },
   "properties": {
    "name": "7731 HUNTER ROAD ELLERSTON 2337",
    "locID": "LOC000142535574",
    "tech": "SATELLITE",
    "upgrade": "NULL_NA",
    "gnaf_pid": "GANSW720531804"
   }
  },
  {
   "type": "Feature",
   "geometry": {
    "type": "Point",
    "coordinates": [
     151.3043591,
     -31.81773749
    ]
   },
   "properties": {
    "name": "48 ELLERSTON ROAD ELLERSTON 2337",
    "locID": "LOC000067417785",
    "tech": "SATELLITE",
    "upgrade": "NULL_NA",
    "gnaf_pid": "GANSW720682656"
   }
  }
 ]
}