{
 "type": "FeatureCollection",
 "generated": "2024-09-10T17:56:20.030018",
 "suburb": "GUNDERBOOKA",
 "features": [
  {
   "type": "Feature",
   "geometry": {
    "type": "Point",
    "coordinates": [
     145.78825341,
     -30.51849524
    ]
   },
   "properties": {
    "name": "2248 BEN LOMOND ROAD GUNDERBOOKA 2840",
    "locID": "LOC000192246753",
    "tech": "NULL",
    "upgrade": "NULL_NA",
    "gnaf_pid": "GANSW717548791",
    "tech_change_status": "Not Planned"
   }
  },
  {
   "type": "Feature",
   "geometry": {
    "type": "Point",
    "coordinates": [
     145.78942446,
     -30.51875832
    ]
   },
   "properties": {
    "name": "2958 BEN LOMOND ROAD GUNDERBOOKA 2840",
    "locID": "LOC000080521864",
    "tech": "NULL",
    "upgrade": "NULL_NA",
    "gnaf_pid": "GANSW717548792",
    "tech_change_status": "Not Planned"
   }
  },
  {
   "type": "Feature",
   "geometry": {
    "type": "Point",
    "coordinates": [
     145.80530212,
     -30.55474543
    ]
   },
   "properties": {
    "name": "3414 BEN LOMOND ROAD GUNDERBOOKA 2840",
    "locID": "LOC000053322903",
    "tech": "NULL",
    "upgrade": "NULL_NA",
    "gnaf_pid": "GANSW717548793",
    "tech_change_status": "Not Planned"
   }
  },
  {
   "type": "Feature",
   "geometry": {
    "type": "Point",
    "coordinates": [
     145.5963979,
     -30.55672158
    ]
   },
   "properties": {
    "name": "893 BEN LOMOND ROAD GUNDERBOOKA 2840",
    "locID": "LOC000027308737",
    "tech": "NULL",
    "upgrade": "NULL_NA",
    "gnaf_pid": "GANSW717548795",
    "tech_change_status": "Not Planned"
   }
  },
  {
   "type": "Feature",
   "geometry": {
    "type": "Point",
    "coordinates": [
     145.49947301,
     -30.40663101
    ]
   },
   "properties": {
    "name": "5372 BOURKE-WILCANNIA ROAD GUNDERBOOKA 2840",
    "locID": "LOC000031682308",
    "tech": "NULL",
    "upgrade": "NULL_NA",
    "gnaf_pid": "GANSW717549299",
    "tech_change_status": "Not Planned"
   }
  },
  {
   "type": "Feature",
   "geometry": {
    "type": "Point",
    "coordinates": [
     145.42068382,
     -30.41563369
    ]
   },
   "properties": {
    "name": "6078 BOURKE-WILCANNIA ROAD GUNDERBOOKA 2840",
    "locID": "LOC100078046414",
    "tech": "NULL",
    "upgrade": "NULL_NA",
    "gnaf_pid": "GANSW717549300",
    "tech_change_status": "Not Planned"
   }
  },
  {
   "type": "Feature",
   "geometry": {
    "type": "Point",
    "coordinates": [
     145.52853716,
     -30.77937018
    ]
   },
   "properties": {
    "name": "872 DAVIDSON ROAD GUNDERBOOKA 2840",
    "locID": "LOC000103012999",
    "tech": "NULL",
    "upgrade": "NULL_NA",
    "gnaf_pid": "GANSW717552765",
    "tech_change_status": "Not Planned"
   }
  },
  {
   "type": "Feature",
   "geometry": {
    "type": "Point",
    "coordinates": [
     145.5720169,
     -30.84812719
    ]
   },
   "properties": {
    "name": "873 DAVIDSON ROAD GUNDERBOOKA 2840",
    "locID": "LOC000101223947",
    "tech": "SATELLITE",
    "upgrade": "NULL_NA",
    "gnaf_pid": "GANSW717552766",
    "tech_change_status": "Not Planned"
   }
  },
  {
   "type": "Feature",
   "geometry": {
    "type": "Point",
    "coordinates": [
     145.7283581,
     -30.71583392
    ]
   },
   "properties": {
    "name": "1197 WILGAREENA ROAD GUNDERBOOKA 2840",
    "locID": "LOC100071940238",
    "tech": "SATELLITE",
    "upgrade": "NULL_NA",
    "gnaf_pid": "GANSW720007183",
    "tech_change_status": "Not Planned"
   }
  },
  {
   "type": "Feature",
   "geometry": {
    "type": "Point",
    "coordinates": [
     145.94517299,
     -30.65692944
    ]
   },
   "properties": {
    "name": "6479 KIDMAN WAY GUNDERBOOKA 2840",
    "locID": "LOC000186691821",
    "tech": "SATELLITE",
    "upgrade": "NULL_NA",
    "gnaf_pid": "GANSW720907673",
    "tech_change_status": "Not Planned"
   }
  }
 ]
}