{
 "type": "FeatureCollection",
 "generated": "2023-12-04T20:58:12.318980",
 "suburb": "JINCUMBILLY",
 "features": [
  {
   "type": "Feature",
   "geometry": {
    "type": "Point",
    "coordinates": [
     149.21033869,
     -36.68911993
    ]
   },
   "properties": {
    "name": "201 BELLCHAMBERS ROAD JINCUMBILLY 2631",
    "locID": "LOC100072024858",
    "tech": "SATELLITE",
    "upgrade": "NULL_NA",
    "gnaf_pid": "GANSW718838824"
   }
  },
  {
   "type": "Feature",
   "geometry": {
    "type": "Point",
    "coordinates": [
     149.21450653,
     -36.72687446
    ]
   },
   "properties": {
    "name": "522 THE SNOWY RIVER WAY JINCUMBILLY 2631",
    "locID": "Ejg1MjIgVGhlIFNub3d5IFJpdmVyIFdheSwgSmluY3VtYmlsbHkgTlNXIDI2MzEsIEF1c3RyYWxpYSIxEi8KFAoSCYGyxi5AZzxrEZwhUSv5VPWzEIoEKhQKEglxp1olkPI8axFdu0CU0ZzvNQ",
    "tech": "SATELLITE",
    "upgrade": "UNKNOWN",
    "gnaf_pid": "GANSW719871924"
   }
  },
  {
   "type": "Feature",
   "geometry": {
    "type": "Point",
    "coordinates": [
     149.21903736,
     -36.73091671
    ]
   },
   "properties": {
    "name": "452 THE SNOWY RIVER WAY JINCUMBILLY 2631",
    "locID": "ChIJdSwAgmpnPGsRZ37iyBkR28k",
    "tech": "SATELLITE",
    "upgrade": "UNKNOWN",
    "gnaf_pid": "GANSW719875775"
   }
  },
  {
   "type": "Feature",
   "geometry": {
    "type": "Point",
    "coordinates": [
     149.2755912,
     -36.69729256
    ]
   },
   "properties": {
    "name": "2715 MONARO HIGHWAY JINCUMBILLY 2631",
    "locID": "LOC100078141810",
    "tech": "SATELLITE",
    "upgrade": "NULL_NA",
    "gnaf_pid": "GANSW719884794"
   }
  },
  {
   "type": "Feature",
   "geometry": {
    "type": "Point",
    "coordinates": [
     149.20394706,
     -36.71756368
    ]
   },
   "properties": {
    "name": "652 THE SNOWY RIVER WAY JINCUMBILLY 2631",
    "locID": "ChIJIV59t1FnPGsRNtDAgH3RRRA",
    "tech": "SATELLITE",
    "upgrade": "UNKNOWN",
    "gnaf_pid": "GANSW719892334"
   }
  },
  {
   "type": "Feature",
   "geometry": {
    "type": "Point",
    "coordinates": [
     149.20980399,
     -36.73062034
    ]
   },
   "properties": {
    "name": "66 KOORACCA ROAD JINCUMBILLY 2631",
    "locID": "LOC100072025301",
    "tech": "SATELLITE",
    "upgrade": "NULL_NA",
    "gnaf_pid": "GANSW719893361"
   }
  },
  {
   "type": "Feature",
   "geometry": {
    "type": "Point",
    "coordinates": [
     149.28528364,
     -36.67850297
    ]
   },
   "properties": {
    "name": "2764 MONARO HIGHWAY JINCUMBILLY 2631",
    "locID": "ChIJp7Kzf8tcPGsRn9W_mEl4Z14",
    "tech": "SATELLITE",
    "upgrade": "UNKNOWN",
    "gnaf_pid": "GANSW720272517"
   }
  },
  {
   "type": "Feature",
   "geometry": {
    "type": "Point",
    "coordinates": [
     149.19639938,
     -36.70391145
    ]
   },
   "properties": {
    "name": "95 FISHY LAKE ROAD JINCUMBILLY 2631",
    "locID": "ChIJrzR1Jv5dPGsRAeqVoAL5uDA",
    "tech": "SATELLITE",
    "upgrade": "UNKNOWN",
    "gnaf_pid": "GANSW720273111"
   }
  },
  {
   "type": "Feature",
   "geometry": {
    "type": "Point",
    "coordinates": [
     149.19639938,
     -36.70391145
    ]
   },
   "properties": {
    "name": "91 FISHY LAKE ROAD JINCUMBILLY 2631",
    "locID": "ChIJrzR1Jv5dPGsRaYdXrlW50r8",
    "tech": "SATELLITE",
    "upgrade": "UNKNOWN",
    "gnaf_pid": "GANSW720273112"
   }
  },
  {
   "type": "Feature",
   "geometry": {
    "type": "Point",
    "coordinates": [
     149.20448172,
     -36.71870025
    ]
   },
   "properties": {
    "name": "642 THE SNOWY RIVER WAY JINCUMBILLY 2631",
    "locID": "ChIJaReo01FnPGsRFfld_PU5QAA",
    "tech": "SATELLITE",
    "upgrade": "UNKNOWN",
    "gnaf_pid": "GANSW720400249"
   }
  }
 ]
}