{
 "type": "FeatureCollection",
 "generated": "2024-01-23T14:11:33.477631",
 "suburb": "MELBERGEN",
 "features": [
  {
   "type": "Feature",
   "geometry": {
    "type": "Point",
    "coordinates": [
     145.94971701,
     -33.78281929
    ]
   },
   "properties": {
    "name": "448 HOLDENS ROAD MELBERGEN 2669",
    "locID": "ChIJwTYxiERpHmsRmO1SmV9Vimg",
    "tech": "SATELLITE",
    "upgrade": "UNKNOWN",
    "gnaf_pid": "GANSW717703993"
   }
  },
  {
   "type": "Feature",
   "geometry": {
    "type": "Point",
    "coordinates": [
     145.96871554,
     -33.77704601
    ]
   },
   "properties": {
    "name": "658 HOLDENS ROAD MELBERGEN 2669",
    "locID": "LOC000078892919",
    "tech": "SATELLITE",
    "upgrade": "NULL_NA",
    "gnaf_pid": "GANSW717703994"
   }
  },
  {
   "type": "Feature",
   "geometry": {
    "type": "Point",
    "coordinates": [
     145.99683239,
     -33.75201299
    ]
   },
   "properties": {
    "name": "1717 MERUNGI ROAD MELBERGEN 2669",
    "locID": "LOC000115093071",
    "tech": "SATELLITE",
    "upgrade": "NULL_NA",
    "gnaf_pid": "GANSW717709886"
   }
  },
  {
   "type": "Feature",
   "geometry": {
    "type": "Point",
    "coordinates": [
     145.95465555,
     -33.80748922
    ]
   },
   "properties": {
    "name": "1249 WELLS ROAD MELBERGEN 2669",
    "locID": "LOC000114792077",
    "tech": "SATELLITE",
    "upgrade": "NULL_NA",
    "gnaf_pid": "GANSW717722751"
   }
  },
  {
   "type": "Feature",
   "geometry": {
    "type": "Point",
    "coordinates": [
     145.96952652,
     -33.77918308
    ]
   },
   "properties": {
    "name": "1457 WELLS ROAD MELBERGEN 2669",
    "locID": "ChIJ25AV9y1pHmsRDptwa1ZKZOo",
    "tech": "SATELLITE",
    "upgrade": "UNKNOWN",
    "gnaf_pid": "GANSW717722752"
   }
  },
  {
   "type": "Feature",
   "geometry": {
    "type": "Point",
    "coordinates": [
     146.05988023,
     -33.71222083
    ]
   },
   "properties": {
    "name": "2693 THE SPRINGS ROAD MELBERGEN 2669",
    "locID": "LOC000114741689",
    "tech": "SATELLITE",
    "upgrade": "NULL_NA",
    "gnaf_pid": "GANSW718174060"
   }
  },
  {
   "type": "Feature",
   "geometry": {
    "type": "Point",
    "coordinates": [
     146.04514896,
     -33.70172532
    ]
   },
   "properties": {
    "name": "2848 THE SPRINGS ROAD MELBERGEN 2669",
    "locID": "LOC000115104085",
    "tech": "SATELLITE",
    "upgrade": "NULL_NA",
    "gnaf_pid": "GANSW718174061"
   }
  },
  {
   "type": "Feature",
   "geometry": {
    "type": "Point",
    "coordinates": [
     146.03602313,
     -33.7082194
    ]
   },
   "properties": {
    "name": "2937 THE SPRINGS ROAD MELBERGEN 2669",
    "locID": "ChIJh_cz2a96HmsRcTR6dzRZrnY",
    "tech": "SATELLITE",
    "upgrade": "UNKNOWN",
    "gnaf_pid": "GANSW718174062"
   }
  },
  {
   "type": "Feature",
   "geometry": {
    "type": "Point",
    "coordinates": [
     145.96210176,
     -33.6901318
    ]
   },
   "properties": {
    "name": "3301 THE SPRINGS ROAD MELBERGEN 2669",
    "locID": "LOC000121727107",
    "tech": "SATELLITE",
    "upgrade": "NULL_NA",
    "gnaf_pid": "GANSW718363877"
   }
  },
  {
   "type": "Feature",
   "geometry": {
    "type": "Point",
    "coordinates": [
     146.06514877,
     -33.77758762
    ]
   },
   "properties": {
    "name": "865 VEARINGS LANE MELBERGEN 2669",
    "locID": "ChIJzx740rNlHmsRfKIMABjp6tU",
    "tech": "SATELLITE",
    "upgrade": "UNKNOWN",
    "gnaf_pid": "GANSW718364332"
   }
  },
  {
   "type": "Feature",
   "geometry": {
    "type": "Point",
    "coordinates": [
     146.06515233,
     -33.77758405
    ]
   },
   "properties": {
    "name": "954 WILTSHIRE ROAD MELBERGEN 2669",
    "locID": "ChIJidU5y7NlHmsRsi4OF_cgOJY",
    "tech": "SATELLITE",
    "upgrade": "UNKNOWN",
    "gnaf_pid": "GANSW718365047"
   }
  }
 ]
}