{
 "type": "FeatureCollection",
 "generated": "2024-08-20T07:11:36.815110",
 "suburb": "OALLEN",
 "features": [
  {
   "type": "Feature",
   "geometry": {
    "type": "Point",
    "coordinates": [
     149.93325658,
     -35.06453282
    ]
   },
   "properties": {
    "name": "576 JERRALONG ROAD OALLEN 2622",
    "locID": "LOC000026529169",
    "tech": "SATELLITE",
    "upgrade": "NULL_NA",
    "gnaf_pid": "GANSW705573694",
    "tech_change_status": "Not Planned"
   }
  },
  {
   "type": "Feature",
   "geometry": {
    "type": "Point",
    "coordinates": [
     149.93061755,
     -35.15602237
    ]
   },
   "properties": {
    "name": "591 MOGO ROAD OALLEN 2622",
    "locID": "LOC000057182305",
    "tech": "SATELLITE",
    "upgrade": "NULL_NA",
    "gnaf_pid": "GANSW705621858",
    "tech_change_status": "Not Planned"
   }
  },
  {
   "type": "Feature",
   "geometry": {
    "type": "Point",
    "coordinates": [
     149.93310552,
     -35.19439906
    ]
   },
   "properties": {
    "name": "735 MOGO ROAD OALLEN 2622",
    "locID": "LOC000063567275",
    "tech": "SATELLITE",
    "upgrade": "NULL_NA",
    "gnaf_pid": "GANSW705621860",
    "tech_change_status": "Not Planned"
   }
  },
  {
   "type": "Feature",
   "geometry": {
    "type": "Point",
    "coordinates": [
     149.9647411,
     -35.13433178
    ]
   },
   "properties": {
    "name": "1596 OALLEN FORD ROAD OALLEN 2622",
    "locID": "LOC000104224325",
    "tech": "SATELLITE",
    "upgrade": "NULL_NA",
    "gnaf_pid": "GANSW705621862",
    "tech_change_status": "Not Planned"
   }
  },
  {
   "type": "Feature",
   "geometry": {
    "type": "Point",
    "coordinates": [
     150.01365197,
     -35.12898596
    ]
   },
   "properties": {
    "name": "1760 OALLEN FORD ROAD OALLEN 2622",
    "locID": "LOC000091842509",
    "tech": "SATELLITE",
    "upgrade": "NULL_NA",
    "gnaf_pid": "GANSW705621867",
    "tech_change_status": "Not Planned"
   }
  },
  {
   "type": "Feature",
   "geometry": {
    "type": "Point",
    "coordinates": [
     149.99093666,
     -35.12185233
    ]
   },
   "properties": {
    "name": "1762 OALLEN FORD ROAD OALLEN 2622",
    "locID": "LOC000053377163",
    "tech": "SATELLITE",
    "upgrade": "NULL_NA",
    "gnaf_pid": "GANSW705621868",
    "tech_change_status": "Not Planned"
   }
  },
  {
   "type": "Feature",
   "geometry": {
    "type": "Point",
    "coordinates": [
     149.98285022,
     -35.10981645
    ]
   },
   "properties": {
    "name": "1764 OALLEN FORD ROAD OALLEN 2622",
    "locID": "LOC000090600750",
    "tech": "SATELLITE",
    "upgrade": "NULL_NA",
    "gnaf_pid": "GANSW705621869",
    "tech_change_status": "Not Planned"
   }
  },
  {
   "type": "Feature",
   "geometry": {
    "type": "Point",
    "coordinates": [
     149.94437933,
     -35.10468478
    ]
   },
   "properties": {
    "name": "1766 OALLEN FORD ROAD OALLEN 2622",
    "locID": "LOC000003955925",
    "tech": "SATELLITE",
    "upgrade": "NULL_NA",
    "gnaf_pid": "GANSW705621870",
    "tech_change_status": "Not Planned"
   }
  },
  {
   "type": "Feature",
   "geometry": {
    "type": "Point",
    "coordinates": [
     149.86932567,
     -35.21932091
    ]
   },
   "properties": {
    "name": "570 STEWARTS CROSSING ROAD OALLEN 2622",
    "locID": "LOC100078124400",
    "tech": "SATELLITE",
    "upgrade": "NULL_NA",
    "gnaf_pid": "GANSW705632179",
    "tech_change_status": "Not Planned"
   }
  },
  {
   "type": "Feature",
   "geometry": {
    "type": "Point",
    "coordinates": [
     150.02044137,
     -35.16176965
    ]
   },
   "properties": {
    "name": "LOT 21 OALLEN ROAD OALLEN 2622",
    "locID": "LOC000091982353",
    "tech": "SATELLITE",
    "upgrade": "NULL_NA",
    "gnaf_pid": "GANSW709905968",
    "tech_change_status": "Not Planned"
   }
  },
  {
   "type": "Feature",
   "geometry": {
    "type": "Point",
    "coordinates": [
     150.051916,
     -35.14292715
    ]
   },
   "properties": {
    "name": "122 OALLEN ROAD OALLEN 2622",
    "locID": "LOC000012176386",
    "tech": "SATELLITE",
    "upgrade": "NULL_NA",
    "gnaf_pid": "GANSW716759496",
    "tech_change_status": "Not Planned"
   }
  },
  {
   "type": "Feature",
   "geometry": {
    "type": "Point",
    "coordinates": [
     149.97504429,
     -35.17768365
    ]
   },
   "properties": {
    "name": "999 OALLEN ROAD OALLEN 2622",
    "locID": "LOC000078952241",
    "tech": "SATELLITE",
    "upgrade": "NULL_NA",
    "gnaf_pid": "GANSW717380025",
    "tech_change_status": "Not Planned"
   }
  },
  {
   "type": "Feature",
   "geometry": {
    "type": "Point",
    "coordinates": [
     150.05465167,
     -35.18725981
    ]
   },
   "properties": {
    "name": "70 FERNBROOK DRIVE OALLEN 2622",
    "locID": "LOC000068549666",
    "tech": "SATELLITE",
    "upgrade": "NULL_NA",
    "gnaf_pid": "GANSW717657259",
    "tech_change_status": "Not Planned"
   }
  },
  {
   "type": "Feature",
   "geometry": {
    "type": "Point",
    "coordinates": [
     150.04100509,
     -35.17949563
    ]
   },
   "properties": {
    "name": "LOT 5 CORANG POST OFFICE ROAD OALLEN 2622",
    "locID": "LOC000095623525",
    "tech": "SATELLITE",
    "upgrade": "NULL_NA",
    "gnaf_pid": "GANSW718470232",
    "tech_change_status": "Not Planned"
   }
  },
  {
   "type": "Feature",
   "geometry": {
    "type": "Point",
    "coordinates": [
     149.9491458,
     -35.15936007
    ]
   },
   "properties": {
    "name": "1281 OALLEN ROAD OALLEN 2622",
    "locID": "LOC100072010735",
    "tech": "SATELLITE",
    "upgrade": "NULL_NA",
    "gnaf_pid": "GANSW718955952",
    "tech_change_status": "Not Planned"
   }
  },
  {
   "type": "Feature",
   "geometry": {
    "type": "Point",
    "coordinates": [
     150.02618878,
     -35.18223765
    ]
   },
   "properties": {
    "name": "437 CORANG POST OFFICE ROAD OALLEN 2622",
    "locID": "LOC000009156869",
    "tech": "SATELLITE",
    "upgrade": "NULL_NA",
    "gnaf_pid": "GANSW719029844",
    "tech_change_status": "Not Planned"
   }
  },
  {
   "type": "Feature",
   "geometry": {
    "type": "Point",
    "coordinates": [
     150.04065694,
     -35.17341385
    ]
   },
   "properties": {
    "name": "232 CORANG POST OFFICE ROAD OALLEN 2622",
    "locID": "LOC000009156869",
    "tech": "SATELLITE",
    "upgrade": "NULL_NA",
    "gnaf_pid": "GANSW719030422",
    "tech_change_status": "Not Planned"
   }
  },
  {
   "type": "Feature",
   "geometry": {
    "type": "Point",
    "coordinates": [
     150.04508361,
     -35.17440927
    ]
   },
   "properties": {
    "name": "194 CORANG POST OFFICE ROAD OALLEN 2622",
    "locID": "LOC000009156869",
    "tech": "SATELLITE",
    "upgrade": "NULL_NA",
    "gnaf_pid": "GANSW719033872",
    "tech_change_status": "Not Planned"
   }
  },
  {
   "type": "Feature",
   "geometry": {
    "type": "Point",
    "coordinates": [
     150.03468316,
     -35.14342572
    ]
   },
   "properties": {
    "name": "2 OALLEN ROAD OALLEN 2622",
    "locID": "LOC000035437746",
    "tech": "SATELLITE",
    "upgrade": "NULL_NA",
    "gnaf_pid": "GANSW720907674",
    "tech_change_status": "Not Planned"
   }
  },
  {
   "type": "Feature",
   "geometry": {
    "type": "Point",
    "coordinates": [
     149.94431643,
     -35.10680049
    ]
   },
   "properties": {
    "name": "LOT 12 TIMBERLIGHT ROAD OALLEN 2622",
    "locID": "LOC000104224325",
    "tech": "SATELLITE",
    "upgrade": "NULL_NA",
    "gnaf_pid": "GANSW721332445",
    "tech_change_status": "Not Planned"
   }
  }
 ]
}