{
 "type": "FeatureCollection",
 "generated": "2024-01-27T19:22:46.387435",
 "suburb": "PADDYS FLAT",
 "features": [
  {
   "type": "Feature",
   "geometry": {
    "type": "Point",
    "coordinates": [
     152.41501257,
     -28.68756933
    ]
   },
   "properties": {
    "name": "2861 PADDYS FLAT ROAD PADDYS FLAT 2469",
    "locID": "LOC000142294671",
    "tech": "SATELLITE",
    "upgrade": "NULL_NA",
    "gnaf_pid": "GANSW717086375"
   }
  },
  {
   "type": "Feature",
   "geometry": {
    "type": "Point",
    "coordinates": [
     152.41501257,
     -28.68756933
    ]
   },
   "properties": {
    "name": "3413 PADDYS FLAT ROAD PADDYS FLAT 2469",
    "locID": "LOC000142499374",
    "tech": "SATELLITE",
    "upgrade": "NULL_NA",
    "gnaf_pid": "GANSW717086376"
   }
  },
  {
   "type": "Feature",
   "geometry": {
    "type": "Point",
    "coordinates": [
     152.41501257,
     -28.68756933
    ]
   },
   "properties": {
    "name": "3154 PADDYS FLAT ROAD PADDYS FLAT 2469",
    "locID": "ChIJKxf4UlvemWsRvZPPaMn5_4c",
    "tech": "SATELLITE",
    "upgrade": "UNKNOWN",
    "gnaf_pid": "GANSW717107290"
   }
  },
  {
   "type": "Feature",
   "geometry": {
    "type": "Point",
    "coordinates": [
     152.40106776,
     -28.67695506
    ]
   },
   "properties": {
    "name": "3677 PADDYS FLAT ROAD PADDYS FLAT 2469",
    "locID": "LOC000058856032",
    "tech": "SATELLITE",
    "upgrade": "NULL_NA",
    "gnaf_pid": "GANSW717107291"
   }
  },
  {
   "type": "Feature",
   "geometry": {
    "type": "Point",
    "coordinates": [
     152.41501257,
     -28.68756933
    ]
   },
   "properties": {
    "name": "3692 PADDYS FLAT ROAD PADDYS FLAT 2469",
    "locID": "ChIJKxf4UlvemWsRuBbRj75vW88",
    "tech": "SATELLITE",
    "upgrade": "UNKNOWN",
    "gnaf_pid": "GANSW717107292"
   }
  },
  {
   "type": "Feature",
   "geometry": {
    "type": "Point",
    "coordinates": [
     152.41501257,
     -28.68756933
    ]
   },
   "properties": {
    "name": "HOUSE 2, 3413 PADDYS FLAT ROAD PADDYS FLAT 2469",
    "locID": "LOC000142499374",
    "tech": "SATELLITE",
    "upgrade": "NULL_NA",
    "gnaf_pid": "GANSW718278748"
   }
  },
  {
   "type": "Feature",
   "geometry": {
    "type": "Point",
    "coordinates": [
     152.45373701,
     -28.70228625
    ]
   },
   "properties": {
    "name": "3684 PADDYS FLAT ROAD PADDYS FLAT 2469",
    "locID": "LOC100078035623",
    "tech": "SATELLITE",
    "upgrade": "NULL_NA",
    "gnaf_pid": "GANSW718419650"
   }
  },
  {
   "type": "Feature",
   "geometry": {
    "type": "Point",
    "coordinates": [
     149.30880593,
     -37.00772433
    ]
   },
   "properties": {
    "name": "711 TAYFIELD ROAD PADDYS FLAT 2632",
    "locID": "ChIJcWxJg3R3PGsReMe3bxCMlfU",
    "tech": "SATELLITE",
    "upgrade": "UNKNOWN",
    "gnaf_pid": "GANSW718702637"
   }
  },
  {
   "type": "Feature",
   "geometry": {
    "type": "Point",
    "coordinates": [
     149.2550278,
     -37.02943822
    ]
   },
   "properties": {
    "name": "6945 MONARO HIGHWAY PADDYS FLAT 2632",
    "locID": "LOC100078146226",
    "tech": "SATELLITE",
    "upgrade": "NULL_NA",
    "gnaf_pid": "GANSW719465209"
   }
  },
  {
   "type": "Feature",
   "geometry": {
    "type": "Point",
    "coordinates": [
     149.26241631,
     -37.01324413
    ]
   },
   "properties": {
    "name": "7148 MONARO HIGHWAY PADDYS FLAT 2632",
    "locID": "LOC100078146005",
    "tech": "SATELLITE",
    "upgrade": "NULL_NA",
    "gnaf_pid": "GANSW719879052"
   }
  },
  {
   "type": "Feature",
   "geometry": {
    "type": "Point",
    "coordinates": [
     149.26402664,
     -37.03896761
    ]
   },
   "properties": {
    "name": "6847 MONARO HIGHWAY PADDYS FLAT 2632",
    "locID": "LOC100078146363",
    "tech": "SATELLITE",
    "upgrade": "NULL_NA",
    "gnaf_pid": "GANSW719885421"
   }
  },
  {
   "type": "Feature",
   "geometry": {
    "type": "Point",
    "coordinates": [
     149.29488906,
     -37.08411145
    ]
   },
   "properties": {
    "name": "41 GULF ROAD PADDYS FLAT 2632",
    "locID": "LOC000153974135",
    "tech": "SATELLITE",
    "upgrade": "NULL_NA",
    "gnaf_pid": "GANSW719889281"
   }
  },
  {
   "type": "Feature",
   "geometry": {
    "type": "Point",
    "coordinates": [
     149.30328848,
     -37.08873528
    ]
   },
   "properties": {
    "name": "6219 MONARO HIGHWAY PADDYS FLAT 2632",
    "locID": "LOC100072030261",
    "tech": "SATELLITE",
    "upgrade": "NULL_NA",
    "gnaf_pid": "GANSW719894375"
   }
  },
  {
   "type": "Feature",
   "geometry": {
    "type": "Point",
    "coordinates": [
     149.31100284,
     -37.0653488
    ]
   },
   "properties": {
    "name": "48 SOUTHERN ACCESS FOREST ROAD PADDYS FLAT 2632",
    "locID": "ChIJRY5W9T2IO2sRYAW3sYP-js8",
    "tech": "SATELLITE",
    "upgrade": "UNKNOWN",
    "gnaf_pid": "GANSW720538085"
   }
  }
 ]
}