{
 "type": "FeatureCollection",
 "generated": "2024-09-08T06:59:23.033075",
 "suburb": "PARINGI",
 "features": [
  {
   "type": "Feature",
   "geometry": {
    "type": "Point",
    "coordinates": [
     142.35079011,
     -34.32266591
    ]
   },
   "properties": {
    "name": "116 PARINGI ROAD PARINGI 2738",
    "locID": "LOC000122057372",
    "tech": "SATELLITE",
    "upgrade": "NULL_NA",
    "gnaf_pid": "GANSW718159495",
    "tech_change_status": "Not Planned"
   }
  },
  {
   "type": "Feature",
   "geometry": {
    "type": "Point",
    "coordinates": [
     142.35758477,
     -34.32233112
    ]
   },
   "properties": {
    "name": "117A PARINGI ROAD PARINGI 2738",
    "locID": "LOC000122057393",
    "tech": "SATELLITE",
    "upgrade": "NULL_NA",
    "gnaf_pid": "GANSW718159496",
    "tech_change_status": "Not Planned"
   }
  },
  {
   "type": "Feature",
   "geometry": {
    "type": "Point",
    "coordinates": [
     142.35881998,
     -34.32409136
    ]
   },
   "properties": {
    "name": "117B PARINGI ROAD PARINGI 2738",
    "locID": "LOC000122057408",
    "tech": "SATELLITE",
    "upgrade": "NULL_NA",
    "gnaf_pid": "GANSW718159497",
    "tech_change_status": "Not Planned"
   }
  },
  {
   "type": "Feature",
   "geometry": {
    "type": "Point",
    "coordinates": [
     142.35724121,
     -34.32548215
    ]
   },
   "properties": {
    "name": "117C PARINGI ROAD PARINGI 2738",
    "locID": "LOC000122057412",
    "tech": "SATELLITE",
    "upgrade": "NULL_NA",
    "gnaf_pid": "GANSW718159498",
    "tech_change_status": "Not Planned"
   }
  },
  {
   "type": "Feature",
   "geometry": {
    "type": "Point",
    "coordinates": [
     142.35223518,
     -34.33012792
    ]
   },
   "properties": {
    "name": "139 PARINGI ROAD PARINGI 2738",
    "locID": "LOC000122060027",
    "tech": "SATELLITE",
    "upgrade": "NULL_NA",
    "gnaf_pid": "GANSW718159499",
    "tech_change_status": "Not Planned"
   }
  },
  {
   "type": "Feature",
   "geometry": {
    "type": "Point",
    "coordinates": [
     142.34755934,
     -34.32382542
    ]
   },
   "properties": {
    "name": "158 PARINGI ROAD PARINGI 2738",
    "locID": "LOC000122062450",
    "tech": "SATELLITE",
    "upgrade": "NULL_NA",
    "gnaf_pid": "GANSW718159500",
    "tech_change_status": "Not Planned"
   }
  },
  {
   "type": "Feature",
   "geometry": {
    "type": "Point",
    "coordinates": [
     142.34896362,
     -34.33251457
    ]
   },
   "properties": {
    "name": "205 PARINGI ROAD PARINGI 2738",
    "locID": "LOC000122067093",
    "tech": "SATELLITE",
    "upgrade": "NULL_NA",
    "gnaf_pid": "GANSW718159501",
    "tech_change_status": "Not Planned"
   }
  },
  {
   "type": "Feature",
   "geometry": {
    "type": "Point",
    "coordinates": [
     142.34022624,
     -34.32304669
    ]
   },
   "properties": {
    "name": "206 PARINGI ROAD PARINGI 2738",
    "locID": "LOC000122067119",
    "tech": "WIRELESS",
    "upgrade": "NULL_NA",
    "gnaf_pid": "GANSW718159502",
    "tech_change_status": "Eligible to Order",
    "program_type": "Fixed Wireless and Satellite Upgrade Program",
    "target_eligibility_quarter": "NA"
   }
  },
  {
   "type": "Feature",
   "geometry": {
    "type": "Point",
    "coordinates": [
     142.3486067,
     -34.32975962
    ]
   },
   "properties": {
    "name": "143 PARINGI ROAD PARINGI 2738",
    "locID": "LOC000122062325",
    "tech": "SATELLITE",
    "upgrade": "NULL_NA",
    "gnaf_pid": "GANSW718202971",
    "tech_change_status": "Not Planned"
   }
  },
  {
   "type": "Feature",
   "geometry": {
    "type": "Point",
    "coordinates": [
     142.3965453,
     -34.28360959
    ]
   },
   "properties": {
    "name": "4891A STURT HIGHWAY PARINGI 2738",
    "locID": "LOC000122037237",
    "tech": "NULL",
    "upgrade": "NULL_NA",
    "gnaf_pid": "GANSW718206838",
    "tech_change_status": "Not Planned"
   }
  },
  {
   "type": "Feature",
   "geometry": {
    "type": "Point",
    "coordinates": [
     142.36301885,
     -34.32278861
    ]
   },
   "properties": {
    "name": "4891B STURT HIGHWAY PARINGI 2738",
    "locID": "LOC100078100482",
    "tech": "NULL",
    "upgrade": "NULL_NA",
    "gnaf_pid": "GANSW718206839",
    "tech_change_status": "Not Planned"
   }
  },
  {
   "type": "Feature",
   "geometry": {
    "type": "Point",
    "coordinates": [
     142.33760888,
     -34.31215137
    ]
   },
   "properties": {
    "name": "5249C STURT HIGHWAY PARINGI 2738",
    "locID": "LOC000122037360",
    "tech": "WIRELESS",
    "upgrade": "NULL_NA",
    "gnaf_pid": "GANSW718206840",
    "tech_change_status": "Not Planned",
    "program_type": "Fixed Wireless and Satellite Upgrade Program",
    "target_eligibility_quarter": "NA"
   }
  },
  {
   "type": "Feature",
   "geometry": {
    "type": "Point",
    "coordinates": [
     142.33760888,
     -34.31215137
    ]
   },
   "properties": {
    "name": "5249A STURT HIGHWAY PARINGI 2738",
    "locID": "LOC000149092499",
    "tech": "SATELLITE",
    "upgrade": "NULL_NA",
    "gnaf_pid": "GANSW718442544",
    "tech_change_status": "Not Planned"
   }
  },
  {
   "type": "Feature",
   "geometry": {
    "type": "Point",
    "coordinates": [
     142.3965453,
     -34.28360959
    ]
   },
   "properties": {
    "name": "4891 STURT HIGHWAY PARINGI 2738",
    "locID": "LOC000122037237",
    "tech": "NULL",
    "upgrade": "NULL_NA",
    "gnaf_pid": "GANSW719375799",
    "tech_change_status": "Not Planned"
   }
  }
 ]
}