{
 "type": "FeatureCollection",
 "generated": "2024-01-25T00:53:10.908524",
 "suburb": "PARINGI",
 "features": [
  {
   "type": "Feature",
   "geometry": {
    "type": "Point",
    "coordinates": [
     142.35079011,
     -34.32266591
    ]
   },
   "properties": {
    "name": "116 PARINGI ROAD PARINGI 2738",
    "locID": "LOC000122057372",
    "tech": "SATELLITE",
    "upgrade": "NULL_NA",
    "gnaf_pid": "GANSW718159495"
   }
  },
  {
   "type": "Feature",
   "geometry": {
    "type": "Point",
    "coordinates": [
     142.35758477,
     -34.32233112
    ]
   },
   "properties": {
    "name": "117A PARINGI ROAD PARINGI 2738",
    "locID": "LOC000122057393",
    "tech": "SATELLITE",
    "upgrade": "NULL_NA",
    "gnaf_pid": "GANSW718159496"
   }
  },
  {
   "type": "Feature",
   "geometry": {
    "type": "Point",
    "coordinates": [
     142.35881998,
     -34.32409136
    ]
   },
   "properties": {
    "name": "117B PARINGI ROAD PARINGI 2738",
    "locID": "LOC000122057408",
    "tech": "SATELLITE",
    "upgrade": "NULL_NA",
    "gnaf_pid": "GANSW718159497"
   }
  },
  {
   "type": "Feature",
   "geometry": {
    "type": "Point",
    "coordinates": [
     142.35724121,
     -34.32548215
    ]
   },
   "properties": {
    "name": "117C PARINGI ROAD PARINGI 2738",
    "locID": "LOC000122057412",
    "tech": "SATELLITE",
    "upgrade": "NULL_NA",
    "gnaf_pid": "GANSW718159498"
   }
  },
  {
   "type": "Feature",
   "geometry": {
    "type": "Point",
    "coordinates": [
     142.35223518,
     -34.33012792
    ]
   },
   "properties": {
    "name": "139 PARINGI ROAD PARINGI 2738",
    "locID": "LOC000122060027",
    "tech": "SATELLITE",
    "upgrade": "NULL_NA",
    "gnaf_pid": "GANSW718159499"
   }
  },
  {
   "type": "Feature",
   "geometry": {
    "type": "Point",
    "coordinates": [
     142.34755934,
     -34.32382542
    ]
   },
   "properties": {
    "name": "158 PARINGI ROAD PARINGI 2738",
    "locID": "LOC000122062450",
    "tech": "SATELLITE",
    "upgrade": "NULL_NA",
    "gnaf_pid": "GANSW718159500"
   }
  },
  {
   "type": "Feature",
   "geometry": {
    "type": "Point",
    "coordinates": [
     142.34896362,
     -34.33251457
    ]
   },
   "properties": {
    "name": "205 PARINGI ROAD PARINGI 2738",
    "locID": "LOC000122067093",
    "tech": "SATELLITE",
    "upgrade": "NULL_NA",
    "gnaf_pid": "GANSW718159501"
   }
  },
  {
   "type": "Feature",
   "geometry": {
    "type": "Point",
    "coordinates": [
     142.34022624,
     -34.32304669
    ]
   },
   "properties": {
    "name": "206 PARINGI ROAD PARINGI 2738",
    "locID": "LOC000122067119",
    "tech": "WIRELESS",
    "upgrade": "NULL_NA",
    "gnaf_pid": "GANSW718159502"
   }
  },
  {
   "type": "Feature",
   "geometry": {
    "type": "Point",
    "coordinates": [
     142.3486067,
     -34.32975962
    ]
   },
   "properties": {
    "name": "143 PARINGI ROAD PARINGI 2738",
    "locID": "LOC000122062325",
    "tech": "SATELLITE",
    "upgrade": "NULL_NA",
    "gnaf_pid": "GANSW718202971"
   }
  },
  {
   "type": "Feature",
   "geometry": {
    "type": "Point",
    "coordinates": [
     142.3965453,
     -34.28360959
    ]
   },
   "properties": {
    "name": "4891A STURT HIGHWAY PARINGI 2738",
    "locID": "LOC000122037237",
    "tech": "SATELLITE",
    "upgrade": "NULL_NA",
    "gnaf_pid": "GANSW718206838"
   }
  },
  {
   "type": "Feature",
   "geometry": {
    "type": "Point",
    "coordinates": [
     142.36301885,
     -34.32278861
    ]
   },
   "properties": {
    "name": "4891B STURT HIGHWAY PARINGI 2738",
    "locID": "LOC100078100482",
    "tech": "SATELLITE",
    "upgrade": "NULL_NA",
    "gnaf_pid": "GANSW718206839"
   }
  },
  {
   "type": "Feature",
   "geometry": {
    "type": "Point",
    "coordinates": [
     142.33760888,
     -34.31215137
    ]
   },
   "properties": {
    "name": "5249C STURT HIGHWAY PARINGI 2738",
    "locID": "LOC000122037360",
    "tech": "WIRELESS",
    "upgrade": "NULL_NA",
    "gnaf_pid": "GANSW718206840"
   }
  },
  {
   "type": "Feature",
   "geometry": {
    "type": "Point",
    "coordinates": [
     142.33760888,
     -34.31215137
    ]
   },
   "properties": {
    "name": "5249A STURT HIGHWAY PARINGI 2738",
    "locID": "LOC000149092499",
    "tech": "SATELLITE",
    "upgrade": "NULL_NA",
    "gnaf_pid": "GANSW718442544"
   }
  },
  {
   "type": "Feature",
   "geometry": {
    "type": "Point",
    "coordinates": [
     142.33760888,
     -34.31215137
    ]
   },
   "properties": {
    "name": "5249B STURT HIGHWAY PARINGI 2738",
    "locID": "ChIJ-VgMW1sYw2oRx91nldrG26s",
    "tech": "WIRELESS",
    "upgrade": "UNKNOWN",
    "gnaf_pid": "GANSW718442545"
   }
  },
  {
   "type": "Feature",
   "geometry": {
    "type": "Point",
    "coordinates": [
     142.34880583,
     -34.32343138
    ]
   },
   "properties": {
    "name": "142 PARINGI ROAD PARINGI 2738",
    "locID": "ChIJUdI8x20Yw2oRzOdW2tnW2hA",
    "tech": "SATELLITE",
    "upgrade": "UNKNOWN",
    "gnaf_pid": "GANSW719061996"
   }
  },
  {
   "type": "Feature",
   "geometry": {
    "type": "Point",
    "coordinates": [
     142.3965453,
     -34.28360959
    ]
   },
   "properties": {
    "name": "4891 STURT HIGHWAY PARINGI 2738",
    "locID": "LOC000122037237",
    "tech": "SATELLITE",
    "upgrade": "NULL_NA",
    "gnaf_pid": "GANSW719375799"
   }
  }
 ]
}