{
 "type": "FeatureCollection",
 "generated": "2024-07-28T02:25:57.939389",
 "suburb": "PLEASANT HILLS",
 "features": [
  {
   "type": "Feature",
   "geometry": {
    "type": "Point",
    "coordinates": [
     146.79921206,
     -35.46513094
    ]
   },
   "properties": {
    "name": "24 CRAWFORD STREET PLEASANT HILLS 2658",
    "locID": "LOC000059321385",
    "tech": "SATELLITE",
    "upgrade": "NULL_NA",
    "gnaf_pid": "GANSW705661860",
    "tech_change_status": "Not Planned"
   }
  },
  {
   "type": "Feature",
   "geometry": {
    "type": "Point",
    "coordinates": [
     146.79907682,
     -35.46443517
    ]
   },
   "properties": {
    "name": "1 EDGEHILL STREET PLEASANT HILLS 2658",
    "locID": "LOC000076305305",
    "tech": "SATELLITE",
    "upgrade": "NULL_NA",
    "gnaf_pid": "GANSW709931386",
    "tech_change_status": "Not Planned"
   }
  },
  {
   "type": "Feature",
   "geometry": {
    "type": "Point",
    "coordinates": [
     146.80034945,
     -35.46429847
    ]
   },
   "properties": {
    "name": "125 CRAWFORD STREET PLEASANT HILLS 2658",
    "locID": "LOC000078298560",
    "tech": "SATELLITE",
    "upgrade": "NULL_NA",
    "gnaf_pid": "GANSW709931431",
    "tech_change_status": "Not Planned"
   }
  },
  {
   "type": "Feature",
   "geometry": {
    "type": "Point",
    "coordinates": [
     146.77555505,
     -35.47456362
    ]
   },
   "properties": {
    "name": "92 SPURRELLS ROAD PLEASANT HILLS 2658",
    "locID": "LOC000037904958",
    "tech": "SATELLITE",
    "upgrade": "NULL_NA",
    "gnaf_pid": "GANSW709957786",
    "tech_change_status": "Not Planned"
   }
  },
  {
   "type": "Feature",
   "geometry": {
    "type": "Point",
    "coordinates": [
     146.79800896,
     -35.46354776
    ]
   },
   "properties": {
    "name": "18 MANSON STREET PLEASANT HILLS 2658",
    "locID": "LOC000084031472",
    "tech": "SATELLITE",
    "upgrade": "NULL_NA",
    "gnaf_pid": "GANSW709957791",
    "tech_change_status": "Not Planned"
   }
  },
  {
   "type": "Feature",
   "geometry": {
    "type": "Point",
    "coordinates": [
     146.76934609,
     -35.51081062
    ]
   },
   "properties": {
    "name": "9 SPURRELLS ROAD PLEASANT HILLS 2658",
    "locID": "LOC000037904958",
    "tech": "SATELLITE",
    "upgrade": "NULL_NA",
    "gnaf_pid": "GANSW712784412",
    "tech_change_status": "Not Planned"
   }
  },
  {
   "type": "Feature",
   "geometry": {
    "type": "Point",
    "coordinates": [
     146.76934609,
     -35.51081062
    ]
   },
   "properties": {
    "name": "2 SPURRELLS ROAD PLEASANT HILLS 2658",
    "locID": "LOC000177017015",
    "tech": "SATELLITE",
    "upgrade": "NULL_NA",
    "gnaf_pid": "GANSW712784413",
    "tech_change_status": "Not Planned"
   }
  },
  {
   "type": "Feature",
   "geometry": {
    "type": "Point",
    "coordinates": [
     146.76934609,
     -35.51081062
    ]
   },
   "properties": {
    "name": "1 SPURRELLS ROAD PLEASANT HILLS 2658",
    "locID": "LOC000037431978",
    "tech": "SATELLITE",
    "upgrade": "NULL_NA",
    "gnaf_pid": "GANSW712784414",
    "tech_change_status": "Not Planned"
   }
  },
  {
   "type": "Feature",
   "geometry": {
    "type": "Point",
    "coordinates": [
     146.79800896,
     -35.46354776
    ]
   },
   "properties": {
    "name": "LOT 3 MANSON STREET PLEASANT HILLS 2658",
    "locID": "LOC000108408952",
    "tech": "SATELLITE",
    "upgrade": "NULL_NA",
    "gnaf_pid": "GANSW716673216",
    "tech_change_status": "Not Planned"
   }
  },
  {
   "type": "Feature",
   "geometry": {
    "type": "Point",
    "coordinates": [
     146.80357696,
     -35.49485754
    ]
   },
   "properties": {
    "name": "248 ALMA PARK ROAD PLEASANT HILLS 2658",
    "locID": "LOC000067452037",
    "tech": "SATELLITE",
    "upgrade": "NULL_NA",
    "gnaf_pid": "GANSW717134752",
    "tech_change_status": "Not Planned"
   }
  },
  {
   "type": "Feature",
   "geometry": {
    "type": "Point",
    "coordinates": [
     146.81341189,
     -35.47999289
    ]
   },
   "properties": {
    "name": "80 ALMA PARK ROAD PLEASANT HILLS 2658",
    "locID": "LOC000022324349",
    "tech": "SATELLITE",
    "upgrade": "NULL_NA",
    "gnaf_pid": "GANSW717134760",
    "tech_change_status": "Not Planned"
   }
  },
  {
   "type": "Feature",
   "geometry": {
    "type": "Point",
    "coordinates": [
     146.79682336,
     -35.5514371
    ]
   },
   "properties": {
    "name": "908 ALMA PARK ROAD PLEASANT HILLS 2658",
    "locID": "LOC000080185890",
    "tech": "SATELLITE",
    "upgrade": "NULL_NA",
    "gnaf_pid": "GANSW717134762",
    "tech_change_status": "Not Planned"
   }
  },
  {
   "type": "Feature",
   "geometry": {
    "type": "Point",
    "coordinates": [
     146.8112179,
     -35.4218737
    ]
   },
   "properties": {
    "name": "2458 COUNTY BOUNDARY ROAD PLEASANT HILLS 2658",
    "locID": "LOC000026821044",
    "tech": "SATELLITE",
    "upgrade": "NULL_NA",
    "gnaf_pid": "GANSW717138611",
    "tech_change_status": "Not Planned"
   }
  },
  {
   "type": "Feature",
   "geometry": {
    "type": "Point",
    "coordinates": [
     146.8112179,
     -35.4218737
    ]
   },
   "properties": {
    "name": "2475 COUNTY BOUNDARY ROAD PLEASANT HILLS 2658",
    "locID": "LOC000044332442",
    "tech": "SATELLITE",
    "upgrade": "NULL_NA",
    "gnaf_pid": "GANSW717138612",
    "tech_change_status": "Not Planned"
   }
  },
  {
   "type": "Feature",
   "geometry": {
    "type": "Point",
    "coordinates": [
     146.8112179,
     -35.4218737
    ]
   },
   "properties": {
    "name": "2610 COUNTY BOUNDARY ROAD PLEASANT HILLS 2658",
    "locID": "LOC000100421453",
    "tech": "SATELLITE",
    "upgrade": "NULL_NA",
    "gnaf_pid": "GANSW717138613",
    "tech_change_status": "Not Planned"
   }
  },
  {
   "type": "Feature",
   "geometry": {
    "type": "Point",
    "coordinates": [
     146.8112179,
     -35.4218737
    ]
   },
   "properties": {
    "name": "2631 COUNTY BOUNDARY ROAD PLEASANT HILLS 2658",
    "locID": "LOC000186520877",
    "tech": "SATELLITE",
    "upgrade": "NULL_NA",
    "gnaf_pid": "GANSW717138614",
    "tech_change_status": "Not Planned"
   }
  },
  {
   "type": "Feature",
   "geometry": {
    "type": "Point",
    "coordinates": [
     146.83155485,
     -35.43801728
    ]
   },
   "properties": {
    "name": "1 FIGTREE ROAD PLEASANT HILLS 2658",
    "locID": "LOC000033274781",
    "tech": "SATELLITE",
    "upgrade": "NULL_NA",
    "gnaf_pid": "GANSW717139952",
    "tech_change_status": "Not Planned"
   }
  },
  {
   "type": "Feature",
   "geometry": {
    "type": "Point",
    "coordinates": [
     146.83155485,
     -35.43801728
    ]
   },
   "properties": {
    "name": "426 FIGTREE ROAD PLEASANT HILLS 2658",
    "locID": "LOC000033274781",
    "tech": "SATELLITE",
    "upgrade": "NULL_NA",
    "gnaf_pid": "GANSW717139953",
    "tech_change_status": "Not Planned"
   }
  },
  {
   "type": "Feature",
   "geometry": {
    "type": "Point",
    "coordinates": [
     146.76934609,
     -35.51081062
    ]
   },
   "properties": {
    "name": "23 SPURRELLS ROAD PLEASANT HILLS 2658",
    "locID": "LOC000032698335",
    "tech": "SATELLITE",
    "upgrade": "NULL_NA",
    "gnaf_pid": "GANSW717150029",
    "tech_change_status": "Not Planned"
   }
  },
  {
   "type": "Feature",
   "geometry": {
    "type": "Point",
    "coordinates": [
     146.76934609,
     -35.51081062
    ]
   },
   "properties": {
    "name": "577 SPURRELLS ROAD PLEASANT HILLS 2658",
    "locID": "LOC000041650140",
    "tech": "SATELLITE",
    "upgrade": "NULL_NA",
    "gnaf_pid": "GANSW717150031",
    "tech_change_status": "Not Planned"
   }
  },
  {
   "type": "Feature",
   "geometry": {
    "type": "Point",
    "coordinates": [
     146.75349732,
     -35.5356945
    ]
   },
   "properties": {
    "name": "780 SPURRELLS ROAD PLEASANT HILLS 2658",
    "locID": "LOC000103024740",
    "tech": "SATELLITE",
    "upgrade": "NULL_NA",
    "gnaf_pid": "GANSW717150033",
    "tech_change_status": "Not Planned"
   }
  },
  {
   "type": "Feature",
   "geometry": {
    "type": "Point",
    "coordinates": [
     146.79696569,
     -35.46449803
    ]
   },
   "properties": {
    "name": "LOT 4 EDGEHILL STREET PLEASANT HILLS 2658",
    "locID": "LOC000107698920",
    "tech": "SATELLITE",
    "upgrade": "NULL_NA",
    "gnaf_pid": "GANSW717634977",
    "tech_change_status": "Not Planned"
   }
  },
  {
   "type": "Feature",
   "geometry": {
    "type": "Point",
    "coordinates": [
     146.79779275,
     -35.45997027
    ]
   },
   "properties": {
    "name": "9 CULLEN STREET PLEASANT HILLS 2658",
    "locID": "LOC000045132805",
    "tech": "SATELLITE",
    "upgrade": "NULL_NA",
    "gnaf_pid": "GANSW717725748",
    "tech_change_status": "Not Planned"
   }
  },
  {
   "type": "Feature",
   "geometry": {
    "type": "Point",
    "coordinates": [
     146.79547487,
     -35.46578253
    ]
   },
   "properties": {
    "name": "7 RYAN STREET PLEASANT HILLS 2658",
    "locID": "LOC000109858582",
    "tech": "SATELLITE",
    "upgrade": "NULL_NA",
    "gnaf_pid": "GANSW717866989",
    "tech_change_status": "Not Planned"
   }
  },
  {
   "type": "Feature",
   "geometry": {
    "type": "Point",
    "coordinates": [
     146.79674582,
     -35.46561206
    ]
   },
   "properties": {
    "name": "LOT 7 RYAN STREET PLEASANT HILLS 2658",
    "locID": "LOC000109858582",
    "tech": "SATELLITE",
    "upgrade": "NULL_NA",
    "gnaf_pid": "GANSW717866990",
    "tech_change_status": "Not Planned"
   }
  },
  {
   "type": "Feature",
   "geometry": {
    "type": "Point",
    "coordinates": [
     146.79822759,
     -35.46551568
    ]
   },
   "properties": {
    "name": "8 RYAN STREET PLEASANT HILLS 2658",
    "locID": "LOC000059831512",
    "tech": "SATELLITE",
    "upgrade": "NULL_NA",
    "gnaf_pid": "GANSW717866991",
    "tech_change_status": "Not Planned"
   }
  },
  {
   "type": "Feature",
   "geometry": {
    "type": "Point",
    "coordinates": [
     146.80034945,
     -35.46429847
    ]
   },
   "properties": {
    "name": "1 CRAWFORD STREET PLEASANT HILLS 2658",
    "locID": "LOC000105733313",
    "tech": "SATELLITE",
    "upgrade": "NULL_NA",
    "gnaf_pid": "GANSW717905318",
    "tech_change_status": "Not Planned"
   }
  },
  {
   "type": "Feature",
   "geometry": {
    "type": "Point",
    "coordinates": [
     146.79534245,
     -35.46028809
    ]
   },
   "properties": {
    "name": "75 HUGHES STREET PLEASANT HILLS 2658",
    "locID": "LOC000121810928",
    "tech": "SATELLITE",
    "upgrade": "NULL_NA",
    "gnaf_pid": "GANSW718069325",
    "tech_change_status": "Not Planned"
   }
  },
  {
   "type": "Feature",
   "geometry": {
    "type": "Point",
    "coordinates": [
     146.79800896,
     -35.46354776
    ]
   },
   "properties": {
    "name": "24 MANSON STREET PLEASANT HILLS 2658",
    "locID": "LOC000029037423",
    "tech": "SATELLITE",
    "upgrade": "NULL_NA",
    "gnaf_pid": "GANSW718178077",
    "tech_change_status": "Not Planned"
   }
  },
  {
   "type": "Feature",
   "geometry": {
    "type": "Point",
    "coordinates": [
     146.79941694,
     -35.43107949
    ]
   },
   "properties": {
    "name": "1516 OSBORNE PLEASANT HILLS ROAD PLEASANT HILLS 2658",
    "locID": "LOC000148062762",
    "tech": "SATELLITE",
    "upgrade": "NULL_NA",
    "gnaf_pid": "GANSW718586612",
    "tech_change_status": "Not Planned"
   }
  },
  {
   "type": "Feature",
   "geometry": {
    "type": "Point",
    "coordinates": [
     146.83659761,
     -35.3949074
    ]
   },
   "properties": {
    "name": "191 HILLCREST LANE PLEASANT HILLS 2658",
    "locID": "LOC100038148210",
    "tech": "SATELLITE",
    "upgrade": "NULL_NA",
    "gnaf_pid": "GANSW718601518",
    "tech_change_status": "Not Planned"
   }
  },
  {
   "type": "Feature",
   "geometry": {
    "type": "Point",
    "coordinates": [
     146.73319402,
     -35.42533973
    ]
   },
   "properties": {
    "name": "1057 OSBORNE PLEASANT HILLS ROAD PLEASANT HILLS 2658",
    "locID": "LOC000148053940",
    "tech": "SATELLITE",
    "upgrade": "NULL_NA",
    "gnaf_pid": "GANSW718604486",
    "tech_change_status": "Not Planned"
   }
  },
  {
   "type": "Feature",
   "geometry": {
    "type": "Point",
    "coordinates": [
     146.82471647,
     -35.52861494
    ]
   },
   "properties": {
    "name": "164 ZWECKS LANE PLEASANT HILLS 2658",
    "locID": "LOC000148389045",
    "tech": "SATELLITE",
    "upgrade": "NULL_NA",
    "gnaf_pid": "GANSW718608586",
    "tech_change_status": "Not Planned"
   }
  },
  {
   "type": "Feature",
   "geometry": {
    "type": "Point",
    "coordinates": [
     146.72164832,
     -35.46201201
    ]
   },
   "properties": {
    "name": "4721 PLEASANT HILLS ROAD PLEASANT HILLS 2658",
    "locID": "LOC100079779605",
    "tech": "SATELLITE",
    "upgrade": "NULL_NA",
    "gnaf_pid": "GANSW718692240",
    "tech_change_status": "Not Planned"
   }
  },
  {
   "type": "Feature",
   "geometry": {
    "type": "Point",
    "coordinates": [
     146.79666489,
     -35.45665635
    ]
   },
   "properties": {
    "name": "3201 COUNTY BOUNDARY ROAD PLEASANT HILLS 2658",
    "locID": "LOC000142506235",
    "tech": "SATELLITE",
    "upgrade": "NULL_NA",
    "gnaf_pid": "GANSW718697023",
    "tech_change_status": "Not Planned"
   }
  },
  {
   "type": "Feature",
   "geometry": {
    "type": "Point",
    "coordinates": [
     146.82456811,
     -35.52123895
    ]
   },
   "properties": {
    "name": "102 ZWECKS LANE PLEASANT HILLS 2658",
    "locID": "LOC000155845531",
    "tech": "SATELLITE",
    "upgrade": "NULL_NA",
    "gnaf_pid": "GANSW718812621",
    "tech_change_status": "Not Planned"
   }
  },
  {
   "type": "Feature",
   "geometry": {
    "type": "Point",
    "coordinates": [
     146.79743888,
     -35.4637865
    ]
   },
   "properties": {
    "name": "30 MANSON STREET PLEASANT HILLS 2658",
    "locID": "LOC000108408952",
    "tech": "SATELLITE",
    "upgrade": "NULL_NA",
    "gnaf_pid": "GANSW718926193",
    "tech_change_status": "Not Planned"
   }
  },
  {
   "type": "Feature",
   "geometry": {
    "type": "Point",
    "coordinates": [
     146.83177521,
     -35.4756226
    ]
   },
   "properties": {
    "name": "306 HENTY PLEASANT HILLS ROAD PLEASANT HILLS 2658",
    "locID": "LOC100086024686",
    "tech": "SATELLITE",
    "upgrade": "NULL_NA",
    "gnaf_pid": "GANSW718964421",
    "tech_change_status": "Not Planned"
   }
  },
  {
   "type": "Feature",
   "geometry": {
    "type": "Point",
    "coordinates": [
     146.79786948,
     -35.45537617
    ]
   },
   "properties": {
    "name": "3137 COUNTY BOUNDARY ROAD PLEASANT HILLS 2658",
    "locID": "LOC000158762196",
    "tech": "SATELLITE",
    "upgrade": "NULL_NA",
    "gnaf_pid": "GANSW719159518",
    "tech_change_status": "Not Planned"
   }
  },
  {
   "type": "Feature",
   "geometry": {
    "type": "Point",
    "coordinates": [
     146.79473485,
     -35.46105683
    ]
   },
   "properties": {
    "name": "42 HUGHES STREET PLEASANT HILLS 2658",
    "locID": "LOC100072013904",
    "tech": "SATELLITE",
    "upgrade": "NULL_NA",
    "gnaf_pid": "GANSW719230891",
    "tech_change_status": "Not Planned"
   }
  },
  {
   "type": "Feature",
   "geometry": {
    "type": "Point",
    "coordinates": [
     146.7987059,
     -35.46645278
    ]
   },
   "properties": {
    "name": "28 CRAWFORD STREET PLEASANT HILLS 2658",
    "locID": "LOC100072013958",
    "tech": "SATELLITE",
    "upgrade": "NULL_NA",
    "gnaf_pid": "GANSW719230892",
    "tech_change_status": "Not Planned"
   }
  },
  {
   "type": "Feature",
   "geometry": {
    "type": "Point",
    "coordinates": [
     146.7987059,
     -35.46645278
    ]
   },
   "properties": {
    "name": "30 CRAWFORD STREET PLEASANT HILLS 2658",
    "locID": "LOC000181496880",
    "tech": "SATELLITE",
    "upgrade": "NULL_NA",
    "gnaf_pid": "GANSW719237292",
    "tech_change_status": "Not Planned"
   }
  },
  {
   "type": "Feature",
   "geometry": {
    "type": "Point",
    "coordinates": [
     146.73279537,
     -35.48990209
    ]
   },
   "properties": {
    "name": "273 FORCKS LANE PLEASANT HILLS 2658",
    "locID": "LOC100086094900",
    "tech": "SATELLITE",
    "upgrade": "NULL_NA",
    "gnaf_pid": "GANSW719238524",
    "tech_change_status": "Not Planned"
   }
  },
  {
   "type": "Feature",
   "geometry": {
    "type": "Point",
    "coordinates": [
     146.80110964,
     -35.46640195
    ]
   },
   "properties": {
    "name": "5 HENTY PLEASANT HILLS ROAD PLEASANT HILLS 2658",
    "locID": "LOC100086086324",
    "tech": "SATELLITE",
    "upgrade": "NULL_NA",
    "gnaf_pid": "GANSW719465912",
    "tech_change_status": "Not Planned"
   }
  },
  {
   "type": "Feature",
   "geometry": {
    "type": "Point",
    "coordinates": [
     146.7965547,
     -35.46591537
    ]
   },
   "properties": {
    "name": "13 RYAN STREET PLEASANT HILLS 2658",
    "locID": "LOC000171396355",
    "tech": "SATELLITE",
    "upgrade": "NULL_NA",
    "gnaf_pid": "GANSW719584092",
    "tech_change_status": "Not Planned"
   }
  },
  {
   "type": "Feature",
   "geometry": {
    "type": "Point",
    "coordinates": [
     146.7766449,
     -35.46685502
    ]
   },
   "properties": {
    "name": "5312 PLEASANT HILLS ROAD PLEASANT HILLS 2658",
    "locID": "LOC000160877319",
    "tech": "SATELLITE",
    "upgrade": "NULL_NA",
    "gnaf_pid": "GANSW720010924",
    "tech_change_status": "Not Planned"
   }
  },
  {
   "type": "Feature",
   "geometry": {
    "type": "Point",
    "coordinates": [
     146.79973995,
     -35.4656774
    ]
   },
   "properties": {
    "name": "2 RYAN STREET PLEASANT HILLS 2658",
    "locID": "LOC000183976123",
    "tech": "SATELLITE",
    "upgrade": "NULL_NA",
    "gnaf_pid": "GANSW720324640",
    "tech_change_status": "Not Planned"
   }
  },
  {
   "type": "Feature",
   "geometry": {
    "type": "Point",
    "coordinates": [
     146.8112179,
     -35.4218737
    ]
   },
   "properties": {
    "name": "LOT 112 COUNTY BOUNDARY ROAD PLEASANT HILLS 2658",
    "locID": "LOC000026821044",
    "tech": "SATELLITE",
    "upgrade": "NULL_NA",
    "gnaf_pid": "GANSW720331916",
    "tech_change_status": "Not Planned"
   }
  },
  {
   "type": "Feature",
   "geometry": {
    "type": "Point",
    "coordinates": [
     146.8112179,
     -35.4218737
    ]
   },
   "properties": {
    "name": "LOT 98 COUNTY BOUNDARY ROAD PLEASANT HILLS 2658",
    "locID": "LOC000026821044",
    "tech": "SATELLITE",
    "upgrade": "NULL_NA",
    "gnaf_pid": "GANSW720334580",
    "tech_change_status": "Not Planned"
   }
  },
  {
   "type": "Feature",
   "geometry": {
    "type": "Point",
    "coordinates": [
     146.74358434,
     -35.46933274
    ]
   },
   "properties": {
    "name": "5030 PLEASANT HILLS ROAD PLEASANT HILLS 2658",
    "locID": "LOC100078128460",
    "tech": "SATELLITE",
    "upgrade": "NULL_NA",
    "gnaf_pid": "GANSW720384418",
    "tech_change_status": "Not Planned"
   }
  },
  {
   "type": "Feature",
   "geometry": {
    "type": "Point",
    "coordinates": [
     146.79427578,
     -35.46500863
    ]
   },
   "properties": {
    "name": "24 RYAN STREET PLEASANT HILLS 2658",
    "locID": "LOC100086094084",
    "tech": "SATELLITE",
    "upgrade": "NULL_NA",
    "gnaf_pid": "GANSW721042349",
    "tech_change_status": "Not Planned"
   }
  },
  {
   "type": "Feature",
   "geometry": {
    "type": "Point",
    "coordinates": [
     146.79580228,
     -35.46633337
    ]
   },
   "properties": {
    "name": "18 RAND STREET PLEASANT HILLS 2658",
    "locID": "LOC100081987319",
    "tech": "SATELLITE",
    "upgrade": "NULL_NA",
    "gnaf_pid": "GANSW721126584",
    "tech_change_status": "Not Planned"
   }
  }
 ]
}