{
 "type": "FeatureCollection",
 "generated": "2023-12-28T19:21:15.289097",
 "suburb": "PORT STEPHENS",
 "features": [
  {
   "type": "Feature",
   "geometry": {
    "type": "Point",
    "coordinates": [
     152.10485597,
     -32.71711328
    ]
   },
   "properties": {
    "name": "26A CORLETTE POINT ROAD PORT STEPHENS 2317",
    "locID": "ChIJG8CuqiSCc2sRSSMXcd68EQQ",
    "tech": "FTTN",
    "upgrade": "UNKNOWN",
    "gnaf_pid": "GANSW718456526"
   }
  },
  {
   "type": "Feature",
   "geometry": {
    "type": "Point",
    "coordinates": [
     152.01324498,
     -32.66772639
    ]
   },
   "properties": {
    "name": "8 PIER STREET PORT STEPHENS 2317",
    "locID": "ChIJR6kLwVl_c2sRgHu6P2t9ARw",
    "tech": "SATELLITE",
    "upgrade": "UNKNOWN",
    "gnaf_pid": "GANSW719180663"
   }
  },
  {
   "type": "Feature",
   "geometry": {
    "type": "Point",
    "coordinates": [
     151.93912439,
     -32.7343649
    ]
   },
   "properties": {
    "name": "349B MOFFATS ROAD PORT STEPHENS 2317",
    "locID": "ChIJZ6WgaWF6c2sRaaVp3PpDxqY",
    "tech": "WIRELESS",
    "upgrade": "UNKNOWN",
    "gnaf_pid": "GANSW719658529"
   }
  },
  {
   "type": "Feature",
   "geometry": {
    "type": "Point",
    "coordinates": [
     152.06705122,
     -32.72457163
    ]
   },
   "properties": {
    "name": "21C DIEMARS ROAD PORT STEPHENS 2317",
    "locID": "ChIJdxFUB594c2sR3lmAgLKwBWI",
    "tech": "SATELLITE",
    "upgrade": "UNKNOWN",
    "gnaf_pid": "GANSW721315556"
   }
  },
  {
   "type": "Feature",
   "geometry": {
    "type": "Point",
    "coordinates": [
     152.06674665,
     -32.72448025
    ]
   },
   "properties": {
    "name": "21D DIEMARS ROAD PORT STEPHENS 2317",
    "locID": "LOC000017495345",
    "tech": "FTTN",
    "upgrade": "FTTP_NA",
    "gnaf_pid": "GANSW721316327",
    "tech_change_status": "MDU Complex Eligible To Apply",
    "program_type": "Customer-initiated N2P MDU Complex"
   }
  },
  {
   "type": "Feature",
   "geometry": {
    "type": "Point",
    "coordinates": [
     152.06649952,
     -32.72402256
    ]
   },
   "properties": {
    "name": "17B DIEMARS ROAD PORT STEPHENS 2317",
    "locID": "LOC000017380526",
    "tech": "FTTN",
    "upgrade": "FTTP_NA",
    "gnaf_pid": "GANSW721317792",
    "tech_change_status": "MDU Complex Eligible To Apply",
    "program_type": "Customer-initiated N2P MDU Complex"
   }
  },
  {
   "type": "Feature",
   "geometry": {
    "type": "Point",
    "coordinates": [
     152.0665925,
     -32.72418885
    ]
   },
   "properties": {
    "name": "19B DIEMARS ROAD PORT STEPHENS 2317",
    "locID": "LOC000087489827",
    "tech": "SATELLITE",
    "upgrade": "NULL_NA",
    "gnaf_pid": "GANSW721319369"
   }
  },
  {
   "type": "Feature",
   "geometry": {
    "type": "Point",
    "coordinates": [
     152.06684563,
     -32.7244536
    ]
   },
   "properties": {
    "name": "21B DIEMARS ROAD PORT STEPHENS 2317",
    "locID": "ChIJdxFUB594c2sRAElenaO8ghI",
    "tech": "SATELLITE",
    "upgrade": "UNKNOWN",
    "gnaf_pid": "GANSW721327869"
   }
  }
 ]
}