{
 "type": "FeatureCollection",
 "generated": "2024-09-26T14:51:12.179266",
 "suburb": "WOMBOOTA",
 "features": [
  {
   "type": "Feature",
   "geometry": {
    "type": "Point",
    "coordinates": [
     144.60249292,
     -35.90716529
    ]
   },
   "properties": {
    "name": "LOT 118 MOIRA STREET WOMBOOTA 2731",
    "locID": "LOC000122032190",
    "tech": "SATELLITE",
    "upgrade": "NULL_NA",
    "gnaf_pid": "GANSW716597295",
    "tech_change_status": "Not Planned"
   }
  },
  {
   "type": "Feature",
   "geometry": {
    "type": "Point",
    "coordinates": [
     144.59841987,
     -35.90483645
    ]
   },
   "properties": {
    "name": "82 MOIRA STREET WOMBOOTA 2731",
    "locID": "LOC000008244330",
    "tech": "SATELLITE",
    "upgrade": "NULL_NA",
    "gnaf_pid": "GANSW716597297",
    "tech_change_status": "Not Planned"
   }
  },
  {
   "type": "Feature",
   "geometry": {
    "type": "Point",
    "coordinates": [
     144.59841987,
     -35.90483645
    ]
   },
   "properties": {
    "name": "82A MOIRA STREET WOMBOOTA 2731",
    "locID": "LOC000008244330",
    "tech": "SATELLITE",
    "upgrade": "NULL_NA",
    "gnaf_pid": "GANSW716597298",
    "tech_change_status": "Not Planned"
   }
  },
  {
   "type": "Feature",
   "geometry": {
    "type": "Point",
    "coordinates": [
     144.59931989,
     -35.90996303
    ]
   },
   "properties": {
    "name": "LOT 3 PERRICOOTA STREET WOMBOOTA 2731",
    "locID": "LOC000148078835",
    "tech": "SATELLITE",
    "upgrade": "NULL_NA",
    "gnaf_pid": "GANSW717468291",
    "tech_change_status": "Not Planned"
   }
  },
  {
   "type": "Feature",
   "geometry": {
    "type": "Point",
    "coordinates": [
     144.60081184,
     -35.91021858
    ]
   },
   "properties": {
    "name": "8 HOPKINS STREET WOMBOOTA 2731",
    "locID": "LOC000053058622",
    "tech": "SATELLITE",
    "upgrade": "NULL_NA",
    "gnaf_pid": "GANSW717906473",
    "tech_change_status": "Not Planned"
   }
  },
  {
   "type": "Feature",
   "geometry": {
    "type": "Point",
    "coordinates": [
     144.60255518,
     -35.90829825
    ]
   },
   "properties": {
    "name": "118 MOIRA STREET WOMBOOTA 2731",
    "locID": "LOC000122032190",
    "tech": "SATELLITE",
    "upgrade": "NULL_NA",
    "gnaf_pid": "GANSW717959847",
    "tech_change_status": "Not Planned"
   }
  },
  {
   "type": "Feature",
   "geometry": {
    "type": "Point",
    "coordinates": [
     144.55958454,
     -35.8783896
    ]
   },
   "properties": {
    "name": "3783 PERRICOOTA ROAD WOMBOOTA 2731",
    "locID": "LOC000008262859",
    "tech": "SATELLITE",
    "upgrade": "NULL_NA",
    "gnaf_pid": "GANSW718003444",
    "tech_change_status": "Not Planned"
   }
  },
  {
   "type": "Feature",
   "geometry": {
    "type": "Point",
    "coordinates": [
     144.50871495,
     -35.87658719
    ]
   },
   "properties": {
    "name": "164 EDGAR ROAD WOMBOOTA 2731",
    "locID": "LOC000122041236",
    "tech": "SATELLITE",
    "upgrade": "NULL_NA",
    "gnaf_pid": "GANSW718067553",
    "tech_change_status": "Not Planned"
   }
  },
  {
   "type": "Feature",
   "geometry": {
    "type": "Point",
    "coordinates": [
     144.50253794,
     -35.910923
    ]
   },
   "properties": {
    "name": "544 EDGAR ROAD WOMBOOTA 2731",
    "locID": "LOC000122062665",
    "tech": "NULL",
    "upgrade": "NULL_NA",
    "gnaf_pid": "GANSW718067554",
    "tech_change_status": "Not Planned"
   }
  },
  {
   "type": "Feature",
   "geometry": {
    "type": "Point",
    "coordinates": [
     144.50182632,
     -35.92026472
    ]
   },
   "properties": {
    "name": "564 EDGAR ROAD WOMBOOTA 2731",
    "locID": "LOC000122062715",
    "tech": "NULL",
    "upgrade": "NULL_NA",
    "gnaf_pid": "GANSW718067555",
    "tech_change_status": "Not Planned"
   }
  },
  {
   "type": "Feature",
   "geometry": {
    "type": "Point",
    "coordinates": [
     144.58841504,
     -35.9471097
    ]
   },
   "properties": {
    "name": "14 FITZPATRICK ROAD WOMBOOTA 2731",
    "locID": "LOC000122037758",
    "tech": "WIRELESS",
    "upgrade": "NULL_NA",
    "gnaf_pid": "GANSW718068057",
    "tech_change_status": "Not Planned",
    "program_type": "Fixed Wireless and Satellite Upgrade Program",
    "target_eligibility_quarter": "Dec 2024"
   }
  },
  {
   "type": "Feature",
   "geometry": {
    "type": "Point",
    "coordinates": [
     144.55514572,
     -35.94560985
    ]
   },
   "properties": {
    "name": "317 FITZPATRICK ROAD WOMBOOTA 2731",
    "locID": "LOC000122055042",
    "tech": "NULL",
    "upgrade": "NULL_NA",
    "gnaf_pid": "GANSW718068058",
    "tech_change_status": "Not Planned"
   }
  },
  {
   "type": "Feature",
   "geometry": {
    "type": "Point",
    "coordinates": [
     144.5476232,
     -35.93734969
    ]
   },
   "properties": {
    "name": "318 FITZPATRICK ROAD WOMBOOTA 2731",
    "locID": "LOC000122055057",
    "tech": "SATELLITE",
    "upgrade": "NULL_NA",
    "gnaf_pid": "GANSW718068059",
    "tech_change_status": "Not Planned"
   }
  },
  {
   "type": "Feature",
   "geometry": {
    "type": "Point",
    "coordinates": [
     144.58570773,
     -35.94650707
    ]
   },
   "properties": {
    "name": "38 FITZPATRICK ROAD WOMBOOTA 2731",
    "locID": "LOC000122057703",
    "tech": "SATELLITE",
    "upgrade": "NULL_NA",
    "gnaf_pid": "GANSW718068060",
    "tech_change_status": "Not Planned"
   }
  },
  {
   "type": "Feature",
   "geometry": {
    "type": "Point",
    "coordinates": [
     144.61007815,
     -35.91469118
    ]
   },
   "properties": {
    "name": "117 GRIFFITH ROAD WOMBOOTA 2731",
    "locID": "LOC000122032161",
    "tech": "SATELLITE",
    "upgrade": "NULL_NA",
    "gnaf_pid": "GANSW718068715",
    "tech_change_status": "Not Planned"
   }
  },
  {
   "type": "Feature",
   "geometry": {
    "type": "Point",
    "coordinates": [
     144.55958454,
     -35.8783896
    ]
   },
   "properties": {
    "name": "254 HOLSCHIER ROAD WOMBOOTA 2731",
    "locID": "LOC000122050763",
    "tech": "NULL",
    "upgrade": "NULL_NA",
    "gnaf_pid": "GANSW718069239",
    "tech_change_status": "Not Planned"
   }
  },
  {
   "type": "Feature",
   "geometry": {
    "type": "Point",
    "coordinates": [
     144.62218463,
     -35.93347613
    ]
   },
   "properties": {
    "name": "207 IVANHOE ROAD WOMBOOTA 2731",
    "locID": "LOC000122047532",
    "tech": "NULL",
    "upgrade": "NULL_NA",
    "gnaf_pid": "GANSW718069547",
    "tech_change_status": "Not Planned"
   }
  },
  {
   "type": "Feature",
   "geometry": {
    "type": "Point",
    "coordinates": [
     144.63251975,
     -35.94592387
    ]
   },
   "properties": {
    "name": "243 LANG ROAD WOMBOOTA 2731",
    "locID": "LOC000122050716",
    "tech": "SATELLITE",
    "upgrade": "NULL_NA",
    "gnaf_pid": "GANSW718070640",
    "tech_change_status": "Not Planned"
   }
  },
  {
   "type": "Feature",
   "geometry": {
    "type": "Point",
    "coordinates": [
     144.63399181,
     -35.93704745
    ]
   },
   "properties": {
    "name": "333 LANG ROAD WOMBOOTA 2731",
    "locID": "LOC000122055137",
    "tech": "SATELLITE",
    "upgrade": "NULL_NA",
    "gnaf_pid": "GANSW718070641",
    "tech_change_status": "Not Planned"
   }
  },
  {
   "type": "Feature",
   "geometry": {
    "type": "Point",
    "coordinates": [
     144.64191455,
     -35.96122386
    ]
   },
   "properties": {
    "name": "94 LANG ROAD WOMBOOTA 2731",
    "locID": "LOC000122073442",
    "tech": "SATELLITE",
    "upgrade": "NULL_NA",
    "gnaf_pid": "GANSW718070642",
    "tech_change_status": "Not Planned"
   }
  },
  {
   "type": "Feature",
   "geometry": {
    "type": "Point",
    "coordinates": [
     144.48108236,
     -35.86720699
    ]
   },
   "properties": {
    "name": "165 MARYWOOD ROAD WOMBOOTA 2731",
    "locID": "LOC000122041258",
    "tech": "NULL",
    "upgrade": "NULL_NA",
    "gnaf_pid": "GANSW718071550",
    "tech_change_status": "Not Planned"
   }
  },
  {
   "type": "Feature",
   "geometry": {
    "type": "Point",
    "coordinates": [
     144.68791011,
     -35.88368516
    ]
   },
   "properties": {
    "name": "200 OGDEN ROAD WOMBOOTA 2731",
    "locID": "LOC000122047453",
    "tech": "SATELLITE",
    "upgrade": "NULL_NA",
    "gnaf_pid": "GANSW718073263",
    "tech_change_status": "Not Planned"
   }
  },
  {
   "type": "Feature",
   "geometry": {
    "type": "Point",
    "coordinates": [
     144.57632956,
     -35.88946486
    ]
   },
   "properties": {
    "name": "142 PARINGAVALE ROAD WOMBOOTA 2731",
    "locID": "LOC000122037817",
    "tech": "SATELLITE",
    "upgrade": "NULL_NA",
    "gnaf_pid": "GANSW718073921",
    "tech_change_status": "Not Planned"
   }
  },
  {
   "type": "Feature",
   "geometry": {
    "type": "Point",
    "coordinates": [
     144.53153919,
     -35.92215819
    ]
   },
   "properties": {
    "name": "1094 PERRICOOTA FOREST ROAD WOMBOOTA 2731",
    "locID": "LOC000122031958",
    "tech": "SATELLITE",
    "upgrade": "NULL_NA",
    "gnaf_pid": "GANSW718074096",
    "tech_change_status": "Not Planned"
   }
  },
  {
   "type": "Feature",
   "geometry": {
    "type": "Point",
    "coordinates": [
     144.57796818,
     -35.93100899
    ]
   },
   "properties": {
    "name": "2747 PERRICOOTA ROAD WOMBOOTA 2731",
    "locID": "LOC000122052913",
    "tech": "SATELLITE",
    "upgrade": "NULL_NA",
    "gnaf_pid": "GANSW718074143",
    "tech_change_status": "Not Planned"
   }
  },
  {
   "type": "Feature",
   "geometry": {
    "type": "Point",
    "coordinates": [
     144.53898621,
     -35.89574608
    ]
   },
   "properties": {
    "name": "3614 PERRICOOTA ROAD WOMBOOTA 2731",
    "locID": "LOC000122057669",
    "tech": "NULL",
    "upgrade": "NULL_NA",
    "gnaf_pid": "GANSW718074146",
    "tech_change_status": "Not Planned"
   }
  },
  {
   "type": "Feature",
   "geometry": {
    "type": "Point",
    "coordinates": [
     144.52957746,
     -35.87550579
    ]
   },
   "properties": {
    "name": "4077 PERRICOOTA ROAD WOMBOOTA 2731",
    "locID": "LOC100078135259",
    "tech": "SATELLITE",
    "upgrade": "NULL_NA",
    "gnaf_pid": "GANSW718074147",
    "tech_change_status": "Not Planned"
   }
  },
  {
   "type": "Feature",
   "geometry": {
    "type": "Point",
    "coordinates": [
     144.57174148,
     -35.86437806
    ]
   },
   "properties": {
    "name": "100 TAMAR ROAD WOMBOOTA 2731",
    "locID": "LOC000122076390",
    "tech": "NULL",
    "upgrade": "NULL_NA",
    "gnaf_pid": "GANSW718077236",
    "tech_change_status": "Not Planned"
   }
  },
  {
   "type": "Feature",
   "geometry": {
    "type": "Point",
    "coordinates": [
     144.56418563,
     -35.86664342
    ]
   },
   "properties": {
    "name": "45 TAMAR ROAD WOMBOOTA 2731",
    "locID": "LOC000122060309",
    "tech": "NULL",
    "upgrade": "NULL_NA",
    "gnaf_pid": "GANSW718077238",
    "tech_change_status": "Not Planned"
   }
  },
  {
   "type": "Feature",
   "geometry": {
    "type": "Point",
    "coordinates": [
     144.67075706,
     -35.88456104
    ]
   },
   "properties": {
    "name": "156 TRANMORE ROAD WOMBOOTA 2731",
    "locID": "LOC000122037957",
    "tech": "SATELLITE",
    "upgrade": "NULL_NA",
    "gnaf_pid": "GANSW718077601",
    "tech_change_status": "Not Planned"
   }
  },
  {
   "type": "Feature",
   "geometry": {
    "type": "Point",
    "coordinates": [
     144.64348137,
     -35.91427626
    ]
   },
   "properties": {
    "name": "614 WOMBOOTA ROAD WOMBOOTA 2731",
    "locID": "LOC000122065111",
    "tech": "SATELLITE",
    "upgrade": "NULL_NA",
    "gnaf_pid": "GANSW718078453",
    "tech_change_status": "Not Planned"
   }
  },
  {
   "type": "Feature",
   "geometry": {
    "type": "Point",
    "coordinates": [
     144.63631229,
     -35.92294902
    ]
   },
   "properties": {
    "name": "659 WOMBOOTA ROAD WOMBOOTA 2731",
    "locID": "LOC000122067489",
    "tech": "NULL",
    "upgrade": "NULL_NA",
    "gnaf_pid": "GANSW718078454",
    "tech_change_status": "Not Planned"
   }
  },
  {
   "type": "Feature",
   "geometry": {
    "type": "Point",
    "coordinates": [
     144.60308978,
     -35.9070732
    ]
   },
   "properties": {
    "name": "2370 MOIRA STREET WOMBOOTA 2731",
    "locID": "LOC000114457920",
    "tech": "SATELLITE",
    "upgrade": "NULL_NA",
    "gnaf_pid": "GANSW718178501",
    "tech_change_status": "Not Planned"
   }
  },
  {
   "type": "Feature",
   "geometry": {
    "type": "Point",
    "coordinates": [
     144.5896624,
     -35.92235769
    ]
   },
   "properties": {
    "name": "2889 PERRICOOTA ROAD WOMBOOTA 2731",
    "locID": "LOC000148078835",
    "tech": "SATELLITE",
    "upgrade": "NULL_NA",
    "gnaf_pid": "GANSW718433631",
    "tech_change_status": "Not Planned"
   }
  },
  {
   "type": "Feature",
   "geometry": {
    "type": "Point",
    "coordinates": [
     144.59931989,
     -35.90996303
    ]
   },
   "properties": {
    "name": "LOT 4 PERRICOOTA STREET WOMBOOTA 2731",
    "locID": "LOC000148078835",
    "tech": "SATELLITE",
    "upgrade": "NULL_NA",
    "gnaf_pid": "GANSW718578028",
    "tech_change_status": "Not Planned"
   }
  },
  {
   "type": "Feature",
   "geometry": {
    "type": "Point",
    "coordinates": [
     144.65175648,
     -35.96875785
    ]
   },
   "properties": {
    "name": "111 DEAN ROAD WOMBOOTA 2731",
    "locID": "LOC100078136096",
    "tech": "WIRELESS",
    "upgrade": "NULL_NA",
    "gnaf_pid": "GANSW718809845",
    "tech_change_status": "Not Planned",
    "program_type": "Fixed Wireless and Satellite Upgrade Program",
    "target_eligibility_quarter": "NA"
   }
  },
  {
   "type": "Feature",
   "geometry": {
    "type": "Point",
    "coordinates": [
     144.59931989,
     -35.90996303
    ]
   },
   "properties": {
    "name": "LOT 2 PERRICOOTA STREET WOMBOOTA 2731",
    "locID": "LOC100055267171",
    "tech": "FTTN",
    "upgrade": "NULL_NA",
    "gnaf_pid": "GANSW718859535",
    "tech_change_status": "Not Planned"
   }
  },
  {
   "type": "Feature",
   "geometry": {
    "type": "Point",
    "coordinates": [
     144.59857612,
     -35.91404147
    ]
   },
   "properties": {
    "name": "16 GRIFFITH ROAD WOMBOOTA 2731",
    "locID": "LOC100078135547",
    "tech": "NULL",
    "upgrade": "NULL_NA",
    "gnaf_pid": "GANSW719236205",
    "tech_change_status": "Not Planned"
   }
  },
  {
   "type": "Feature",
   "geometry": {
    "type": "Point",
    "coordinates": [
     144.63776442,
     -35.96256681
    ]
   },
   "properties": {
    "name": "93 LANG ROAD WOMBOOTA 2731",
    "locID": "LOC000150843305",
    "tech": "WIRELESS",
    "upgrade": "NULL_NA",
    "gnaf_pid": "GANSW719666024",
    "tech_change_status": "Not Planned",
    "program_type": "Fixed Wireless and Satellite Upgrade Program",
    "target_eligibility_quarter": "Dec 2024"
   }
  },
  {
   "type": "Feature",
   "geometry": {
    "type": "Point",
    "coordinates": [
     144.59875541,
     -35.90818144
    ]
   },
   "properties": {
    "name": "LOT 5 THULE STREET WOMBOOTA 2731",
    "locID": "LOC000142982997",
    "tech": "SATELLITE",
    "upgrade": "NULL_NA",
    "gnaf_pid": "GANSW719837314",
    "tech_change_status": "Not Planned"
   }
  },
  {
   "type": "Feature",
   "geometry": {
    "type": "Point",
    "coordinates": [
     144.52702161,
     -35.88764347
    ]
   },
   "properties": {
    "name": "2660 PERRICOOTA ROAD WOMBOOTA 2731",
    "locID": "LOC000178113978",
    "tech": "WIRELESS",
    "upgrade": "NULL_NA",
    "gnaf_pid": "GANSW720533024",
    "tech_change_status": "Not Planned",
    "program_type": "Fixed Wireless and Satellite Upgrade Program",
    "target_eligibility_quarter": "Dec 2024"
   }
  },
  {
   "type": "Feature",
   "geometry": {
    "type": "Point",
    "coordinates": [
     144.59975643,
     -35.91130687
    ]
   },
   "properties": {
    "name": "57 PERRICOOTA STREET WOMBOOTA 2731",
    "locID": "LOC100086091644",
    "tech": "NULL",
    "upgrade": "NULL_NA",
    "gnaf_pid": "GANSW721000124",
    "tech_change_status": "Not Planned"
   }
  },
  {
   "type": "Feature",
   "geometry": {
    "type": "Point",
    "coordinates": [
     144.64928301,
     -35.96636544
    ]
   },
   "properties": {
    "name": "92 LANG ROAD WOMBOOTA 2731",
    "locID": "LOC100085276037",
    "tech": "SATELLITE",
    "upgrade": "NULL_NA",
    "gnaf_pid": "GANSW721499380",
    "tech_change_status": "Not Planned"
   }
  }
 ]
}