{
 "type": "FeatureCollection",
 "generated": "2023-12-28T03:55:55.989458",
 "suburb": "WONGO CREEK",
 "features": [
  {
   "type": "Feature",
   "geometry": {
    "type": "Point",
    "coordinates": [
     150.5709946,
     -30.69593317
    ]
   },
   "properties": {
    "name": "653 BORAH ROAD WONGO CREEK 2346",
    "locID": "ChIJl5z_0NGJoGsRGvUIVAsfDBA",
    "tech": "SATELLITE",
    "upgrade": "UNKNOWN",
    "gnaf_pid": "GANSW717473355"
   }
  },
  {
   "type": "Feature",
   "geometry": {
    "type": "Point",
    "coordinates": [
     150.51178457,
     -30.75413385
    ]
   },
   "properties": {
    "name": "1160 CORELLA ROAD WONGO CREEK 2346",
    "locID": "LOC000011766713",
    "tech": "SATELLITE",
    "upgrade": "NULL_NA",
    "gnaf_pid": "GANSW717475261"
   }
  },
  {
   "type": "Feature",
   "geometry": {
    "type": "Point",
    "coordinates": [
     150.51178457,
     -30.75413385
    ]
   },
   "properties": {
    "name": "1326 CORELLA ROAD WONGO CREEK 2346",
    "locID": "ChIJT49BfWqGoGsRK4pCXCHZsyk",
    "tech": "SATELLITE",
    "upgrade": "UNKNOWN",
    "gnaf_pid": "GANSW717475262"
   }
  },
  {
   "type": "Feature",
   "geometry": {
    "type": "Point",
    "coordinates": [
     150.51178457,
     -30.75413385
    ]
   },
   "properties": {
    "name": "1501 CORELLA ROAD WONGO CREEK 2346",
    "locID": "ChIJT49BfWqGoGsRV8kgbQDegjs",
    "tech": "SATELLITE",
    "upgrade": "UNKNOWN",
    "gnaf_pid": "GANSW717475263"
   }
  },
  {
   "type": "Feature",
   "geometry": {
    "type": "Point",
    "coordinates": [
     150.51178457,
     -30.75413385
    ]
   },
   "properties": {
    "name": "1538 CORELLA ROAD WONGO CREEK 2346",
    "locID": "ChIJT49BfWqGoGsR1hpNgHDZC7M",
    "tech": "SATELLITE",
    "upgrade": "UNKNOWN",
    "gnaf_pid": "GANSW717475264"
   }
  },
  {
   "type": "Feature",
   "geometry": {
    "type": "Point",
    "coordinates": [
     150.51178457,
     -30.75413385
    ]
   },
   "properties": {
    "name": "1654 CORELLA ROAD WONGO CREEK 2346",
    "locID": "LOC000175039017",
    "tech": "SATELLITE",
    "upgrade": "NULL_NA",
    "gnaf_pid": "GANSW717475265"
   }
  },
  {
   "type": "Feature",
   "geometry": {
    "type": "Point",
    "coordinates": [
     150.51178457,
     -30.75413385
    ]
   },
   "properties": {
    "name": "1854 CORELLA ROAD WONGO CREEK 2346",
    "locID": "LOC000086917897",
    "tech": "SATELLITE",
    "upgrade": "NULL_NA",
    "gnaf_pid": "GANSW717475266"
   }
  },
  {
   "type": "Feature",
   "geometry": {
    "type": "Point",
    "coordinates": [
     150.48937572,
     -30.76685049
    ]
   },
   "properties": {
    "name": "1863 CORELLA ROAD WONGO CREEK 2346",
    "locID": "LOC000079044664",
    "tech": "SATELLITE",
    "upgrade": "NULL_NA",
    "gnaf_pid": "GANSW717475267"
   }
  },
  {
   "type": "Feature",
   "geometry": {
    "type": "Point",
    "coordinates": [
     150.51178457,
     -30.75413385
    ]
   },
   "properties": {
    "name": "2042 CORELLA ROAD WONGO CREEK 2346",
    "locID": "ChIJT49BfWqGoGsRkj3gR6aVqDA",
    "tech": "SATELLITE",
    "upgrade": "UNKNOWN",
    "gnaf_pid": "GANSW717475268"
   }
  },
  {
   "type": "Feature",
   "geometry": {
    "type": "Point",
    "coordinates": [
     150.53660418,
     -30.74568445
    ]
   },
   "properties": {
    "name": "156 GLENARA PARK ROAD WONGO CREEK 2346",
    "locID": "LOC000055859320",
    "tech": "WIRELESS",
    "upgrade": "NULL_NA",
    "gnaf_pid": "GANSW717476879"
   }
  },
  {
   "type": "Feature",
   "geometry": {
    "type": "Point",
    "coordinates": [
     150.53093049,
     -30.76541187
    ]
   },
   "properties": {
    "name": "100 MILLIWINDI LANE WONGO CREEK 2346",
    "locID": "LOC000002177767",
    "tech": "SATELLITE",
    "upgrade": "NULL_NA",
    "gnaf_pid": "GANSW717480449"
   }
  },
  {
   "type": "Feature",
   "geometry": {
    "type": "Point",
    "coordinates": [
     150.51310219,
     -30.72994265
    ]
   },
   "properties": {
    "name": "1033 PILLERINE LANE WONGO CREEK 2346",
    "locID": "ChIJAcHC8Z-IoGsRrXK75fOxKnM",
    "tech": "SATELLITE",
    "upgrade": "UNKNOWN",
    "gnaf_pid": "GANSW717482497"
   }
  },
  {
   "type": "Feature",
   "geometry": {
    "type": "Point",
    "coordinates": [
     150.51310219,
     -30.72994265
    ]
   },
   "properties": {
    "name": "442 PILLERINE LANE WONGO CREEK 2346",
    "locID": "ChIJAcHC8Z-IoGsR3Vv-Xxq126Q",
    "tech": "SATELLITE",
    "upgrade": "UNKNOWN",
    "gnaf_pid": "GANSW717482498"
   }
  },
  {
   "type": "Feature",
   "geometry": {
    "type": "Point",
    "coordinates": [
     150.51310219,
     -30.72994265
    ]
   },
   "properties": {
    "name": "536 PILLERINE LANE WONGO CREEK 2346",
    "locID": "ChIJAcHC8Z-IoGsRj3xDYd8SzYA",
    "tech": "SATELLITE",
    "upgrade": "UNKNOWN",
    "gnaf_pid": "GANSW717482499"
   }
  },
  {
   "type": "Feature",
   "geometry": {
    "type": "Point",
    "coordinates": [
     150.51310219,
     -30.72994265
    ]
   },
   "properties": {
    "name": "902 PILLERINE LANE WONGO CREEK 2346",
    "locID": "ChIJAcHC8Z-IoGsRTboLVGVQKWo",
    "tech": "SATELLITE",
    "upgrade": "UNKNOWN",
    "gnaf_pid": "GANSW717482500"
   }
  },
  {
   "type": "Feature",
   "geometry": {
    "type": "Point",
    "coordinates": [
     150.51723063,
     -30.7073666
    ]
   },
   "properties": {
    "name": "1757 RANGARI ROAD WONGO CREEK 2346",
    "locID": "ChIJQXlCkeuIoGsRmPJjHJZPLd0",
    "tech": "SATELLITE",
    "upgrade": "UNKNOWN",
    "gnaf_pid": "GANSW717483107"
   }
  },
  {
   "type": "Feature",
   "geometry": {
    "type": "Point",
    "coordinates": [
     150.51723063,
     -30.7073666
    ]
   },
   "properties": {
    "name": "1828 RANGARI ROAD WONGO CREEK 2346",
    "locID": "ChIJQXlCkeuIoGsRgWZW7HUUChQ",
    "tech": "SATELLITE",
    "upgrade": "UNKNOWN",
    "gnaf_pid": "GANSW717483108"
   }
  },
  {
   "type": "Feature",
   "geometry": {
    "type": "Point",
    "coordinates": [
     150.51723063,
     -30.7073666
    ]
   },
   "properties": {
    "name": "1924 RANGARI ROAD WONGO CREEK 2346",
    "locID": "ChIJQXlCkeuIoGsRWydN6Bqysoc",
    "tech": "SATELLITE",
    "upgrade": "UNKNOWN",
    "gnaf_pid": "GANSW717483109"
   }
  },
  {
   "type": "Feature",
   "geometry": {
    "type": "Point",
    "coordinates": [
     150.51723063,
     -30.7073666
    ]
   },
   "properties": {
    "name": "2124 RANGARI ROAD WONGO CREEK 2346",
    "locID": "ChIJQXlCkeuIoGsRdJQhrpDiwUU",
    "tech": "SATELLITE",
    "upgrade": "UNKNOWN",
    "gnaf_pid": "GANSW717483110"
   }
  },
  {
   "type": "Feature",
   "geometry": {
    "type": "Point",
    "coordinates": [
     150.48940669,
     -30.6940109
    ]
   },
   "properties": {
    "name": "2362 RANGARI ROAD WONGO CREEK 2346",
    "locID": "LOC100078048937",
    "tech": "SATELLITE",
    "upgrade": "NULL_NA",
    "gnaf_pid": "GANSW717483111"
   }
  },
  {
   "type": "Feature",
   "geometry": {
    "type": "Point",
    "coordinates": [
     150.51723063,
     -30.7073666
    ]
   },
   "properties": {
    "name": "2553 RANGARI ROAD WONGO CREEK 2346",
    "locID": "ChIJQXlCkeuIoGsRLVXC9y3K2o0",
    "tech": "SATELLITE",
    "upgrade": "UNKNOWN",
    "gnaf_pid": "GANSW717483112"
   }
  },
  {
   "type": "Feature",
   "geometry": {
    "type": "Point",
    "coordinates": [
     150.51723063,
     -30.7073666
    ]
   },
   "properties": {
    "name": "2629 RANGARI ROAD WONGO CREEK 2346",
    "locID": "LOC000037522246",
    "tech": "SATELLITE",
    "upgrade": "NULL_NA",
    "gnaf_pid": "GANSW717483113"
   }
  },
  {
   "type": "Feature",
   "geometry": {
    "type": "Point",
    "coordinates": [
     150.51136998,
     -30.69475589
    ]
   },
   "properties": {
    "name": "208 MARATHON ROAD WONGO CREEK 2346",
    "locID": "LOC000062029310",
    "tech": "SATELLITE",
    "upgrade": "NULL_NA",
    "gnaf_pid": "GANSW717821038"
   }
  },
  {
   "type": "Feature",
   "geometry": {
    "type": "Point",
    "coordinates": [
     150.51723063,
     -30.7073666
    ]
   },
   "properties": {
    "name": "1 RANGARI ROAD WONGO CREEK 2346",
    "locID": "ChIJQXlCkeuIoGsRnyYwFSHc7Jo",
    "tech": "SATELLITE",
    "upgrade": "UNKNOWN",
    "gnaf_pid": "GANSW718172157"
   }
  }
 ]
}