{
 "type": "FeatureCollection",
 "generated": "2024-07-30T07:01:16.864710",
 "suburb": "WONGO CREEK",
 "features": [
  {
   "type": "Feature",
   "geometry": {
    "type": "Point",
    "coordinates": [
     150.51178457,
     -30.75413385
    ]
   },
   "properties": {
    "name": "1160 CORELLA ROAD WONGO CREEK 2346",
    "locID": "LOC000011766713",
    "tech": "SATELLITE",
    "upgrade": "NULL_NA",
    "gnaf_pid": "GANSW717475261",
    "tech_change_status": "Not Planned"
   }
  },
  {
   "type": "Feature",
   "geometry": {
    "type": "Point",
    "coordinates": [
     150.48191366,
     -30.75575517
    ]
   },
   "properties": {
    "name": "1654 CORELLA ROAD WONGO CREEK 2346",
    "locID": "LOC000175039017",
    "tech": "WIRELESS",
    "upgrade": "NULL_NA",
    "gnaf_pid": "GANSW717475265",
    "tech_change_status": "Not Planned",
    "program_type": "Fixed Wireless and Satellite Upgrade Program",
    "target_eligibility_quarter": "NA"
   }
  },
  {
   "type": "Feature",
   "geometry": {
    "type": "Point",
    "coordinates": [
     150.51178457,
     -30.75413385
    ]
   },
   "properties": {
    "name": "1854 CORELLA ROAD WONGO CREEK 2346",
    "locID": "LOC000086917897",
    "tech": "SATELLITE",
    "upgrade": "NULL_NA",
    "gnaf_pid": "GANSW717475266",
    "tech_change_status": "Not Planned"
   }
  },
  {
   "type": "Feature",
   "geometry": {
    "type": "Point",
    "coordinates": [
     150.48937572,
     -30.76685049
    ]
   },
   "properties": {
    "name": "1863 CORELLA ROAD WONGO CREEK 2346",
    "locID": "LOC000079044664",
    "tech": "SATELLITE",
    "upgrade": "NULL_NA",
    "gnaf_pid": "GANSW717475267",
    "tech_change_status": "Not Planned"
   }
  },
  {
   "type": "Feature",
   "geometry": {
    "type": "Point",
    "coordinates": [
     150.53660418,
     -30.74568445
    ]
   },
   "properties": {
    "name": "156 GLENARA PARK ROAD WONGO CREEK 2346",
    "locID": "LOC000055859320",
    "tech": "WIRELESS",
    "upgrade": "NULL_NA",
    "gnaf_pid": "GANSW717476879",
    "tech_change_status": "Not Planned",
    "program_type": "Fixed Wireless and Satellite Upgrade Program",
    "target_eligibility_quarter": "NA"
   }
  },
  {
   "type": "Feature",
   "geometry": {
    "type": "Point",
    "coordinates": [
     150.53093049,
     -30.76541187
    ]
   },
   "properties": {
    "name": "100 MILLIWINDI LANE WONGO CREEK 2346",
    "locID": "LOC000002177767",
    "tech": "WIRELESS",
    "upgrade": "NULL_NA",
    "gnaf_pid": "GANSW717480449",
    "tech_change_status": "Not Planned",
    "program_type": "Fixed Wireless and Satellite Upgrade Program",
    "target_eligibility_quarter": "NA"
   }
  },
  {
   "type": "Feature",
   "geometry": {
    "type": "Point",
    "coordinates": [
     150.48940669,
     -30.6940109
    ]
   },
   "properties": {
    "name": "2362 RANGARI ROAD WONGO CREEK 2346",
    "locID": "LOC100078048937",
    "tech": "SATELLITE",
    "upgrade": "NULL_NA",
    "gnaf_pid": "GANSW717483111",
    "tech_change_status": "Not Planned"
   }
  },
  {
   "type": "Feature",
   "geometry": {
    "type": "Point",
    "coordinates": [
     150.51723096,
     -30.7073666
    ]
   },
   "properties": {
    "name": "2629 RANGARI ROAD WONGO CREEK 2346",
    "locID": "LOC000037522246",
    "tech": "SATELLITE",
    "upgrade": "NULL_NA",
    "gnaf_pid": "GANSW717483113",
    "tech_change_status": "Not Planned"
   }
  },
  {
   "type": "Feature",
   "geometry": {
    "type": "Point",
    "coordinates": [
     150.51136998,
     -30.69475589
    ]
   },
   "properties": {
    "name": "208 MARATHON ROAD WONGO CREEK 2346",
    "locID": "LOC000062029310",
    "tech": "SATELLITE",
    "upgrade": "NULL_NA",
    "gnaf_pid": "GANSW717821038",
    "tech_change_status": "Not Planned"
   }
  }
 ]
}