{
 "type": "FeatureCollection",
 "generated": "2024-03-07T05:27:42.867102",
 "suburb": "WONGO CREEK",
 "features": [
  {
   "type": "Feature",
   "geometry": {
    "type": "Point",
    "coordinates": [
     150.51178457,
     -30.75413385
    ]
   },
   "properties": {
    "name": "1160 CORELLA ROAD WONGO CREEK 2346",
    "locID": "LOC000011766713",
    "tech": "SATELLITE",
    "upgrade": "NULL_NA",
    "gnaf_pid": "GANSW717475261"
   }
  },
  {
   "type": "Feature",
   "geometry": {
    "type": "Point",
    "coordinates": [
     150.51178457,
     -30.75413385
    ]
   },
   "properties": {
    "name": "1654 CORELLA ROAD WONGO CREEK 2346",
    "locID": "LOC000175039017",
    "tech": "SATELLITE",
    "upgrade": "NULL_NA",
    "gnaf_pid": "GANSW717475265"
   }
  },
  {
   "type": "Feature",
   "geometry": {
    "type": "Point",
    "coordinates": [
     150.51178457,
     -30.75413385
    ]
   },
   "properties": {
    "name": "1854 CORELLA ROAD WONGO CREEK 2346",
    "locID": "LOC000086917897",
    "tech": "SATELLITE",
    "upgrade": "NULL_NA",
    "gnaf_pid": "GANSW717475266"
   }
  },
  {
   "type": "Feature",
   "geometry": {
    "type": "Point",
    "coordinates": [
     150.48937572,
     -30.76685049
    ]
   },
   "properties": {
    "name": "1863 CORELLA ROAD WONGO CREEK 2346",
    "locID": "LOC000079044664",
    "tech": "SATELLITE",
    "upgrade": "NULL_NA",
    "gnaf_pid": "GANSW717475267"
   }
  },
  {
   "type": "Feature",
   "geometry": {
    "type": "Point",
    "coordinates": [
     150.53660418,
     -30.74568445
    ]
   },
   "properties": {
    "name": "156 GLENARA PARK ROAD WONGO CREEK 2346",
    "locID": "LOC000055859320",
    "tech": "WIRELESS",
    "upgrade": "NULL_NA",
    "gnaf_pid": "GANSW717476879"
   }
  },
  {
   "type": "Feature",
   "geometry": {
    "type": "Point",
    "coordinates": [
     150.53093049,
     -30.76541187
    ]
   },
   "properties": {
    "name": "100 MILLIWINDI LANE WONGO CREEK 2346",
    "locID": "LOC000002177767",
    "tech": "SATELLITE",
    "upgrade": "NULL_NA",
    "gnaf_pid": "GANSW717480449"
   }
  },
  {
   "type": "Feature",
   "geometry": {
    "type": "Point",
    "coordinates": [
     150.48940669,
     -30.6940109
    ]
   },
   "properties": {
    "name": "2362 RANGARI ROAD WONGO CREEK 2346",
    "locID": "LOC100078048937",
    "tech": "SATELLITE",
    "upgrade": "NULL_NA",
    "gnaf_pid": "GANSW717483111"
   }
  },
  {
   "type": "Feature",
   "geometry": {
    "type": "Point",
    "coordinates": [
     150.51723063,
     -30.7073666
    ]
   },
   "properties": {
    "name": "2629 RANGARI ROAD WONGO CREEK 2346",
    "locID": "LOC000037522246",
    "tech": "SATELLITE",
    "upgrade": "NULL_NA",
    "gnaf_pid": "GANSW717483113"
   }
  },
  {
   "type": "Feature",
   "geometry": {
    "type": "Point",
    "coordinates": [
     150.51136998,
     -30.69475589
    ]
   },
   "properties": {
    "name": "208 MARATHON ROAD WONGO CREEK 2346",
    "locID": "LOC000062029310",
    "tech": "SATELLITE",
    "upgrade": "NULL_NA",
    "gnaf_pid": "GANSW717821038"
   }
  }
 ]
}