{
 "type": "FeatureCollection",
 "generated": "2024-01-30T09:28:24.449117",
 "suburb": "WOODLAWN",
 "features": [
  {
   "type": "Feature",
   "geometry": {
    "type": "Point",
    "coordinates": [
     153.32135317,
     -28.75492873
    ]
   },
   "properties": {
    "name": "211 NUMULGI ROAD WOODLAWN 2480",
    "locID": "LOC000073570375",
    "tech": "WIRELESS",
    "upgrade": "NULL_NA",
    "gnaf_pid": "GANSW706326897"
   }
  },
  {
   "type": "Feature",
   "geometry": {
    "type": "Point",
    "coordinates": [
     153.32253202,
     -28.77295547
    ]
   },
   "properties": {
    "name": "34 NUMULGI ROAD WOODLAWN 2480",
    "locID": "LOC000035180401",
    "tech": "WIRELESS",
    "upgrade": "NULL_NA",
    "gnaf_pid": "GANSW706326898"
   }
  },
  {
   "type": "Feature",
   "geometry": {
    "type": "Point",
    "coordinates": [
     153.31524654,
     -28.77210148
    ]
   },
   "properties": {
    "name": "39 NUMULGI ROAD WOODLAWN 2480",
    "locID": "LOC000006576252",
    "tech": "SATELLITE",
    "upgrade": "NULL_NA",
    "gnaf_pid": "GANSW706326899"
   }
  },
  {
   "type": "Feature",
   "geometry": {
    "type": "Point",
    "coordinates": [
     153.31880088,
     -28.77063958
    ]
   },
   "properties": {
    "name": "67 NUMULGI ROAD WOODLAWN 2480",
    "locID": "LOC000025039305",
    "tech": "WIRELESS",
    "upgrade": "NULL_NA",
    "gnaf_pid": "GANSW706326900"
   }
  },
  {
   "type": "Feature",
   "geometry": {
    "type": "Point",
    "coordinates": [
     153.3270835,
     -28.76747052
    ]
   },
   "properties": {
    "name": "79 NUMULGI ROAD WOODLAWN 2480",
    "locID": "LOC000102281323",
    "tech": "WIRELESS",
    "upgrade": "NULL_NA",
    "gnaf_pid": "GANSW706326901"
   }
  },
  {
   "type": "Feature",
   "geometry": {
    "type": "Point",
    "coordinates": [
     153.31478553,
     -28.76931096
    ]
   },
   "properties": {
    "name": "26D GRIFFIN ROAD WOODLAWN 2480",
    "locID": "LOC000022160377",
    "tech": "WIRELESS",
    "upgrade": "NULL_NA",
    "gnaf_pid": "GANSW706326930"
   }
  },
  {
   "type": "Feature",
   "geometry": {
    "type": "Point",
    "coordinates": [
     153.31708025,
     -28.75783831
    ]
   },
   "properties": {
    "name": "188 NUMULGI ROAD WOODLAWN 2480",
    "locID": "LOC000064946460",
    "tech": "WIRELESS",
    "upgrade": "NULL_NA",
    "gnaf_pid": "GANSW706326936"
   }
  },
  {
   "type": "Feature",
   "geometry": {
    "type": "Point",
    "coordinates": [
     153.30961795,
     -28.77621203
    ]
   },
   "properties": {
    "name": "298 WOODLAWN ROAD WOODLAWN 2480",
    "locID": "LOC000082191209",
    "tech": "WIRELESS",
    "upgrade": "NULL_NA",
    "gnaf_pid": "GANSW706326943"
   }
  },
  {
   "type": "Feature",
   "geometry": {
    "type": "Point",
    "coordinates": [
     153.3204705,
     -28.77490683
    ]
   },
   "properties": {
    "name": "408 WOODLAWN ROAD WOODLAWN 2480",
    "locID": "ChIJH0aWGTackGsRK400KnLd4oQ",
    "tech": "WIRELESS",
    "upgrade": "UNKNOWN",
    "gnaf_pid": "GANSW706326945"
   }
  },
  {
   "type": "Feature",
   "geometry": {
    "type": "Point",
    "coordinates": [
     153.32546765,
     -28.77705892
    ]
   },
   "properties": {
    "name": "433A WOODLAWN ROAD WOODLAWN 2480",
    "locID": "LOC000076078531",
    "tech": "WIRELESS",
    "upgrade": "NULL_NA",
    "gnaf_pid": "GANSW706326946"
   }
  },
  {
   "type": "Feature",
   "geometry": {
    "type": "Point",
    "coordinates": [
     153.32018871,
     -28.76067106
    ]
   },
   "properties": {
    "name": "80A NUMULGI ROAD WOODLAWN 2480",
    "locID": "ChIJ3clBi0OckGsRc9wN34NxPwY",
    "tech": "WIRELESS",
    "upgrade": "UNKNOWN",
    "gnaf_pid": "GANSW706489553"
   }
  },
  {
   "type": "Feature",
   "geometry": {
    "type": "Point",
    "coordinates": [
     153.32464374,
     -28.75265948
    ]
   },
   "properties": {
    "name": "288 NUMULGI ROAD WOODLAWN 2480",
    "locID": "LOC000050457675",
    "tech": "WIRELESS",
    "upgrade": "NULL_NA",
    "gnaf_pid": "GANSW706489555"
   }
  },
  {
   "type": "Feature",
   "geometry": {
    "type": "Point",
    "coordinates": [
     153.32403778,
     -28.75530698
    ]
   },
   "properties": {
    "name": "240 NUMULGI ROAD WOODLAWN 2480",
    "locID": "LOC100078036023",
    "tech": "SATELLITE",
    "upgrade": "NULL_NA",
    "gnaf_pid": "GANSW706489556"
   }
  },
  {
   "type": "Feature",
   "geometry": {
    "type": "Point",
    "coordinates": [
     153.32326436,
     -28.75883555
    ]
   },
   "properties": {
    "name": "212 NUMULGI ROAD WOODLAWN 2480",
    "locID": "LOC000008306009",
    "tech": "WIRELESS",
    "upgrade": "NULL_NA",
    "gnaf_pid": "GANSW706489557"
   }
  },
  {
   "type": "Feature",
   "geometry": {
    "type": "Point",
    "coordinates": [
     153.318401,
     -28.77699181
    ]
   },
   "properties": {
    "name": "370 WOODLAWN ROAD WOODLAWN 2480",
    "locID": "LOC000051595607",
    "tech": "WIRELESS",
    "upgrade": "NULL_NA",
    "gnaf_pid": "GANSW717008795"
   }
  },
  {
   "type": "Feature",
   "geometry": {
    "type": "Point",
    "coordinates": [
     153.31432378,
     -28.77887258
    ]
   },
   "properties": {
    "name": "409 WOODLAWN ROAD WOODLAWN 2480",
    "locID": "LOC000097495786",
    "tech": "WIRELESS",
    "upgrade": "NULL_NA",
    "gnaf_pid": "GANSW717008796"
   }
  },
  {
   "type": "Feature",
   "geometry": {
    "type": "Point",
    "coordinates": [
     153.31478553,
     -28.76931096
    ]
   },
   "properties": {
    "name": "26 GRIFFIN ROAD WOODLAWN 2480",
    "locID": "LOC000022292360",
    "tech": "WIRELESS",
    "upgrade": "NULL_NA",
    "gnaf_pid": "GANSW718053138"
   }
  },
  {
   "type": "Feature",
   "geometry": {
    "type": "Point",
    "coordinates": [
     153.31478553,
     -28.76931096
    ]
   },
   "properties": {
    "name": "26A GRIFFIN ROAD WOODLAWN 2480",
    "locID": "LOC000022155686",
    "tech": "WIRELESS",
    "upgrade": "NULL_NA",
    "gnaf_pid": "GANSW718053139"
   }
  },
  {
   "type": "Feature",
   "geometry": {
    "type": "Point",
    "coordinates": [
     153.31478553,
     -28.76931096
    ]
   },
   "properties": {
    "name": "26B GRIFFIN ROAD WOODLAWN 2480",
    "locID": "ChIJJbD98jqckGsRKOCAguKQrOg",
    "tech": "WIRELESS",
    "upgrade": "UNKNOWN",
    "gnaf_pid": "GANSW718053140"
   }
  },
  {
   "type": "Feature",
   "geometry": {
    "type": "Point",
    "coordinates": [
     153.31478553,
     -28.76931096
    ]
   },
   "properties": {
    "name": "26C GRIFFIN ROAD WOODLAWN 2480",
    "locID": "ChIJpWRTKDuckGsRDzHr8VrsGAY",
    "tech": "WIRELESS",
    "upgrade": "UNKNOWN",
    "gnaf_pid": "GANSW718053141"
   }
  },
  {
   "type": "Feature",
   "geometry": {
    "type": "Point",
    "coordinates": [
     153.31478553,
     -28.76931096
    ]
   },
   "properties": {
    "name": "26E GRIFFIN ROAD WOODLAWN 2480",
    "locID": "LOC000021955537",
    "tech": "WIRELESS",
    "upgrade": "NULL_NA",
    "gnaf_pid": "GANSW718053142"
   }
  },
  {
   "type": "Feature",
   "geometry": {
    "type": "Point",
    "coordinates": [
     153.31478553,
     -28.76931096
    ]
   },
   "properties": {
    "name": "26F GRIFFIN ROAD WOODLAWN 2480",
    "locID": "LOC000022328604",
    "tech": "WIRELESS",
    "upgrade": "NULL_NA",
    "gnaf_pid": "GANSW718053143"
   }
  },
  {
   "type": "Feature",
   "geometry": {
    "type": "Point",
    "coordinates": [
     153.31883281,
     -28.76016579
    ]
   },
   "properties": {
    "name": "153 NUMULGI ROAD WOODLAWN 2480",
    "locID": "ChIJ1YH7zz-ckGsRcsqVZSPouCU",
    "tech": "WIRELESS",
    "upgrade": "UNKNOWN",
    "gnaf_pid": "GANSW718056587"
   }
  },
  {
   "type": "Feature",
   "geometry": {
    "type": "Point",
    "coordinates": [
     153.31789778,
     -28.77382397
    ]
   },
   "properties": {
    "name": "35 NUMULGI ROAD WOODLAWN 2480",
    "locID": "ChIJ_aQ69DackGsRY59emSD5DyE",
    "tech": "WIRELESS",
    "upgrade": "UNKNOWN",
    "gnaf_pid": "GANSW718056588"
   }
  },
  {
   "type": "Feature",
   "geometry": {
    "type": "Point",
    "coordinates": [
     153.32018871,
     -28.76067106
    ]
   },
   "properties": {
    "name": "84 NUMULGI ROAD WOODLAWN 2480",
    "locID": "ChIJnyWzwEackGsR0KJ4g8U0Y_w",
    "tech": "WIRELESS",
    "upgrade": "UNKNOWN",
    "gnaf_pid": "GANSW718056589"
   }
  },
  {
   "type": "Feature",
   "geometry": {
    "type": "Point",
    "coordinates": [
     153.32018871,
     -28.76067106
    ]
   },
   "properties": {
    "name": "88 NUMULGI ROAD WOODLAWN 2480",
    "locID": "ChIJJ9AzXjickGsRGTCteUlbEJk",
    "tech": "WIRELESS",
    "upgrade": "UNKNOWN",
    "gnaf_pid": "GANSW718056590"
   }
  },
  {
   "type": "Feature",
   "geometry": {
    "type": "Point",
    "coordinates": [
     153.32018871,
     -28.76067106
    ]
   },
   "properties": {
    "name": "88A NUMULGI ROAD WOODLAWN 2480",
    "locID": "ChIJh38YyUackGsRMvqRK0cyavE",
    "tech": "WIRELESS",
    "upgrade": "UNKNOWN",
    "gnaf_pid": "GANSW718056591"
   }
  },
  {
   "type": "Feature",
   "geometry": {
    "type": "Point",
    "coordinates": [
     153.32018871,
     -28.76067106
    ]
   },
   "properties": {
    "name": "90 NUMULGI ROAD WOODLAWN 2480",
    "locID": "ChIJqZrlyEackGsRltmJkSvFQyQ",
    "tech": "WIRELESS",
    "upgrade": "UNKNOWN",
    "gnaf_pid": "GANSW718056592"
   }
  },
  {
   "type": "Feature",
   "geometry": {
    "type": "Point",
    "coordinates": [
     153.32018871,
     -28.76067106
    ]
   },
   "properties": {
    "name": "95 NUMULGI ROAD WOODLAWN 2480",
    "locID": "Eis5NSBOdW11bGdpIFJkLCBXb29kbGF3biBOU1cgMjQ4MCwgQXVzdHJhbGlhIjASLgoUChIJ74wTsmqckGsR-6a_UsuDdmMQXyoUChIJEdw6D0CckGsR_QOkav_OnuU",
    "tech": "WIRELESS",
    "upgrade": "UNKNOWN",
    "gnaf_pid": "GANSW718056593"
   }
  },
  {
   "type": "Feature",
   "geometry": {
    "type": "Point",
    "coordinates": [
     153.31145978,
     -28.7774859
    ]
   },
   "properties": {
    "name": "310A WOODLAWN ROAD WOODLAWN 2480",
    "locID": "LOC000065006138",
    "tech": "WIRELESS",
    "upgrade": "NULL_NA",
    "gnaf_pid": "GANSW718061531"
   }
  },
  {
   "type": "Feature",
   "geometry": {
    "type": "Point",
    "coordinates": [
     153.31514321,
     -28.77621047
    ]
   },
   "properties": {
    "name": "344 WOODLAWN ROAD WOODLAWN 2480",
    "locID": "ChIJoyFP7TOckGsRp0tDt53GGFQ",
    "tech": "WIRELESS",
    "upgrade": "UNKNOWN",
    "gnaf_pid": "GANSW718061532"
   }
  },
  {
   "type": "Feature",
   "geometry": {
    "type": "Point",
    "coordinates": [
     153.31432378,
     -28.77887258
    ]
   },
   "properties": {
    "name": "407 WOODLAWN ROAD WOODLAWN 2480",
    "locID": "ChIJoR7vQjOckGsR6AEiDKBWBl0",
    "tech": "WIRELESS",
    "upgrade": "UNKNOWN",
    "gnaf_pid": "GANSW718061533"
   }
  },
  {
   "type": "Feature",
   "geometry": {
    "type": "Point",
    "coordinates": [
     153.3204705,
     -28.77490683
    ]
   },
   "properties": {
    "name": "408A WOODLAWN ROAD WOODLAWN 2480",
    "locID": "ChIJ4VtW5zWckGsRuog2tBK8YMY",
    "tech": "WIRELESS",
    "upgrade": "UNKNOWN",
    "gnaf_pid": "GANSW718061534"
   }
  },
  {
   "type": "Feature",
   "geometry": {
    "type": "Point",
    "coordinates": [
     153.31432378,
     -28.77887258
    ]
   },
   "properties": {
    "name": "432A WOODLAWN ROAD WOODLAWN 2480",
    "locID": "ChIJoR7vQjOckGsRjXeZT-RM5lc",
    "tech": "WIRELESS",
    "upgrade": "UNKNOWN",
    "gnaf_pid": "GANSW718061536"
   }
  },
  {
   "type": "Feature",
   "geometry": {
    "type": "Point",
    "coordinates": [
     153.32546765,
     -28.77705892
    ]
   },
   "properties": {
    "name": "433 WOODLAWN ROAD WOODLAWN 2480",
    "locID": "LOC000076078531",
    "tech": "WIRELESS",
    "upgrade": "NULL_NA",
    "gnaf_pid": "GANSW718061537"
   }
  },
  {
   "type": "Feature",
   "geometry": {
    "type": "Point",
    "coordinates": [
     153.32135746,
     -28.75168689
    ]
   },
   "properties": {
    "name": "287 NUMULGI ROAD WOODLAWN 2480",
    "locID": "LOC100056668793",
    "tech": "WIRELESS",
    "upgrade": "NULL_NA",
    "gnaf_pid": "GANSW718498473"
   }
  },
  {
   "type": "Feature",
   "geometry": {
    "type": "Point",
    "coordinates": [
     153.32102381,
     -28.7488944
    ]
   },
   "properties": {
    "name": "351 NUMULGI ROAD WOODLAWN 2480",
    "locID": "ChIJEa_PgXKckGsRkyJomk8yW0A",
    "tech": "WIRELESS",
    "upgrade": "UNKNOWN",
    "gnaf_pid": "GANSW718498474"
   }
  },
  {
   "type": "Feature",
   "geometry": {
    "type": "Point",
    "coordinates": [
     153.32018871,
     -28.76067106
    ]
   },
   "properties": {
    "name": "350 NUMULGI ROAD WOODLAWN 2480",
    "locID": "ChIJu1pc7j-ckGsR-GhaAZV1Yic",
    "tech": "WIRELESS",
    "upgrade": "UNKNOWN",
    "gnaf_pid": "GANSW718507539"
   }
  },
  {
   "type": "Feature",
   "geometry": {
    "type": "Point",
    "coordinates": [
     153.32018871,
     -28.76067106
    ]
   },
   "properties": {
    "name": "80B NUMULGI ROAD WOODLAWN 2480",
    "locID": "ChIJu1pc7j-ckGsRoVRGHNV2b2k",
    "tech": "WIRELESS",
    "upgrade": "UNKNOWN",
    "gnaf_pid": "GANSW719081742"
   }
  },
  {
   "type": "Feature",
   "geometry": {
    "type": "Point",
    "coordinates": [
     153.32018871,
     -28.76067106
    ]
   },
   "properties": {
    "name": "80C NUMULGI ROAD WOODLAWN 2480",
    "locID": "ChIJu1pc7j-ckGsR2w6pF1WZJkY",
    "tech": "WIRELESS",
    "upgrade": "UNKNOWN",
    "gnaf_pid": "GANSW719083026"
   }
  },
  {
   "type": "Feature",
   "geometry": {
    "type": "Point",
    "coordinates": [
     153.31960295,
     -28.76504853
    ]
   },
   "properties": {
    "name": "106 NUMULGI ROAD WOODLAWN 2480",
    "locID": "ChIJ2QiqyjickGsRoUVsVOZH-UU",
    "tech": "WIRELESS",
    "upgrade": "UNKNOWN",
    "gnaf_pid": "GANSW719238221"
   }
  },
  {
   "type": "Feature",
   "geometry": {
    "type": "Point",
    "coordinates": [
     153.31705994,
     -28.76311594
    ]
   },
   "properties": {
    "name": "133 NUMULGI ROAD WOODLAWN 2480",
    "locID": "LOC100056253924",
    "tech": "WIRELESS",
    "upgrade": "NULL_NA",
    "gnaf_pid": "GANSW719239434"
   }
  },
  {
   "type": "Feature",
   "geometry": {
    "type": "Point",
    "coordinates": [
     153.31705994,
     -28.76311594
    ]
   },
   "properties": {
    "name": "133A NUMULGI ROAD WOODLAWN 2480",
    "locID": "ChIJRXX76T6ckGsRbRNYXvlFz2A",
    "tech": "WIRELESS",
    "upgrade": "UNKNOWN",
    "gnaf_pid": "GANSW720689422"
   }
  }
 ]
}