{
 "type": "FeatureCollection",
 "generated": "2024-08-20T00:26:14.140636",
 "suburb": "YANTABULLA",
 "features": [
  {
   "type": "Feature",
   "geometry": {
    "type": "Point",
    "coordinates": [
     145.3335222,
     -29.13506643
    ]
   },
   "properties": {
    "name": "117 TURRA ROAD YANTABULLA 2840",
    "locID": "LOC000164422748",
    "tech": "SATELLITE",
    "upgrade": "NULL_NA",
    "gnaf_pid": "GANSW717615058",
    "tech_change_status": "Not Planned"
   }
  },
  {
   "type": "Feature",
   "geometry": {
    "type": "Point",
    "coordinates": [
     144.70514854,
     -29.55926955
    ]
   },
   "properties": {
    "name": "4105 DUNGARVAN ROAD YANTABULLA 2840",
    "locID": "LOC000122178167",
    "tech": "SATELLITE",
    "upgrade": "NULL_NA",
    "gnaf_pid": "GANSW718329255",
    "tech_change_status": "Not Planned"
   }
  },
  {
   "type": "Feature",
   "geometry": {
    "type": "Point",
    "coordinates": [
     144.91921515,
     -29.52608121
    ]
   },
   "properties": {
    "name": "6522 DUNGARVAN ROAD YANTABULLA 2840",
    "locID": "LOC000122183867",
    "tech": "SATELLITE",
    "upgrade": "NULL_NA",
    "gnaf_pid": "GANSW718329256",
    "tech_change_status": "Not Planned"
   }
  },
  {
   "type": "Feature",
   "geometry": {
    "type": "Point",
    "coordinates": [
     144.94129678,
     -29.52504397
    ]
   },
   "properties": {
    "name": "6725 DUNGARVAN ROAD YANTABULLA 2840",
    "locID": "LOC000165500038",
    "tech": "SATELLITE",
    "upgrade": "NULL_NA",
    "gnaf_pid": "GANSW718329257",
    "tech_change_status": "Not Planned"
   }
  },
  {
   "type": "Feature",
   "geometry": {
    "type": "Point",
    "coordinates": [
     144.89507145,
     -29.3364646
    ]
   },
   "properties": {
    "name": "1008 WILLARA ROAD YANTABULLA 2840",
    "locID": "LOC000122206542",
    "tech": "SATELLITE",
    "upgrade": "NULL_NA",
    "gnaf_pid": "GANSW718333613",
    "tech_change_status": "Not Planned"
   }
  },
  {
   "type": "Feature",
   "geometry": {
    "type": "Point",
    "coordinates": [
     144.98871307,
     -29.34811303
    ]
   },
   "properties": {
    "name": "353 WILLARA ROAD YANTABULLA 2840",
    "locID": "LOC100078039309",
    "tech": "SATELLITE",
    "upgrade": "NULL_NA",
    "gnaf_pid": "GANSW718333614",
    "tech_change_status": "Not Planned"
   }
  },
  {
   "type": "Feature",
   "geometry": {
    "type": "Point",
    "coordinates": [
     145.2211945,
     -29.36065102
    ]
   },
   "properties": {
    "name": "2870 MASCOT ROAD YANTABULLA 2840",
    "locID": "LOC000122173088",
    "tech": "SATELLITE",
    "upgrade": "NULL_NA",
    "gnaf_pid": "GANSW718380603",
    "tech_change_status": "Not Planned"
   }
  },
  {
   "type": "Feature",
   "geometry": {
    "type": "Point",
    "coordinates": [
     145.04240009,
     -29.11502776
    ]
   },
   "properties": {
    "name": "906 KINGBOLT ROAD YANTABULLA 2840",
    "locID": "LOC100071932831",
    "tech": "SATELLITE",
    "upgrade": "NULL_NA",
    "gnaf_pid": "GANSW719280785",
    "tech_change_status": "Not Planned"
   }
  },
  {
   "type": "Feature",
   "geometry": {
    "type": "Point",
    "coordinates": [
     144.98862971,
     -29.21014727
    ]
   },
   "properties": {
    "name": "14137 DOWLING TRACK YANTABULLA 2840",
    "locID": "LOC000068751890",
    "tech": "SATELLITE",
    "upgrade": "NULL_NA",
    "gnaf_pid": "GANSW719874260",
    "tech_change_status": "Not Planned"
   }
  },
  {
   "type": "Feature",
   "geometry": {
    "type": "Point",
    "coordinates": [
     144.85504182,
     -29.19251745
    ]
   },
   "properties": {
    "name": "15317 DOWLING TRACK YANTABULLA 2840",
    "locID": "LOC000038368455",
    "tech": "SATELLITE",
    "upgrade": "NULL_NA",
    "gnaf_pid": "GANSW719878438",
    "tech_change_status": "Not Planned"
   }
  },
  {
   "type": "Feature",
   "geometry": {
    "type": "Point",
    "coordinates": [
     145.05442898,
     -29.19143304
    ]
   },
   "properties": {
    "name": "14068 DOWLING TRACK YANTABULLA 2840",
    "locID": "LOC000142535655",
    "tech": "SATELLITE",
    "upgrade": "NULL_NA",
    "gnaf_pid": "GANSW719895964",
    "tech_change_status": "Not Planned"
   }
  },
  {
   "type": "Feature",
   "geometry": {
    "type": "Point",
    "coordinates": [
     145.13994812,
     -29.24345536
    ]
   },
   "properties": {
    "name": "8104 BURRAWANTIE ROAD YANTABULLA 2840",
    "locID": "LOC100081732464",
    "tech": "SATELLITE",
    "upgrade": "NULL_NA",
    "gnaf_pid": "GANSW720014525",
    "tech_change_status": "Not Planned"
   }
  }
 ]
}