{
 "type": "FeatureCollection",
 "generated": "2024-08-11T10:17:33.319070",
 "suburb": "BUNGAREE",
 "features": [
  {
   "type": "Feature",
   "geometry": {
    "type": "Point",
    "coordinates": [
     143.85725796,
     -39.77088845
    ]
   },
   "properties": {
    "name": "390 BUNGAREE ROAD BUNGAREE 7256",
    "locID": "LOC000133818222",
    "tech": "SATELLITE",
    "upgrade": "NULL_NA",
    "gnaf_pid": "GATAS702206585",
    "tech_change_status": "Not Planned"
   }
  },
  {
   "type": "Feature",
   "geometry": {
    "type": "Point",
    "coordinates": [
     143.86470686,
     -39.77824815
    ]
   },
   "properties": {
    "name": "325 BUNGAREE ROAD BUNGAREE 7256",
    "locID": "LOC000054094689",
    "tech": "SATELLITE",
    "upgrade": "NULL_NA",
    "gnaf_pid": "GATAS702206586",
    "tech_change_status": "Not Planned"
   }
  },
  {
   "type": "Feature",
   "geometry": {
    "type": "Point",
    "coordinates": [
     143.89750567,
     -39.77608266
    ]
   },
   "properties": {
    "name": "1929 NORTH ROAD BUNGAREE 7256",
    "locID": "LOC000011206488",
    "tech": "SATELLITE",
    "upgrade": "NULL_NA",
    "gnaf_pid": "GATAS702311502",
    "tech_change_status": "Not Planned"
   }
  },
  {
   "type": "Feature",
   "geometry": {
    "type": "Point",
    "coordinates": [
     143.89187939,
     -39.7900412
    ]
   },
   "properties": {
    "name": "1719 NORTH ROAD BUNGAREE 7256",
    "locID": "LOC000030009101",
    "tech": "SATELLITE",
    "upgrade": "NULL_NA",
    "gnaf_pid": "GATAS702311509",
    "tech_change_status": "Not Planned"
   }
  },
  {
   "type": "Feature",
   "geometry": {
    "type": "Point",
    "coordinates": [
     143.90727534,
     -39.78912939
    ]
   },
   "properties": {
    "name": "26 WOODS ROAD BUNGAREE 7256",
    "locID": "LOC000058633330",
    "tech": "SATELLITE",
    "upgrade": "NULL_NA",
    "gnaf_pid": "GATAS702377939",
    "tech_change_status": "Not Planned"
   }
  },
  {
   "type": "Feature",
   "geometry": {
    "type": "Point",
    "coordinates": [
     143.92235896,
     -39.78807258
    ]
   },
   "properties": {
    "name": "100 WOODS ROAD BUNGAREE 7256",
    "locID": "LOC000072161628",
    "tech": "SATELLITE",
    "upgrade": "NULL_NA",
    "gnaf_pid": "GATAS702405035",
    "tech_change_status": "Not Planned"
   }
  },
  {
   "type": "Feature",
   "geometry": {
    "type": "Point",
    "coordinates": [
     143.97636328,
     -39.813266
    ]
   },
   "properties": {
    "name": "770 HEDDLES ROAD BUNGAREE 7256",
    "locID": "LOC000041198698",
    "tech": "SATELLITE",
    "upgrade": "NULL_NA",
    "gnaf_pid": "GATAS702408375",
    "tech_change_status": "Not Planned"
   }
  },
  {
   "type": "Feature",
   "geometry": {
    "type": "Point",
    "coordinates": [
     143.87346357,
     -39.77294006
    ]
   },
   "properties": {
    "name": "59 BUNGAREE ROAD BUNGAREE 7256",
    "locID": "LOC000060820199",
    "tech": "SATELLITE",
    "upgrade": "NULL_NA",
    "gnaf_pid": "GATAS715255908",
    "tech_change_status": "Not Planned"
   }
  },
  {
   "type": "Feature",
   "geometry": {
    "type": "Point",
    "coordinates": [
     144.01393386,
     -39.77794837
    ]
   },
   "properties": {
    "name": "145 SOUTH REEKARA ROAD BUNGAREE 7256",
    "locID": "LOC000100444479",
    "tech": "SATELLITE",
    "upgrade": "NULL_NA",
    "gnaf_pid": "GATAS716464917",
    "tech_change_status": "Not Planned"
   }
  },
  {
   "type": "Feature",
   "geometry": {
    "type": "Point",
    "coordinates": [
     143.98835446,
     -39.77598979
    ]
   },
   "properties": {
    "name": "146 SOUTH REEKARA ROAD BUNGAREE 7256",
    "locID": "LOC000071656693",
    "tech": "SATELLITE",
    "upgrade": "NULL_NA",
    "gnaf_pid": "GATAS716464918",
    "tech_change_status": "Not Planned"
   }
  },
  {
   "type": "Feature",
   "geometry": {
    "type": "Point",
    "coordinates": [
     143.85549692,
     -39.75693198
    ]
   },
   "properties": {
    "name": "253 BUTTONS ROAD BUNGAREE 7256",
    "locID": "LOC000148364723",
    "tech": "SATELLITE",
    "upgrade": "NULL_NA",
    "gnaf_pid": "GATAS718570481",
    "tech_change_status": "Not Planned"
   }
  },
  {
   "type": "Feature",
   "geometry": {
    "type": "Point",
    "coordinates": [
     143.85339379,
     -39.75396996
    ]
   },
   "properties": {
    "name": "253B BUTTONS ROAD BUNGAREE 7256",
    "locID": "LOC000148364723",
    "tech": "SATELLITE",
    "upgrade": "NULL_NA",
    "gnaf_pid": "GATAS718579448",
    "tech_change_status": "Not Planned"
   }
  }
 ]
}