{
 "type": "FeatureCollection",
 "generated": "2023-10-23T01:51:32.575589",
 "suburb": "QUAMBY BEND",
 "features": [
  {
   "type": "Feature",
   "geometry": {
    "type": "Point",
    "coordinates": [
     146.85570594,
     -41.48639334
    ]
   },
   "properties": {
    "name": "711 BLACK LANE QUAMBY BEND 7292",
    "locID": "LOC000082699707",
    "tech": "WIRELESS",
    "upgrade": "NULL_NA",
    "gnaf_pid": "GATAS702197346"
   }
  },
  {
   "type": "Feature",
   "geometry": {
    "type": "Point",
    "coordinates": [
     146.87326221,
     -41.48488404
    ]
   },
   "properties": {
    "name": "530 BLACK LANE QUAMBY BEND 7292",
    "locID": "LOC000059316484",
    "tech": "WIRELESS",
    "upgrade": "NULL_NA",
    "gnaf_pid": "GATAS702197348"
   }
  },
  {
   "type": "Feature",
   "geometry": {
    "type": "Point",
    "coordinates": [
     146.85953523,
     -41.49310083
    ]
   },
   "properties": {
    "name": "409 EMU PLAIN ROAD QUAMBY BEND 7292",
    "locID": "LOC000094530894",
    "tech": "WIRELESS",
    "upgrade": "NULL_NA",
    "gnaf_pid": "GATAS702241320"
   }
  },
  {
   "type": "Feature",
   "geometry": {
    "type": "Point",
    "coordinates": [
     146.88102139,
     -41.47294862
    ]
   },
   "properties": {
    "name": "131 MCGEES ROAD QUAMBY BEND 7292",
    "locID": "LOC000007577247",
    "tech": "WIRELESS",
    "upgrade": "NULL_NA",
    "gnaf_pid": "GATAS702282754"
   }
  },
  {
   "type": "Feature",
   "geometry": {
    "type": "Point",
    "coordinates": [
     146.87672959,
     -41.48039509
    ]
   },
   "properties": {
    "name": "80 MCGEES ROAD QUAMBY BEND 7292",
    "locID": "LOC000047183639",
    "tech": "WIRELESS",
    "upgrade": "NULL_NA",
    "gnaf_pid": "GATAS702285326"
   }
  },
  {
   "type": "Feature",
   "geometry": {
    "type": "Point",
    "coordinates": [
     146.8539894,
     -41.47804094
    ]
   },
   "properties": {
    "name": "47 MITCHELSONS ROAD QUAMBY BEND 7292",
    "locID": "LOC000104677622",
    "tech": "WIRELESS",
    "upgrade": "NULL_NA",
    "gnaf_pid": "GATAS702301885"
   }
  },
  {
   "type": "Feature",
   "geometry": {
    "type": "Point",
    "coordinates": [
     146.85895121,
     -41.47084766
    ]
   },
   "properties": {
    "name": "100 MITCHELSONS ROAD QUAMBY BEND 7292",
    "locID": "LOC000062406883",
    "tech": "WIRELESS",
    "upgrade": "NULL_NA",
    "gnaf_pid": "GATAS702301886"
   }
  },
  {
   "type": "Feature",
   "geometry": {
    "type": "Point",
    "coordinates": [
     146.87096411,
     -41.49363876
    ]
   },
   "properties": {
    "name": "60 SCOTTS LANE QUAMBY BEND 7292",
    "locID": "LOC000035048056",
    "tech": "WIRELESS",
    "upgrade": "NULL_NA",
    "gnaf_pid": "GATAS702324833"
   }
  },
  {
   "type": "Feature",
   "geometry": {
    "type": "Point",
    "coordinates": [
     146.86314157,
     -41.48164864
    ]
   },
   "properties": {
    "name": "660 BLACK LANE QUAMBY BEND 7292",
    "locID": "LOC000006230906",
    "tech": "WIRELESS",
    "upgrade": "NULL_NA",
    "gnaf_pid": "GATAS702537582"
   }
  },
  {
   "type": "Feature",
   "geometry": {
    "type": "Point",
    "coordinates": [
     146.87576189,
     -41.47832122
    ]
   },
   "properties": {
    "name": "130 MCGEES ROAD QUAMBY BEND 7292",
    "locID": "LOC000038109436",
    "tech": "WIRELESS",
    "upgrade": "NULL_NA",
    "gnaf_pid": "GATAS702804904"
   }
  }
 ]
}