{
 "type": "FeatureCollection",
 "generated": "2024-07-14T03:16:18.277764",
 "suburb": "ALBINIA",
 "features": [
  {
   "type": "Feature",
   "geometry": {
    "type": "Point",
    "coordinates": [
     148.49987712,
     -24.42598873
    ]
   },
   "properties": {
    "name": "LOT 7 DAWSON HIGHWAY ALBINIA 4722",
    "locID": "LOC100071898954",
    "tech": "SATELLITE",
    "upgrade": "NULL_NA",
    "gnaf_pid": "GAQLD161123821",
    "tech_change_status": "Not Planned"
   }
  },
  {
   "type": "Feature",
   "geometry": {
    "type": "Point",
    "coordinates": [
     148.35135495,
     -24.38967659
    ]
   },
   "properties": {
    "name": "LOT 1 METEOR DOWNS ROAD ALBINIA 4722",
    "locID": "LOC000176785043",
    "tech": "SATELLITE",
    "upgrade": "NULL_NA",
    "gnaf_pid": "GAQLD161235464",
    "tech_change_status": "Not Planned"
   }
  },
  {
   "type": "Feature",
   "geometry": {
    "type": "Point",
    "coordinates": [
     148.34538229,
     -24.42829185
    ]
   },
   "properties": {
    "name": "LOT 4 METEOR DOWNS ROAD ALBINIA 4722",
    "locID": "LOC000176785043",
    "tech": "SATELLITE",
    "upgrade": "NULL_NA",
    "gnaf_pid": "GAQLD161235467",
    "tech_change_status": "Not Planned"
   }
  },
  {
   "type": "Feature",
   "geometry": {
    "type": "Point",
    "coordinates": [
     148.3345786,
     -24.57780109
    ]
   },
   "properties": {
    "name": "LOT 2 SPRINGWOOD ROAD ALBINIA 4722",
    "locID": "LOC000090735300",
    "tech": "SATELLITE",
    "upgrade": "NULL_NA",
    "gnaf_pid": "GAQLD161314750",
    "tech_change_status": "Not Planned"
   }
  },
  {
   "type": "Feature",
   "geometry": {
    "type": "Point",
    "coordinates": [
     148.38717424,
     -24.54923036
    ]
   },
   "properties": {
    "name": "LOT 5 SPRINGWOOD ROAD ALBINIA 4722",
    "locID": "LOC000090735300",
    "tech": "SATELLITE",
    "upgrade": "NULL_NA",
    "gnaf_pid": "GAQLD161314752",
    "tech_change_status": "Not Planned"
   }
  },
  {
   "type": "Feature",
   "geometry": {
    "type": "Point",
    "coordinates": [
     148.2684611,
     -24.54190907
    ]
   },
   "properties": {
    "name": "LOT 6 SPRINGWOOD ROAD ALBINIA 4722",
    "locID": "LOC000090735300",
    "tech": "SATELLITE",
    "upgrade": "NULL_NA",
    "gnaf_pid": "GAQLD161314753",
    "tech_change_status": "Not Planned"
   }
  },
  {
   "type": "Feature",
   "geometry": {
    "type": "Point",
    "coordinates": [
     148.24753681,
     -24.57257842
    ]
   },
   "properties": {
    "name": "LOT 7 SPRINGWOOD ROAD ALBINIA 4722",
    "locID": "LOC000090735300",
    "tech": "SATELLITE",
    "upgrade": "NULL_NA",
    "gnaf_pid": "GAQLD161314754",
    "tech_change_status": "Not Planned"
   }
  },
  {
   "type": "Feature",
   "geometry": {
    "type": "Point",
    "coordinates": [
     148.38598781,
     -24.51996772
    ]
   },
   "properties": {
    "name": "1920 SPRINGWOOD ROAD ALBINIA 4722",
    "locID": "LOC000090735300",
    "tech": "SATELLITE",
    "upgrade": "NULL_NA",
    "gnaf_pid": "GAQLD162620694",
    "tech_change_status": "Not Planned"
   }
  },
  {
   "type": "Feature",
   "geometry": {
    "type": "Point",
    "coordinates": [
     148.45560888,
     -24.55212978
    ]
   },
   "properties": {
    "name": "963 BOTTLE TREE DOWNS ROAD ALBINIA 4722",
    "locID": "LOC000116074523",
    "tech": "SATELLITE",
    "upgrade": "NULL_NA",
    "gnaf_pid": "GAQLD424853402",
    "tech_change_status": "Not Planned"
   }
  },
  {
   "type": "Feature",
   "geometry": {
    "type": "Point",
    "coordinates": [
     148.43049504,
     -24.43519077
    ]
   },
   "properties": {
    "name": "LOT 1 DAWSON HIGHWAY ALBINIA 4722",
    "locID": "LOC000180915635",
    "tech": "SATELLITE",
    "upgrade": "NULL_NA",
    "gnaf_pid": "GAQLD425202738",
    "tech_change_status": "Not Planned"
   }
  },
  {
   "type": "Feature",
   "geometry": {
    "type": "Point",
    "coordinates": [
     148.23751806,
     -24.49199175
    ]
   },
   "properties": {
    "name": "LOT 8 SPRINGWOOD ROAD ALBINIA 4722",
    "locID": "LOC000090735300",
    "tech": "SATELLITE",
    "upgrade": "NULL_NA",
    "gnaf_pid": "GAQLD425479466",
    "tech_change_status": "Not Planned"
   }
  },
  {
   "type": "Feature",
   "geometry": {
    "type": "Point",
    "coordinates": [
     148.54353143,
     -24.32345288
    ]
   },
   "properties": {
    "name": "36320B DAWSON HIGHWAY ALBINIA 4722",
    "locID": "LOC100071898954",
    "tech": "SATELLITE",
    "upgrade": "NULL_NA",
    "gnaf_pid": "GAQLD425793444",
    "tech_change_status": "Not Planned"
   }
  },
  {
   "type": "Feature",
   "geometry": {
    "type": "Point",
    "coordinates": [
     148.58543211,
     -24.36191195
    ]
   },
   "properties": {
    "name": "557 STARLEE ROAD ALBINIA 4722",
    "locID": "LOC100071899011",
    "tech": "SATELLITE",
    "upgrade": "NULL_NA",
    "gnaf_pid": "GAQLD719337964",
    "tech_change_status": "Not Planned"
   }
  },
  {
   "type": "Feature",
   "geometry": {
    "type": "Point",
    "coordinates": [
     148.51634108,
     -24.38618539
    ]
   },
   "properties": {
    "name": "34912 DAWSON HIGHWAY ALBINIA 4722",
    "locID": "LOC000180916171",
    "tech": "SATELLITE",
    "upgrade": "NULL_NA",
    "gnaf_pid": "GAQLD720309151",
    "tech_change_status": "Not Planned"
   }
  },
  {
   "type": "Feature",
   "geometry": {
    "type": "Point",
    "coordinates": [
     148.41934723,
     -24.34084252
    ]
   },
   "properties": {
    "name": "36302 DAWSON HIGHWAY ALBINIA 4722",
    "locID": "LOC100085527506",
    "tech": "SATELLITE",
    "upgrade": "NULL_NA",
    "gnaf_pid": "GAQLD721429560",
    "tech_change_status": "Not Planned"
   }
  }
 ]
}