{
 "type": "FeatureCollection",
 "generated": "2024-03-31T19:16:32.339305",
 "suburb": "ALBINIA",
 "features": [
  {
   "type": "Feature",
   "geometry": {
    "type": "Point",
    "coordinates": [
     148.49987712,
     -24.42598873
    ]
   },
   "properties": {
    "name": "LOT 7 DAWSON HIGHWAY ALBINIA 4722",
    "locID": "LOC100071898954",
    "tech": "SATELLITE",
    "upgrade": "NULL_NA",
    "gnaf_pid": "GAQLD161123821"
   }
  },
  {
   "type": "Feature",
   "geometry": {
    "type": "Point",
    "coordinates": [
     148.35135495,
     -24.38967659
    ]
   },
   "properties": {
    "name": "LOT 1 METEOR DOWNS ROAD ALBINIA 4722",
    "locID": "LOC000176785043",
    "tech": "SATELLITE",
    "upgrade": "NULL_NA",
    "gnaf_pid": "GAQLD161235464"
   }
  },
  {
   "type": "Feature",
   "geometry": {
    "type": "Point",
    "coordinates": [
     148.34538229,
     -24.42829185
    ]
   },
   "properties": {
    "name": "LOT 4 METEOR DOWNS ROAD ALBINIA 4722",
    "locID": "LOC000176785043",
    "tech": "SATELLITE",
    "upgrade": "NULL_NA",
    "gnaf_pid": "GAQLD161235467"
   }
  },
  {
   "type": "Feature",
   "geometry": {
    "type": "Point",
    "coordinates": [
     148.33496592,
     -24.57737345
    ]
   },
   "properties": {
    "name": "LOT 2 SPRINGWOOD ROAD ALBINIA 4722",
    "locID": "LOC000090735300",
    "tech": "SATELLITE",
    "upgrade": "NULL_NA",
    "gnaf_pid": "GAQLD161314750"
   }
  },
  {
   "type": "Feature",
   "geometry": {
    "type": "Point",
    "coordinates": [
     148.38726649,
     -24.54890589
    ]
   },
   "properties": {
    "name": "LOT 5 SPRINGWOOD ROAD ALBINIA 4722",
    "locID": "LOC000090735300",
    "tech": "SATELLITE",
    "upgrade": "NULL_NA",
    "gnaf_pid": "GAQLD161314752"
   }
  },
  {
   "type": "Feature",
   "geometry": {
    "type": "Point",
    "coordinates": [
     148.26855718,
     -24.54191686
    ]
   },
   "properties": {
    "name": "LOT 6 SPRINGWOOD ROAD ALBINIA 4722",
    "locID": "LOC000090735300",
    "tech": "SATELLITE",
    "upgrade": "NULL_NA",
    "gnaf_pid": "GAQLD161314753"
   }
  },
  {
   "type": "Feature",
   "geometry": {
    "type": "Point",
    "coordinates": [
     148.25405096,
     -24.585357
    ]
   },
   "properties": {
    "name": "LOT 7 SPRINGWOOD ROAD ALBINIA 4722",
    "locID": "LOC000090735300",
    "tech": "SATELLITE",
    "upgrade": "NULL_NA",
    "gnaf_pid": "GAQLD161314754"
   }
  },
  {
   "type": "Feature",
   "geometry": {
    "type": "Point",
    "coordinates": [
     148.38598781,
     -24.51996772
    ]
   },
   "properties": {
    "name": "1920 SPRINGWOOD ROAD ALBINIA 4722",
    "locID": "LOC000090735300",
    "tech": "SATELLITE",
    "upgrade": "NULL_NA",
    "gnaf_pid": "GAQLD162620694"
   }
  },
  {
   "type": "Feature",
   "geometry": {
    "type": "Point",
    "coordinates": [
     148.45559665,
     -24.55217747
    ]
   },
   "properties": {
    "name": "963 BOTTLE TREE DOWNS ROAD ALBINIA 4722",
    "locID": "LOC000116074523",
    "tech": "SATELLITE",
    "upgrade": "NULL_NA",
    "gnaf_pid": "GAQLD424853402"
   }
  },
  {
   "type": "Feature",
   "geometry": {
    "type": "Point",
    "coordinates": [
     148.43049504,
     -24.43519077
    ]
   },
   "properties": {
    "name": "LOT 1 DAWSON HIGHWAY ALBINIA 4722",
    "locID": "LOC000180915635",
    "tech": "SATELLITE",
    "upgrade": "NULL_NA",
    "gnaf_pid": "GAQLD425202738"
   }
  },
  {
   "type": "Feature",
   "geometry": {
    "type": "Point",
    "coordinates": [
     148.23707475,
     -24.4939
    ]
   },
   "properties": {
    "name": "LOT 8 SPRINGWOOD ROAD ALBINIA 4722",
    "locID": "LOC000090735300",
    "tech": "SATELLITE",
    "upgrade": "NULL_NA",
    "gnaf_pid": "GAQLD425479466"
   }
  },
  {
   "type": "Feature",
   "geometry": {
    "type": "Point",
    "coordinates": [
     148.54353143,
     -24.32345288
    ]
   },
   "properties": {
    "name": "36320B DAWSON HIGHWAY ALBINIA 4722",
    "locID": "LOC100071898954",
    "tech": "SATELLITE",
    "upgrade": "NULL_NA",
    "gnaf_pid": "GAQLD425793444"
   }
  },
  {
   "type": "Feature",
   "geometry": {
    "type": "Point",
    "coordinates": [
     148.58543211,
     -24.36191195
    ]
   },
   "properties": {
    "name": "557 STARLEE ROAD ALBINIA 4722",
    "locID": "LOC100071899011",
    "tech": "SATELLITE",
    "upgrade": "NULL_NA",
    "gnaf_pid": "GAQLD719337964"
   }
  },
  {
   "type": "Feature",
   "geometry": {
    "type": "Point",
    "coordinates": [
     148.51634108,
     -24.38618539
    ]
   },
   "properties": {
    "name": "34912 DAWSON HIGHWAY ALBINIA 4722",
    "locID": "LOC000180916171",
    "tech": "SATELLITE",
    "upgrade": "NULL_NA",
    "gnaf_pid": "GAQLD720309151"
   }
  }
 ]
}