{
 "type": "FeatureCollection",
 "generated": "2024-05-11T21:02:26.005929",
 "suburb": "ARANBANGA",
 "features": [
  {
   "type": "Feature",
   "geometry": {
    "type": "Point",
    "coordinates": [
     151.62808401,
     -25.84737495
    ]
   },
   "properties": {
    "name": "LOT 10 GORDONS ROAD ARANBANGA 4625",
    "locID": "LOC000040870984",
    "tech": "SATELLITE",
    "upgrade": "NULL_NA",
    "gnaf_pid": "GAQLD161164883"
   }
  },
  {
   "type": "Feature",
   "geometry": {
    "type": "Point",
    "coordinates": [
     151.64251584,
     -25.85692909
    ]
   },
   "properties": {
    "name": "LOT 11 GORDONS ROAD ARANBANGA 4625",
    "locID": "LOC000040870984",
    "tech": "SATELLITE",
    "upgrade": "NULL_NA",
    "gnaf_pid": "GAQLD161164884"
   }
  },
  {
   "type": "Feature",
   "geometry": {
    "type": "Point",
    "coordinates": [
     151.64149259,
     -25.83611808
    ]
   },
   "properties": {
    "name": "LOT 14 GORDONS ROAD ARANBANGA 4625",
    "locID": "LOC000040870984",
    "tech": "SATELLITE",
    "upgrade": "NULL_NA",
    "gnaf_pid": "GAQLD161164885"
   }
  },
  {
   "type": "Feature",
   "geometry": {
    "type": "Point",
    "coordinates": [
     151.67540893,
     -25.83928262
    ]
   },
   "properties": {
    "name": "LOT 20 GORDONS ROAD ARANBANGA 4625",
    "locID": "LOC000040870984",
    "tech": "SATELLITE",
    "upgrade": "NULL_NA",
    "gnaf_pid": "GAQLD161164887"
   }
  },
  {
   "type": "Feature",
   "geometry": {
    "type": "Point",
    "coordinates": [
     151.65791655,
     -25.86263775
    ]
   },
   "properties": {
    "name": "LOT 23 GORDONS ROAD ARANBANGA 4625",
    "locID": "LOC000040870984",
    "tech": "SATELLITE",
    "upgrade": "NULL_NA",
    "gnaf_pid": "GAQLD161164889"
   }
  },
  {
   "type": "Feature",
   "geometry": {
    "type": "Point",
    "coordinates": [
     151.64189221,
     -25.82043026
    ]
   },
   "properties": {
    "name": "LOT 7 GORDONS ROAD ARANBANGA 4625",
    "locID": "LOC000040870984",
    "tech": "SATELLITE",
    "upgrade": "NULL_NA",
    "gnaf_pid": "GAQLD161164891"
   }
  },
  {
   "type": "Feature",
   "geometry": {
    "type": "Point",
    "coordinates": [
     151.62773266,
     -25.82012957
    ]
   },
   "properties": {
    "name": "LOT 91 GORDONS ROAD ARANBANGA 4625",
    "locID": "LOC000040870984",
    "tech": "SATELLITE",
    "upgrade": "NULL_NA",
    "gnaf_pid": "GAQLD161164892"
   }
  },
  {
   "type": "Feature",
   "geometry": {
    "type": "Point",
    "coordinates": [
     151.6563651,
     -25.83266533
    ]
   },
   "properties": {
    "name": "225 GORDONS ROAD ARANBANGA 4625",
    "locID": "LOC000040870984",
    "tech": "SATELLITE",
    "upgrade": "NULL_NA",
    "gnaf_pid": "GAQLD161831606"
   }
  },
  {
   "type": "Feature",
   "geometry": {
    "type": "Point",
    "coordinates": [
     151.63363378,
     -25.86564188
    ]
   },
   "properties": {
    "name": "3095 WIGTON ROAD ARANBANGA 4625",
    "locID": "LOC000148363916",
    "tech": "SATELLITE",
    "upgrade": "NULL_NA",
    "gnaf_pid": "GAQLD425548001"
   }
  },
  {
   "type": "Feature",
   "geometry": {
    "type": "Point",
    "coordinates": [
     151.62359481,
     -25.78925633
    ]
   },
   "properties": {
    "name": "LOT 4 WIGTON ROAD ARANBANGA 4625",
    "locID": "LOC100080146909",
    "tech": "WIRELESS",
    "upgrade": "NULL_NA",
    "gnaf_pid": "GAQLD425548002"
   }
  },
  {
   "type": "Feature",
   "geometry": {
    "type": "Point",
    "coordinates": [
     151.7023598,
     -25.83048908
    ]
   },
   "properties": {
    "name": "LOT 16 WAHOON ROAD ARANBANGA 4625",
    "locID": "LOC100071902149",
    "tech": "SATELLITE",
    "upgrade": "NULL_NA",
    "gnaf_pid": "GAQLD719128811"
   }
  },
  {
   "type": "Feature",
   "geometry": {
    "type": "Point",
    "coordinates": [
     151.67109448,
     -25.81776425
    ]
   },
   "properties": {
    "name": "461 WAHOON ROAD ARANBANGA 4625",
    "locID": "LOC100071902098",
    "tech": "SATELLITE",
    "upgrade": "NULL_NA",
    "gnaf_pid": "GAQLD719135412"
   }
  }
 ]
}