{
 "type": "FeatureCollection",
 "generated": "2023-07-11T06:36:35.574043",
 "suburb": "BARAKULA",
 "features": [
  {
   "type": "Feature",
   "geometry": {
    "type": "Point",
    "coordinates": [
     150.78074171,
     -26.27709796
    ]
   },
   "properties": {
    "name": "LOT 4 AUBURN ROAD BARAKULA 4413",
    "locID": "LOC000034051118",
    "tech": "SATELLITE",
    "upgrade": "NULL_NA",
    "gnaf_pid": "GAQLD161054781"
   }
  },
  {
   "type": "Feature",
   "geometry": {
    "type": "Point",
    "coordinates": [
     150.55554748,
     -26.42074557
    ]
   },
   "properties": {
    "name": "LOT 1 BARAKULA SPECULATION ROAD BARAKULA 4413",
    "locID": "EjVCYXJha3VsYSBTcGVjdWxhdGlvbiBSZCwgQmFyYWt1bGEgUUxEIDQ0MTMsIEF1c3RyYWxpYSIuKiwKFAoSCfGREuOcX75rEQAl419EtGEAEhQKEgmxDc5c71C-axGgvSB_8e4ABA",
    "tech": "SATELLITE",
    "upgrade": "UNKNOWN",
    "gnaf_pid": "GAQLD161058154"
   }
  },
  {
   "type": "Feature",
   "geometry": {
    "type": "Point",
    "coordinates": [
     150.56013893,
     -26.51557533
    ]
   },
   "properties": {
    "name": "1136 BARAKULA ROAD BARAKULA 4413",
    "locID": "LOC000068888846",
    "tech": "SATELLITE",
    "upgrade": "NULL_NA",
    "gnaf_pid": "GAQLD163060944"
   }
  },
  {
   "type": "Feature",
   "geometry": {
    "type": "Point",
    "coordinates": [
     150.51265318,
     -26.30563508
    ]
   },
   "properties": {
    "name": "LOT 15 BARAKULA ROAD BARAKULA 4413",
    "locID": "LOC000190771014",
    "tech": "SATELLITE",
    "upgrade": "NULL_NA",
    "gnaf_pid": "GAQLD163158303"
   }
  },
  {
   "type": "Feature",
   "geometry": {
    "type": "Point",
    "coordinates": [
     150.72171804,
     -26.32604308
    ]
   },
   "properties": {
    "name": "6708 AUBURN ROAD BARAKULA 4413",
    "locID": "ChIJadqYIVZQvmsR1tYMbWeLh1s",
    "tech": "SATELLITE",
    "upgrade": "UNKNOWN",
    "gnaf_pid": "GAQLD424932703"
   }
  },
  {
   "type": "Feature",
   "geometry": {
    "type": "Point",
    "coordinates": [
     150.61033483,
     -26.46371168
    ]
   },
   "properties": {
    "name": "2274 BARAKULA SPECULATION ROAD BARAKULA 4413",
    "locID": "ChIJJWX7MQpfvmsRi4M-v5KY1WQ",
    "tech": "SATELLITE",
    "upgrade": "UNKNOWN",
    "gnaf_pid": "GAQLD425757228"
   }
  }
 ]
}