{
 "type": "FeatureCollection",
 "generated": "2023-09-23T01:10:23.580906",
 "suburb": "BINDEBANGO",
 "features": [
  {
   "type": "Feature",
   "geometry": {
    "type": "Point",
    "coordinates": [
     147.17056737,
     -27.63696087
    ]
   },
   "properties": {
    "name": "1082 SHIRLO ROAD BINDEBANGO 4488",
    "locID": "LOC000064308814",
    "tech": "SATELLITE",
    "upgrade": "NULL_NA",
    "gnaf_pid": "GAQLD162387082"
   }
  },
  {
   "type": "Feature",
   "geometry": {
    "type": "Point",
    "coordinates": [
     147.17598494,
     -27.76703265
    ]
   },
   "properties": {
    "name": "1975 SHIRLO ROAD BINDEBANGO 4488",
    "locID": "LOC000099572506",
    "tech": "SATELLITE",
    "upgrade": "NULL_NA",
    "gnaf_pid": "GAQLD162387083"
   }
  },
  {
   "type": "Feature",
   "geometry": {
    "type": "Point",
    "coordinates": [
     147.81996552,
     -27.55777118
    ]
   },
   "properties": {
    "name": "LOT 3 MIDDLE ROAD BINDEBANGO 4488",
    "locID": "LOC000142338384",
    "tech": "SATELLITE",
    "upgrade": "NULL_NA",
    "gnaf_pid": "GAQLD425179867"
   }
  },
  {
   "type": "Feature",
   "geometry": {
    "type": "Point",
    "coordinates": [
     147.13929497,
     -27.55155244
    ]
   },
   "properties": {
    "name": "1566 BENGARCIA ROAD BINDEBANGO 4488",
    "locID": "LOC000148362544",
    "tech": "SATELLITE",
    "upgrade": "NULL_NA",
    "gnaf_pid": "GAQLD425472974"
   }
  },
  {
   "type": "Feature",
   "geometry": {
    "type": "Point",
    "coordinates": [
     147.36327811,
     -27.55138136
    ]
   },
   "properties": {
    "name": "338 BENGARCIA ROAD BINDEBANGO 4488",
    "locID": "ChIJ4a5zB2UjrmsR0Kf0XS733ao",
    "tech": "SATELLITE",
    "upgrade": "UNKNOWN",
    "gnaf_pid": "GAQLD425472975"
   }
  },
  {
   "type": "Feature",
   "geometry": {
    "type": "Point",
    "coordinates": [
     147.28270915,
     -27.59019044
    ]
   },
   "properties": {
    "name": "444 BENGARCIA ROAD BINDEBANGO 4488",
    "locID": "LOC000148362563",
    "tech": "SATELLITE",
    "upgrade": "NULL_NA",
    "gnaf_pid": "GAQLD425472976"
   }
  },
  {
   "type": "Feature",
   "geometry": {
    "type": "Point",
    "coordinates": [
     147.42498088,
     -27.71839649
    ]
   },
   "properties": {
    "name": "17380 BOLLON ROAD BINDEBANGO 4488",
    "locID": "ChIJNedAW6w5rmsRxKpRpmHN2Js",
    "tech": "SATELLITE",
    "upgrade": "UNKNOWN",
    "gnaf_pid": "GAQLD425473203"
   }
  },
  {
   "type": "Feature",
   "geometry": {
    "type": "Point",
    "coordinates": [
     147.41733053,
     -27.82083443
    ]
   },
   "properties": {
    "name": "17741 BOLLON ROAD BINDEBANGO 4488",
    "locID": "LOC000142349411",
    "tech": "SATELLITE",
    "upgrade": "NULL_NA",
    "gnaf_pid": "GAQLD425473204"
   }
  },
  {
   "type": "Feature",
   "geometry": {
    "type": "Point",
    "coordinates": [
     147.29109598,
     -27.80427867
    ]
   },
   "properties": {
    "name": "18448 BOLLON ROAD BINDEBANGO 4488",
    "locID": "ChIJi7FpRfpBrmsRQdYDOp_76GI",
    "tech": "SATELLITE",
    "upgrade": "UNKNOWN",
    "gnaf_pid": "GAQLD425473205"
   }
  },
  {
   "type": "Feature",
   "geometry": {
    "type": "Point",
    "coordinates": [
     147.49416785,
     -27.71588478
    ]
   },
   "properties": {
    "name": "1062 HOMEBOIN ROAD BINDEBANGO 4488",
    "locID": "ChIJU7pd-Tw3rmsR_XBFm0Mvb-0",
    "tech": "SATELLITE",
    "upgrade": "UNKNOWN",
    "gnaf_pid": "GAQLD425476270"
   }
  },
  {
   "type": "Feature",
   "geometry": {
    "type": "Point",
    "coordinates": [
     147.38232356,
     -27.63982782
    ]
   },
   "properties": {
    "name": "171 HOMEBOIN ROAD BINDEBANGO 4488",
    "locID": "ChIJE38dy487rmsRV9i41KXMFds",
    "tech": "SATELLITE",
    "upgrade": "UNKNOWN",
    "gnaf_pid": "GAQLD425476271"
   }
  },
  {
   "type": "Feature",
   "geometry": {
    "type": "Point",
    "coordinates": [
     147.50287112,
     -27.64769719
    ]
   },
   "properties": {
    "name": "357 HOMEBOIN ROAD BINDEBANGO 4488",
    "locID": "LOC000148083778",
    "tech": "SATELLITE",
    "upgrade": "NULL_NA",
    "gnaf_pid": "GAQLD425476272"
   }
  },
  {
   "type": "Feature",
   "geometry": {
    "type": "Point",
    "coordinates": [
     147.2463748,
     -27.48311873
    ]
   },
   "properties": {
    "name": "1908 LOOP ROAD BINDEBANGO 4488",
    "locID": "ChIJE-2z69wYrmsRloPFnJctX1k",
    "tech": "SATELLITE",
    "upgrade": "UNKNOWN",
    "gnaf_pid": "GAQLD425476872"
   }
  },
  {
   "type": "Feature",
   "geometry": {
    "type": "Point",
    "coordinates": [
     147.60250239,
     -27.52185166
    ]
   },
   "properties": {
    "name": "1582 SOUTHAMPTON ROAD BINDEBANGO 4488",
    "locID": "ChIJvz3xOQErrmsRaKJD_nsfWx4",
    "tech": "SATELLITE",
    "upgrade": "UNKNOWN",
    "gnaf_pid": "GAQLD425479437"
   }
  },
  {
   "type": "Feature",
   "geometry": {
    "type": "Point",
    "coordinates": [
     147.81996552,
     -27.55777118
    ]
   },
   "properties": {
    "name": "11204 MIDDLE ROAD BINDEBANGO 4488",
    "locID": "LOC000142338384",
    "tech": "SATELLITE",
    "upgrade": "NULL_NA",
    "gnaf_pid": "GAQLD425664486"
   }
  },
  {
   "type": "Feature",
   "geometry": {
    "type": "Point",
    "coordinates": [
     147.81996552,
     -27.55777118
    ]
   },
   "properties": {
    "name": "10877 MIDDLE ROAD BINDEBANGO 4488",
    "locID": "Ei8xMDg3NyBNaWRkbGUgUmQsIEJpbmRlYmFuZ28gUUxEIDQ0ODgsIEF1c3RyYWxpYSIxEi8KFAoSCWe7dsmM169rEZhPi6LtQ5OkEP1UKhQKEgk_ltWU1UWwaxHcWzDEyQXLsQ",
    "tech": "SATELLITE",
    "upgrade": "UNKNOWN",
    "gnaf_pid": "GAQLD719637604"
   }
  },
  {
   "type": "Feature",
   "geometry": {
    "type": "Point",
    "coordinates": [
     147.73821464,
     -27.56127528
    ]
   },
   "properties": {
    "name": "517 SOUTHAMPTON ROAD BINDEBANGO 4488",
    "locID": "LOC000185076839",
    "tech": "SATELLITE",
    "upgrade": "NULL_NA",
    "gnaf_pid": "GAQLD720204825"
   }
  },
  {
   "type": "Feature",
   "geometry": {
    "type": "Point",
    "coordinates": [
     147.43455532,
     -27.62388639
    ]
   },
   "properties": {
    "name": "2524 CARDIFF ROAD BINDEBANGO 4488",
    "locID": "LOC000177318657",
    "tech": "SATELLITE",
    "upgrade": "NULL_NA",
    "gnaf_pid": "GAQLD720330878"
   }
  },
  {
   "type": "Feature",
   "geometry": {
    "type": "Point",
    "coordinates": [
     147.13156033,
     -27.44728034
    ]
   },
   "properties": {
    "name": "1433 KOKODA ROAD BINDEBANGO 4488",
    "locID": "ChIJO2ppbW8brmsRhsK0mj38_R4",
    "tech": "SATELLITE",
    "upgrade": "UNKNOWN",
    "gnaf_pid": "GAQLD721062356"
   }
  }
 ]
}