{
 "type": "FeatureCollection",
 "generated": "2024-07-14T06:57:25.902433",
 "suburb": "BINDEBANGO",
 "features": [
  {
   "type": "Feature",
   "geometry": {
    "type": "Point",
    "coordinates": [
     147.17056737,
     -27.63696087
    ]
   },
   "properties": {
    "name": "1082 SHIRLO ROAD BINDEBANGO 4488",
    "locID": "LOC000064308814",
    "tech": "SATELLITE",
    "upgrade": "NULL_NA",
    "gnaf_pid": "GAQLD162387082",
    "tech_change_status": "Not Planned"
   }
  },
  {
   "type": "Feature",
   "geometry": {
    "type": "Point",
    "coordinates": [
     147.17598494,
     -27.76703265
    ]
   },
   "properties": {
    "name": "1975 SHIRLO ROAD BINDEBANGO 4488",
    "locID": "LOC000099572506",
    "tech": "SATELLITE",
    "upgrade": "NULL_NA",
    "gnaf_pid": "GAQLD162387083",
    "tech_change_status": "Not Planned"
   }
  },
  {
   "type": "Feature",
   "geometry": {
    "type": "Point",
    "coordinates": [
     147.81996552,
     -27.55777118
    ]
   },
   "properties": {
    "name": "LOT 3 MIDDLE ROAD BINDEBANGO 4488",
    "locID": "LOC000142338384",
    "tech": "SATELLITE",
    "upgrade": "NULL_NA",
    "gnaf_pid": "GAQLD425179867",
    "tech_change_status": "Not Planned"
   }
  },
  {
   "type": "Feature",
   "geometry": {
    "type": "Point",
    "coordinates": [
     147.13929497,
     -27.55155244
    ]
   },
   "properties": {
    "name": "1566 BENGARCIA ROAD BINDEBANGO 4488",
    "locID": "LOC000148362544",
    "tech": "SATELLITE",
    "upgrade": "NULL_NA",
    "gnaf_pid": "GAQLD425472974",
    "tech_change_status": "Not Planned"
   }
  },
  {
   "type": "Feature",
   "geometry": {
    "type": "Point",
    "coordinates": [
     147.28270915,
     -27.59019044
    ]
   },
   "properties": {
    "name": "444 BENGARCIA ROAD BINDEBANGO 4488",
    "locID": "LOC000148362563",
    "tech": "SATELLITE",
    "upgrade": "NULL_NA",
    "gnaf_pid": "GAQLD425472976",
    "tech_change_status": "Not Planned"
   }
  },
  {
   "type": "Feature",
   "geometry": {
    "type": "Point",
    "coordinates": [
     147.41733053,
     -27.82083443
    ]
   },
   "properties": {
    "name": "17741 BOLLON ROAD BINDEBANGO 4488",
    "locID": "LOC000142349411",
    "tech": "SATELLITE",
    "upgrade": "NULL_NA",
    "gnaf_pid": "GAQLD425473204",
    "tech_change_status": "Not Planned"
   }
  },
  {
   "type": "Feature",
   "geometry": {
    "type": "Point",
    "coordinates": [
     147.38232356,
     -27.63982782
    ]
   },
   "properties": {
    "name": "171 HOMEBOIN ROAD BINDEBANGO 4488",
    "locID": "LOC000152255900",
    "tech": "SATELLITE",
    "upgrade": "NULL_NA",
    "gnaf_pid": "GAQLD425476271",
    "tech_change_status": "Not Planned"
   }
  },
  {
   "type": "Feature",
   "geometry": {
    "type": "Point",
    "coordinates": [
     147.50287112,
     -27.64769719
    ]
   },
   "properties": {
    "name": "357 HOMEBOIN ROAD BINDEBANGO 4488",
    "locID": "LOC000148083778",
    "tech": "SATELLITE",
    "upgrade": "NULL_NA",
    "gnaf_pid": "GAQLD425476272",
    "tech_change_status": "Not Planned"
   }
  },
  {
   "type": "Feature",
   "geometry": {
    "type": "Point",
    "coordinates": [
     147.81996552,
     -27.55777118
    ]
   },
   "properties": {
    "name": "11204 MIDDLE ROAD BINDEBANGO 4488",
    "locID": "LOC000142338384",
    "tech": "SATELLITE",
    "upgrade": "NULL_NA",
    "gnaf_pid": "GAQLD425664486",
    "tech_change_status": "Not Planned"
   }
  },
  {
   "type": "Feature",
   "geometry": {
    "type": "Point",
    "coordinates": [
     147.73821464,
     -27.56127528
    ]
   },
   "properties": {
    "name": "517 SOUTHAMPTON ROAD BINDEBANGO 4488",
    "locID": "LOC000185076839",
    "tech": "SATELLITE",
    "upgrade": "NULL_NA",
    "gnaf_pid": "GAQLD720204825",
    "tech_change_status": "Not Planned"
   }
  },
  {
   "type": "Feature",
   "geometry": {
    "type": "Point",
    "coordinates": [
     147.43455532,
     -27.62388639
    ]
   },
   "properties": {
    "name": "2524 CARDIFF ROAD BINDEBANGO 4488",
    "locID": "LOC000177318657",
    "tech": "SATELLITE",
    "upgrade": "NULL_NA",
    "gnaf_pid": "GAQLD720330878",
    "tech_change_status": "Not Planned"
   }
  }
 ]
}