{
 "type": "FeatureCollection",
 "generated": "2023-09-23T04:02:03.442482",
 "suburb": "BUNDOORA",
 "features": [
  {
   "type": "Feature",
   "geometry": {
    "type": "Point",
    "coordinates": [
     148.53845602,
     -23.04583143
    ]
   },
   "properties": {
    "name": "LOT 5 CONNECTION ROAD BUNDOORA 4723",
    "locID": "LOC000129251687",
    "tech": "SATELLITE",
    "upgrade": "NULL_NA",
    "gnaf_pid": "GAQLD161108216"
   }
  },
  {
   "type": "Feature",
   "geometry": {
    "type": "Point",
    "coordinates": [
     148.54270509,
     -22.99450099
    ]
   },
   "properties": {
    "name": "LOT 8 GRASSTREE ROAD BUNDOORA 4723",
    "locID": "LOC000129206222",
    "tech": "SATELLITE",
    "upgrade": "NULL_NA",
    "gnaf_pid": "GAQLD162350800"
   }
  },
  {
   "type": "Feature",
   "geometry": {
    "type": "Point",
    "coordinates": [
     148.53231777,
     -22.88260921
    ]
   },
   "properties": {
    "name": "4245 DYSART - MIDDLEMOUNT ROAD BUNDOORA 4723",
    "locID": "ChIJKZu5KPF5xWsRpk_0juxwQr0",
    "tech": "SATELLITE",
    "upgrade": "UNKNOWN",
    "gnaf_pid": "GAQLD425663259"
   }
  },
  {
   "type": "Feature",
   "geometry": {
    "type": "Point",
    "coordinates": [
     148.420563,
     -22.99252427
    ]
   },
   "properties": {
    "name": "555 CONNECTION ROAD BUNDOORA 4723",
    "locID": "ChIJNb0AIgOBxWsRVmQGqmmdFIs",
    "tech": "SATELLITE",
    "upgrade": "UNKNOWN",
    "gnaf_pid": "GAQLD719962188"
   }
  },
  {
   "type": "Feature",
   "geometry": {
    "type": "Point",
    "coordinates": [
     148.42625712,
     -23.06715509
    ]
   },
   "properties": {
    "name": "1000 OAKEY CREEK ROAD BUNDOORA 4723",
    "locID": "ChIJrxb2U_iGxWsRvvJD2ofoxME",
    "tech": "SATELLITE",
    "upgrade": "UNKNOWN",
    "gnaf_pid": "GAQLD720770802"
   }
  },
  {
   "type": "Feature",
   "geometry": {
    "type": "Point",
    "coordinates": [
     148.45025279,
     -22.92868769
    ]
   },
   "properties": {
    "name": "1113 ANNCROUYE ROAD BUNDOORA 4723",
    "locID": "ChIJjbw5NUZ_xWsR5iTmmSCdyLE",
    "tech": "SATELLITE",
    "upgrade": "UNKNOWN",
    "gnaf_pid": "GAQLD721310696"
   }
  }
 ]
}