{
 "type": "FeatureCollection",
 "generated": "2023-07-13T08:28:00.054432",
 "suburb": "COOLADDI",
 "features": [
  {
   "type": "Feature",
   "geometry": {
    "type": "Point",
    "coordinates": [
     145.56831229,
     -26.9453882
    ]
   },
   "properties": {
    "name": "LOT 1 DOOBIBLA ROAD COOLADDI 4479",
    "locID": "ChIJuxPVnHWzUmoRLiLMkIwK8-Q",
    "tech": "SATELLITE",
    "upgrade": "UNKNOWN",
    "gnaf_pid": "GAQLD155207622"
   }
  },
  {
   "type": "Feature",
   "geometry": {
    "type": "Point",
    "coordinates": [
     145.55409783,
     -26.99233525
    ]
   },
   "properties": {
    "name": "LOT 2 DOOBIBLA ROAD COOLADDI 4479",
    "locID": "EilEb29iaWJsYSBSZCwgQ29vbGFkZGkgUUxEIDQ0NzksIEF1c3RyYWxpYSIuKiwKFAoSCSNFSEILqVJqEf3t75Gq3sRSEhQKEgl5A5di1cuyaxGwFwnT9O4AHA",
    "tech": "SATELLITE",
    "upgrade": "UNKNOWN",
    "gnaf_pid": "GAQLD161129185"
   }
  },
  {
   "type": "Feature",
   "geometry": {
    "type": "Point",
    "coordinates": [
     145.28536464,
     -26.94505439
    ]
   },
   "properties": {
    "name": "LOT 4 DOOBIBLA ROAD COOLADDI 4479",
    "locID": "EilEb29iaWJsYSBSZCwgQ29vbGFkZGkgUUxEIDQ0NzksIEF1c3RyYWxpYSIuKiwKFAoSCSNFSEILqVJqEf3t75Gq3sRSEhQKEgl5A5di1cuyaxGwFwnT9O4AHA",
    "tech": "SATELLITE",
    "upgrade": "UNKNOWN",
    "gnaf_pid": "GAQLD161129186"
   }
  },
  {
   "type": "Feature",
   "geometry": {
    "type": "Point",
    "coordinates": [
     145.47870587,
     -26.2415291
    ]
   },
   "properties": {
    "name": "1992 NORAH PARK ROAD COOLADDI 4479",
    "locID": "ChIJBfNvtFnVTGoR65wY7aWOwn4",
    "tech": "SATELLITE",
    "upgrade": "UNKNOWN",
    "gnaf_pid": "GAQLD162667538"
   }
  },
  {
   "type": "Feature",
   "geometry": {
    "type": "Point",
    "coordinates": [
     145.55947796,
     -26.75179322
    ]
   },
   "properties": {
    "name": "6972 OLD QUILPIE ROAD COOLADDI 4479",
    "locID": "ChIJo1yjnxKysmsR5PtdDKC8hn8",
    "tech": "SATELLITE",
    "upgrade": "UNKNOWN",
    "gnaf_pid": "GAQLD163126687"
   }
  },
  {
   "type": "Feature",
   "geometry": {
    "type": "Point",
    "coordinates": [
     145.55947796,
     -26.75179322
    ]
   },
   "properties": {
    "name": "1115 OLD QUILPIE ROAD COOLADDI 4479",
    "locID": "LOC000063052255",
    "tech": "SATELLITE",
    "upgrade": "NULL_NA",
    "gnaf_pid": "GAQLD163265844"
   }
  },
  {
   "type": "Feature",
   "geometry": {
    "type": "Point",
    "coordinates": [
     145.69646485,
     -26.74589694
    ]
   },
   "properties": {
    "name": "1370 WOOYENONG ROAD COOLADDI 4479",
    "locID": "ChIJpe7pfkO6smsRN5gBh24B0zk",
    "tech": "SATELLITE",
    "upgrade": "UNKNOWN",
    "gnaf_pid": "GAQLD163269096"
   }
  },
  {
   "type": "Feature",
   "geometry": {
    "type": "Point",
    "coordinates": [
     145.58158077,
     -26.65241026
    ]
   },
   "properties": {
    "name": "5542 DIAMANTINA DEVELOPMENTAL ROAD COOLADDI 4479",
    "locID": "ChIJS2K29IK2smsRctu3y5Bmirs",
    "tech": "SATELLITE",
    "upgrade": "UNKNOWN",
    "gnaf_pid": "GAQLD424855528"
   }
  },
  {
   "type": "Feature",
   "geometry": {
    "type": "Point",
    "coordinates": [
     145.43275746,
     -26.94577342
    ]
   },
   "properties": {
    "name": "231 ALLAMBIE ROAD COOLADDI 4479",
    "locID": "LOC000142357123",
    "tech": "SATELLITE",
    "upgrade": "NULL_NA",
    "gnaf_pid": "GAQLD425249103"
   }
  },
  {
   "type": "Feature",
   "geometry": {
    "type": "Point",
    "coordinates": [
     145.55947796,
     -26.75179322
    ]
   },
   "properties": {
    "name": "8737 OLD QUILPIE ROAD COOLADDI 4479",
    "locID": "LOC000154475896",
    "tech": "SATELLITE",
    "upgrade": "NULL_NA",
    "gnaf_pid": "GAQLD425550163"
   }
  },
  {
   "type": "Feature",
   "geometry": {
    "type": "Point",
    "coordinates": [
     145.55947796,
     -26.75179322
    ]
   },
   "properties": {
    "name": "54 OLD QUILPIE ROAD COOLADDI 4479",
    "locID": "ChIJo1yjnxKysmsRNjpoZccBtdc",
    "tech": "SATELLITE",
    "upgrade": "UNKNOWN",
    "gnaf_pid": "GAQLD425646365"
   }
  },
  {
   "type": "Feature",
   "geometry": {
    "type": "Point",
    "coordinates": [
     145.64583322,
     -26.48761265
    ]
   },
   "properties": {
    "name": "656 GLENALLEN ROAD COOLADDI 4479",
    "locID": "ChIJj50mlqLPsmsRa5KMsQTwZ1w",
    "tech": "SATELLITE",
    "upgrade": "UNKNOWN",
    "gnaf_pid": "GAQLD719560016"
   }
  },
  {
   "type": "Feature",
   "geometry": {
    "type": "Point",
    "coordinates": [
     145.55947796,
     -26.75179322
    ]
   },
   "properties": {
    "name": "1008 OLD QUILPIE ROAD COOLADDI 4479",
    "locID": "LOC000142307071",
    "tech": "SATELLITE",
    "upgrade": "NULL_NA",
    "gnaf_pid": "GAQLD719819600"
   }
  },
  {
   "type": "Feature",
   "geometry": {
    "type": "Point",
    "coordinates": [
     145.55947796,
     -26.75179322
    ]
   },
   "properties": {
    "name": "8736 OLD QUILPIE ROAD COOLADDI 4479",
    "locID": "ChIJo1yjnxKysmsRJCrN66IIufI",
    "tech": "SATELLITE",
    "upgrade": "UNKNOWN",
    "gnaf_pid": "GAQLD719821000"
   }
  },
  {
   "type": "Feature",
   "geometry": {
    "type": "Point",
    "coordinates": [
     145.49770936,
     -26.45620682
    ]
   },
   "properties": {
    "name": "1513 COOLADDI LANGLO ROAD COOLADDI 4479",
    "locID": "LOC000184953660",
    "tech": "SATELLITE",
    "upgrade": "NULL_NA",
    "gnaf_pid": "GAQLD719823102"
   }
  },
  {
   "type": "Feature",
   "geometry": {
    "type": "Point",
    "coordinates": [
     145.41152286,
     -26.90579595
    ]
   },
   "properties": {
    "name": "993 DOOBIBLA ROAD COOLADDI 4479",
    "locID": "ChIJ31DUZhiqUmoRFc6zIGtcHDs",
    "tech": "SATELLITE",
    "upgrade": "UNKNOWN",
    "gnaf_pid": "GAQLD719896881"
   }
  },
  {
   "type": "Feature",
   "geometry": {
    "type": "Point",
    "coordinates": [
     145.79094452,
     -26.44110272
    ]
   },
   "properties": {
    "name": "3269 BURRANDILLA ROAD COOLADDI 4479",
    "locID": "ChIJjRo5Y0XcsmsRg_sbY4V9v0g",
    "tech": "SATELLITE",
    "upgrade": "UNKNOWN",
    "gnaf_pid": "GAQLD720674110"
   }
  },
  {
   "type": "Feature",
   "geometry": {
    "type": "Point",
    "coordinates": [
     145.39701312,
     -26.41316202
    ]
   },
   "properties": {
    "name": "1286 NIMBOY ROAD COOLADDI 4479",
    "locID": "LOC000142986640",
    "tech": "SATELLITE",
    "upgrade": "NULL_NA",
    "gnaf_pid": "GAQLD720985649"
   }
  }
 ]
}