{
 "type": "FeatureCollection",
 "generated": "2024-08-02T07:52:15.120513",
 "suburb": "GLEN RUSSELL",
 "features": [
  {
   "type": "Feature",
   "geometry": {
    "type": "Point",
    "coordinates": [
     145.16877463,
     -17.00990568
    ]
   },
   "properties": {
    "name": "LOT 10 GOLD STREET GLEN RUSSELL 4880",
    "locID": "LOC000053634340",
    "tech": "FTTN",
    "upgrade": "FTTP_SA",
    "gnaf_pid": "GAQLD161162797",
    "tech_change_status": "Eligible to Order",
    "program_type": "On-Demand N2P SDU/MDU Simple",
    "target_eligibility_quarter": "NA"
   }
  },
  {
   "type": "Feature",
   "geometry": {
    "type": "Point",
    "coordinates": [
     145.20648278,
     -16.9487839
    ]
   },
   "properties": {
    "name": "1600 MCBEAN ROAD GLEN RUSSELL 4880",
    "locID": "LOC000114896281",
    "tech": "SATELLITE",
    "upgrade": "NULL_NA",
    "gnaf_pid": "GAQLD161447368",
    "tech_change_status": "Not Planned"
   }
  },
  {
   "type": "Feature",
   "geometry": {
    "type": "Point",
    "coordinates": [
     145.16843805,
     -17.00824055
    ]
   },
   "properties": {
    "name": "1290 BRAUND ROAD GLEN RUSSELL 4880",
    "locID": "LOC000129829038",
    "tech": "SATELLITE",
    "upgrade": "NULL_NA",
    "gnaf_pid": "GAQLD161618140",
    "tech_change_status": "Not Planned"
   }
  },
  {
   "type": "Feature",
   "geometry": {
    "type": "Point",
    "coordinates": [
     145.25223277,
     -16.91561583
    ]
   },
   "properties": {
    "name": "LOT 141 TYRCONNELL ROAD GLEN RUSSELL 4880",
    "locID": "LOC000129770179",
    "tech": "SATELLITE",
    "upgrade": "NULL_NA",
    "gnaf_pid": "GAQLD161644910",
    "tech_change_status": "Not Planned"
   }
  },
  {
   "type": "Feature",
   "geometry": {
    "type": "Point",
    "coordinates": [
     145.2788654,
     -16.99719858
    ]
   },
   "properties": {
    "name": "676 TYRCONNELL ROAD GLEN RUSSELL 4880",
    "locID": "LOC000129815808",
    "tech": "SATELLITE",
    "upgrade": "NULL_NA",
    "gnaf_pid": "GAQLD161644911",
    "tech_change_status": "Not Planned"
   }
  }
 ]
}