{
 "type": "FeatureCollection",
 "generated": "2024-08-02T18:47:24.848961",
 "suburb": "GOORGANGA CREEK",
 "features": [
  {
   "type": "Feature",
   "geometry": {
    "type": "Point",
    "coordinates": [
     148.47471447,
     -20.52022549
    ]
   },
   "properties": {
    "name": "LOT 21 SILVER CREEK ROAD GOORGANGA CREEK 4800",
    "locID": "LOC000084128933",
    "tech": "WIRELESS",
    "upgrade": "NULL_NA",
    "gnaf_pid": "GAQLD161308673",
    "tech_change_status": "Not Planned",
    "program_type": "Fixed Wireless and Satellite Upgrade Program",
    "target_eligibility_quarter": "NA"
   }
  },
  {
   "type": "Feature",
   "geometry": {
    "type": "Point",
    "coordinates": [
     148.49106133,
     -20.51311769
    ]
   },
   "properties": {
    "name": "LOT 18 EMMERSON ROAD GOORGANGA CREEK 4800",
    "locID": "LOC000167767516",
    "tech": "SATELLITE",
    "upgrade": "NULL_NA",
    "gnaf_pid": "GAQLD161435282",
    "tech_change_status": "Not Planned"
   }
  },
  {
   "type": "Feature",
   "geometry": {
    "type": "Point",
    "coordinates": [
     148.50407582,
     -20.52757308
    ]
   },
   "properties": {
    "name": "1345 GUNYARRA ROAD GOORGANGA CREEK 4800",
    "locID": "LOC000087060879",
    "tech": "SATELLITE",
    "upgrade": "NULL_NA",
    "gnaf_pid": "GAQLD161510815",
    "tech_change_status": "Not Planned"
   }
  },
  {
   "type": "Feature",
   "geometry": {
    "type": "Point",
    "coordinates": [
     148.47847159,
     -20.49574204
    ]
   },
   "properties": {
    "name": "427 EMMERSON ROAD GOORGANGA CREEK 4800",
    "locID": "LOC000092303766",
    "tech": "SATELLITE",
    "upgrade": "NULL_NA",
    "gnaf_pid": "GAQLD161782018",
    "tech_change_status": "Not Planned"
   }
  },
  {
   "type": "Feature",
   "geometry": {
    "type": "Point",
    "coordinates": [
     148.4563264,
     -20.50859804
    ]
   },
   "properties": {
    "name": "LOT 22 EMMERSON ROAD GOORGANGA CREEK 4800",
    "locID": "LOC000167767516",
    "tech": "SATELLITE",
    "upgrade": "NULL_NA",
    "gnaf_pid": "GAQLD425588055",
    "tech_change_status": "Not Planned"
   }
  },
  {
   "type": "Feature",
   "geometry": {
    "type": "Point",
    "coordinates": [
     148.44032592,
     -20.51207645
    ]
   },
   "properties": {
    "name": "LOT 1 EMMERSON ROAD GOORGANGA CREEK 4800",
    "locID": "LOC000167767516",
    "tech": "SATELLITE",
    "upgrade": "NULL_NA",
    "gnaf_pid": "GAQLD720595792",
    "tech_change_status": "Not Planned"
   }
  },
  {
   "type": "Feature",
   "geometry": {
    "type": "Point",
    "coordinates": [
     148.46673378,
     -20.5200892
    ]
   },
   "properties": {
    "name": "LOT 2 GUNYARRA ROAD GOORGANGA CREEK 4800",
    "locID": "LOC000072569288",
    "tech": "SATELLITE",
    "upgrade": "NULL_NA",
    "gnaf_pid": "GAQLD720934388",
    "tech_change_status": "Not Planned"
   }
  }
 ]
}