{
 "type": "FeatureCollection",
 "generated": "2024-09-16T05:22:39.947731",
 "suburb": "JEEBROPILLY",
 "features": [
  {
   "type": "Feature",
   "geometry": {
    "type": "Point",
    "coordinates": [
     152.66801871,
     -27.63493827
    ]
   },
   "properties": {
    "name": "LOT 72 IPSWICH - ROSEWOOD ROAD JEEBROPILLY 4340",
    "locID": "LOC000127673184",
    "tech": "WIRELESS",
    "upgrade": "NULL_NA",
    "gnaf_pid": "GAQLD161187346",
    "tech_change_status": "Not Planned",
    "program_type": "Fixed Wireless and Satellite Upgrade Program",
    "target_eligibility_quarter": "Dec 2024"
   }
  },
  {
   "type": "Feature",
   "geometry": {
    "type": "Point",
    "coordinates": [
     152.66104817,
     -27.65262577
    ]
   },
   "properties": {
    "name": "LOT 207 STONE QUARRY ROAD JEEBROPILLY 4340",
    "locID": "LOC000127613563",
    "tech": "WIRELESS",
    "upgrade": "NULL_NA",
    "gnaf_pid": "GAQLD161318345",
    "tech_change_status": "Not Planned",
    "program_type": "Fixed Wireless and Satellite Upgrade Program",
    "target_eligibility_quarter": "Dec 2024"
   }
  },
  {
   "type": "Feature",
   "geometry": {
    "type": "Point",
    "coordinates": [
     152.65256138,
     -27.64763627
    ]
   },
   "properties": {
    "name": "LOT 3 EBENEZER ROAD JEEBROPILLY 4340",
    "locID": "LOC000143056473",
    "tech": "SATELLITE",
    "upgrade": "NULL_NA",
    "gnaf_pid": "GAQLD161751516",
    "tech_change_status": "Not Planned"
   }
  },
  {
   "type": "Feature",
   "geometry": {
    "type": "Point",
    "coordinates": [
     152.65909594,
     -27.64233571
    ]
   },
   "properties": {
    "name": "463-483 IPSWICH - ROSEWOOD ROAD JEEBROPILLY 4340",
    "locID": "LOC000127610352",
    "tech": "WIRELESS",
    "upgrade": "NULL_NA",
    "gnaf_pid": "GAQLD162510366",
    "tech_change_status": "Not Planned",
    "program_type": "Fixed Wireless and Satellite Upgrade Program",
    "target_eligibility_quarter": "Dec 2024"
   }
  },
  {
   "type": "Feature",
   "geometry": {
    "type": "Point",
    "coordinates": [
     152.65624697,
     -27.64932668
    ]
   },
   "properties": {
    "name": "486-516 IPSWICH - ROSEWOOD ROAD JEEBROPILLY 4340",
    "locID": "LOC000127673184",
    "tech": "WIRELESS",
    "upgrade": "NULL_NA",
    "gnaf_pid": "GAQLD162510368",
    "tech_change_status": "Not Planned",
    "program_type": "Fixed Wireless and Satellite Upgrade Program",
    "target_eligibility_quarter": "Dec 2024"
   }
  },
  {
   "type": "Feature",
   "geometry": {
    "type": "Point",
    "coordinates": [
     152.64195366,
     -27.646035
    ]
   },
   "properties": {
    "name": "633-641 IPSWICH - ROSEWOOD ROAD JEEBROPILLY 4340",
    "locID": "LOC000127622866",
    "tech": "WIRELESS",
    "upgrade": "NULL_NA",
    "gnaf_pid": "GAQLD162510377",
    "tech_change_status": "Not Planned",
    "program_type": "Fixed Wireless and Satellite Upgrade Program",
    "target_eligibility_quarter": "Dec 2024"
   }
  },
  {
   "type": "Feature",
   "geometry": {
    "type": "Point",
    "coordinates": [
     152.63997094,
     -27.65446854
    ]
   },
   "properties": {
    "name": "550-558 EBENEZER ROAD JEEBROPILLY 4340",
    "locID": "LOC000052835384",
    "tech": "WIRELESS",
    "upgrade": "NULL_NA",
    "gnaf_pid": "GAQLD163135445",
    "tech_change_status": "Not Planned",
    "program_type": "Fixed Wireless and Satellite Upgrade Program",
    "target_eligibility_quarter": "NA"
   }
  },
  {
   "type": "Feature",
   "geometry": {
    "type": "Point",
    "coordinates": [
     152.64081122,
     -27.65265288
    ]
   },
   "properties": {
    "name": "570-588 EBENEZER ROAD JEEBROPILLY 4340",
    "locID": "LOC000025925312",
    "tech": "WIRELESS",
    "upgrade": "NULL_NA",
    "gnaf_pid": "GAQLD163135448",
    "tech_change_status": "Not Planned",
    "program_type": "Fixed Wireless and Satellite Upgrade Program",
    "target_eligibility_quarter": "NA"
   }
  },
  {
   "type": "Feature",
   "geometry": {
    "type": "Point",
    "coordinates": [
     152.65259492,
     -27.65018566
    ]
   },
   "properties": {
    "name": "639-729 EBENEZER ROAD JEEBROPILLY 4340",
    "locID": "LOC000054260936",
    "tech": "WIRELESS",
    "upgrade": "NULL_NA",
    "gnaf_pid": "GAQLD163135452",
    "tech_change_status": "Not Planned",
    "program_type": "Fixed Wireless and Satellite Upgrade Program",
    "target_eligibility_quarter": "Dec 2024"
   }
  },
  {
   "type": "Feature",
   "geometry": {
    "type": "Point",
    "coordinates": [
     152.65420822,
     -27.66062007
    ]
   },
   "properties": {
    "name": "123-213 STONE QUARRY ROAD JEEBROPILLY 4340",
    "locID": "LOC000127613563",
    "tech": "WIRELESS",
    "upgrade": "NULL_NA",
    "gnaf_pid": "GAQLD163319059",
    "tech_change_status": "Not Planned",
    "program_type": "Fixed Wireless and Satellite Upgrade Program",
    "target_eligibility_quarter": "Dec 2024"
   }
  },
  {
   "type": "Feature",
   "geometry": {
    "type": "Point",
    "coordinates": [
     152.65713394,
     -27.66215303
    ]
   },
   "properties": {
    "name": "166-214 STONE QUARRY ROAD JEEBROPILLY 4340",
    "locID": "LOC000127613563",
    "tech": "WIRELESS",
    "upgrade": "NULL_NA",
    "gnaf_pid": "GAQLD163319061",
    "tech_change_status": "Not Planned",
    "program_type": "Fixed Wireless and Satellite Upgrade Program",
    "target_eligibility_quarter": "Dec 2024"
   }
  }
 ]
}