{
 "type": "FeatureCollection",
 "generated": "2023-07-14T15:27:38.315563",
 "suburb": "KILMOREY FALLS",
 "features": [
  {
   "type": "Feature",
   "geometry": {
    "type": "Point",
    "coordinates": [
     148.11799969,
     -26.3144642
    ]
   },
   "properties": {
    "name": "148 EASTERN CREEK ROAD KILMOREY FALLS 4465",
    "locID": "ChIJo18Of5ezsGsRIMy4hL8s5qs",
    "tech": "SATELLITE",
    "upgrade": "UNKNOWN",
    "gnaf_pid": "GAQLD162845680"
   }
  },
  {
   "type": "Feature",
   "geometry": {
    "type": "Point",
    "coordinates": [
     148.11139926,
     -26.3235933
    ]
   },
   "properties": {
    "name": "730 EASTERN CREEK ROAD KILMOREY FALLS 4465",
    "locID": "LOC000096147417",
    "tech": "SATELLITE",
    "upgrade": "NULL_NA",
    "gnaf_pid": "GAQLD163122933"
   }
  },
  {
   "type": "Feature",
   "geometry": {
    "type": "Point",
    "coordinates": [
     148.07419179,
     -26.32294478
    ]
   },
   "properties": {
    "name": "LOT 269 WELL GULLY ROAD KILMOREY FALLS 4465",
    "locID": "EitXZWxsIEd1bGx5IFJkLCBNaXRjaGVsbCBRTEQgNDQ2NSwgQXVzdHJhbGlhIi4qLAoUChIJ_wuE0022sGsRxpxxPXvVREYSFAoSCaus62u-uLBrEeCjIH_x7gAE",
    "tech": "SATELLITE",
    "upgrade": "UNKNOWN",
    "gnaf_pid": "GAQLD425134842"
   }
  },
  {
   "type": "Feature",
   "geometry": {
    "type": "Point",
    "coordinates": [
     148.07259861,
     -26.33500566
    ]
   },
   "properties": {
    "name": "LOT 270 WELL GULLY ROAD KILMOREY FALLS 4465",
    "locID": "EitXZWxsIEd1bGx5IFJkLCBNaXRjaGVsbCBRTEQgNDQ2NSwgQXVzdHJhbGlhIi4qLAoUChIJ_wuE0022sGsRxpxxPXvVREYSFAoSCaus62u-uLBrEeCjIH_x7gAE",
    "tech": "SATELLITE",
    "upgrade": "UNKNOWN",
    "gnaf_pid": "GAQLD425134843"
   }
  },
  {
   "type": "Feature",
   "geometry": {
    "type": "Point",
    "coordinates": [
     148.3203443,
     -26.12132816
    ]
   },
   "properties": {
    "name": "1383 ALCURAH ROAD KILMOREY FALLS 4465",
    "locID": "ChIJ2fR8_8lZt2sRylbRuwPtXFM",
    "tech": "SATELLITE",
    "upgrade": "UNKNOWN",
    "gnaf_pid": "GAQLD425472546"
   }
  },
  {
   "type": "Feature",
   "geometry": {
    "type": "Point",
    "coordinates": [
     148.36744503,
     -26.16831521
    ]
   },
   "properties": {
    "name": "161 ALCURAH ROAD KILMOREY FALLS 4465",
    "locID": "LOC100078018956",
    "tech": "SATELLITE",
    "upgrade": "NULL_NA",
    "gnaf_pid": "GAQLD425472547"
   }
  },
  {
   "type": "Feature",
   "geometry": {
    "type": "Point",
    "coordinates": [
     148.30864176,
     -26.08636713
    ]
   },
   "properties": {
    "name": "1666 ALCURAH ROAD KILMOREY FALLS 4465",
    "locID": "ChIJz-MvARJZt2sRCCbXF9Zt8DY",
    "tech": "SATELLITE",
    "upgrade": "UNKNOWN",
    "gnaf_pid": "GAQLD425472548"
   }
  },
  {
   "type": "Feature",
   "geometry": {
    "type": "Point",
    "coordinates": [
     148.29359046,
     -26.11406687
    ]
   },
   "properties": {
    "name": "1680 ALCURAH ROAD KILMOREY FALLS 4465",
    "locID": "LOC000150185619",
    "tech": "SATELLITE",
    "upgrade": "NULL_NA",
    "gnaf_pid": "GAQLD425472549"
   }
  },
  {
   "type": "Feature",
   "geometry": {
    "type": "Point",
    "coordinates": [
     148.3545332,
     -26.07277676
    ]
   },
   "properties": {
    "name": "788 ALCURAH ROAD KILMOREY FALLS 4465",
    "locID": "LOC000150185626",
    "tech": "SATELLITE",
    "upgrade": "NULL_NA",
    "gnaf_pid": "GAQLD425472550"
   }
  },
  {
   "type": "Feature",
   "geometry": {
    "type": "Point",
    "coordinates": [
     148.17852967,
     -26.171559
    ]
   },
   "properties": {
    "name": "3760 CATANGA ROAD KILMOREY FALLS 4465",
    "locID": "ChIJyWFKBRhOt2sRbuAdXfMVQVk",
    "tech": "SATELLITE",
    "upgrade": "UNKNOWN",
    "gnaf_pid": "GAQLD425473703"
   }
  },
  {
   "type": "Feature",
   "geometry": {
    "type": "Point",
    "coordinates": [
     148.18503065,
     -25.92503572
    ]
   },
   "properties": {
    "name": "7928 COOPERMURRA ROAD KILMOREY FALLS 4465",
    "locID": "LOC000142362508",
    "tech": "SATELLITE",
    "upgrade": "NULL_NA",
    "gnaf_pid": "GAQLD425474118"
   }
  },
  {
   "type": "Feature",
   "geometry": {
    "type": "Point",
    "coordinates": [
     148.10642697,
     -26.35037617
    ]
   },
   "properties": {
    "name": "2111 WARRONG ROAD KILMOREY FALLS 4465",
    "locID": "ChIJy1k-Y1mxsGsREEuUkqwShgo",
    "tech": "SATELLITE",
    "upgrade": "UNKNOWN",
    "gnaf_pid": "GAQLD425480208"
   }
  },
  {
   "type": "Feature",
   "geometry": {
    "type": "Point",
    "coordinates": [
     148.11042932,
     -26.33590887
    ]
   },
   "properties": {
    "name": "2438 WARRONG ROAD KILMOREY FALLS 4465",
    "locID": "LOC000150185661",
    "tech": "SATELLITE",
    "upgrade": "NULL_NA",
    "gnaf_pid": "GAQLD425480209"
   }
  },
  {
   "type": "Feature",
   "geometry": {
    "type": "Point",
    "coordinates": [
     148.14347658,
     -26.13176619
    ]
   },
   "properties": {
    "name": "5003 WARRONG ROAD KILMOREY FALLS 4465",
    "locID": "LOC000160476050",
    "tech": "SATELLITE",
    "upgrade": "NULL_NA",
    "gnaf_pid": "GAQLD425480210"
   }
  },
  {
   "type": "Feature",
   "geometry": {
    "type": "Point",
    "coordinates": [
     148.23463372,
     -26.03282662
    ]
   },
   "properties": {
    "name": "5914 WARRONG ROAD KILMOREY FALLS 4465",
    "locID": "LOC000182278045",
    "tech": "SATELLITE",
    "upgrade": "NULL_NA",
    "gnaf_pid": "GAQLD425480211"
   }
  },
  {
   "type": "Feature",
   "geometry": {
    "type": "Point",
    "coordinates": [
     148.0428158,
     -26.34129133
    ]
   },
   "properties": {
    "name": "648 WELL GULLY ROAD KILMOREY FALLS 4465",
    "locID": "ChIJGeiYvWW2sGsRHdLjUjgH770",
    "tech": "SATELLITE",
    "upgrade": "UNKNOWN",
    "gnaf_pid": "GAQLD425480325"
   }
  },
  {
   "type": "Feature",
   "geometry": {
    "type": "Point",
    "coordinates": [
     148.24172331,
     -26.20725146
    ]
   },
   "properties": {
    "name": "LOT 9 WARRONG ROAD KILMOREY FALLS 4465",
    "locID": "EilXYXJyb25nIFJkLCBXYWxoYWxsb3cgUUxEIDQ0NjIsIEF1c3RyYWxpYSIuKiwKFAoSCUePWH_iS7drEWtj2IfV_U9QEhQKEgmXHL3ATKywaxEQpiB_8e4ABA",
    "tech": "SATELLITE",
    "upgrade": "UNKNOWN",
    "gnaf_pid": "GAQLD719445458"
   }
  },
  {
   "type": "Feature",
   "geometry": {
    "type": "Point",
    "coordinates": [
     148.18956866,
     -26.13299982
    ]
   },
   "properties": {
    "name": "4996 MOUNTAINVIEW ROAD KILMOREY FALLS 4465",
    "locID": "ChIJmYQXdCBQt2sR4wG8aqyCRO0",
    "tech": "SATELLITE",
    "upgrade": "UNKNOWN",
    "gnaf_pid": "GAQLD721070851"
   }
  }
 ]
}