{
 "type": "FeatureCollection",
 "generated": "2024-08-06T02:02:18.561988",
 "suburb": "LAGLAN",
 "features": [
  {
   "type": "Feature",
   "geometry": {
    "type": "Point",
    "coordinates": [
     146.30904444,
     -22.27960921
    ]
   },
   "properties": {
    "name": "631 BIMBAH ROAD LAGLAN 4721",
    "locID": "LOC000072070016",
    "tech": "SATELLITE",
    "upgrade": "NULL_NA",
    "gnaf_pid": "GAQLD162923306",
    "tech_change_status": "Not Planned"
   }
  },
  {
   "type": "Feature",
   "geometry": {
    "type": "Point",
    "coordinates": [
     146.18686198,
     -22.38384156
    ]
   },
   "properties": {
    "name": "12760 LOU LOU PARK ROAD LAGLAN 4721",
    "locID": "LOC000142928846",
    "tech": "SATELLITE",
    "upgrade": "NULL_NA",
    "gnaf_pid": "GAQLD163168546",
    "tech_change_status": "Not Planned"
   }
  },
  {
   "type": "Feature",
   "geometry": {
    "type": "Point",
    "coordinates": [
     146.15111753,
     -22.08942173
    ]
   },
   "properties": {
    "name": "4801 MORAY CARMICHAEL BOUNDARY ROAD LAGLAN 4721",
    "locID": "LOC000142338661",
    "tech": "SATELLITE",
    "upgrade": "NULL_NA",
    "gnaf_pid": "GAQLD425804901",
    "tech_change_status": "Not Planned"
   }
  },
  {
   "type": "Feature",
   "geometry": {
    "type": "Point",
    "coordinates": [
     146.53077997,
     -22.49553096
    ]
   },
   "properties": {
    "name": "11451 LAGLAN ROAD LAGLAN 4721",
    "locID": "LOC000081754035",
    "tech": "SATELLITE",
    "upgrade": "NULL_NA",
    "gnaf_pid": "GAQLD719136779",
    "tech_change_status": "Not Planned"
   }
  },
  {
   "type": "Feature",
   "geometry": {
    "type": "Point",
    "coordinates": [
     146.38643,
     -22.433322
    ]
   },
   "properties": {
    "name": "1647 LOU LOU PARK ROAD LAGLAN 4721",
    "locID": "LOC000152808285",
    "tech": "SATELLITE",
    "upgrade": "NULL_NA",
    "gnaf_pid": "GAQLD719934205",
    "tech_change_status": "Not Planned"
   }
  },
  {
   "type": "Feature",
   "geometry": {
    "type": "Point",
    "coordinates": [
     146.18545316,
     -22.01946709
    ]
   },
   "properties": {
    "name": "LOT 2 CARMICHAEL ROAD LAGLAN 4721",
    "locID": "LOC000142338661",
    "tech": "SATELLITE",
    "upgrade": "NULL_NA",
    "gnaf_pid": "GAQLD720179816",
    "tech_change_status": "Not Planned"
   }
  },
  {
   "type": "Feature",
   "geometry": {
    "type": "Point",
    "coordinates": [
     146.61516441,
     -22.59994271
    ]
   },
   "properties": {
    "name": "LOT 6 ALBRO ROAD LAGLAN 4721",
    "locID": "LOC000153447506",
    "tech": "SATELLITE",
    "upgrade": "NULL_NA",
    "gnaf_pid": "GAQLD720208666",
    "tech_change_status": "Not Planned"
   }
  },
  {
   "type": "Feature",
   "geometry": {
    "type": "Point",
    "coordinates": [
     146.15111753,
     -22.08942173
    ]
   },
   "properties": {
    "name": "4358 MORAY CARMICHAEL BOUNDARY ROAD LAGLAN 4721",
    "locID": "LOC000181263626",
    "tech": "SATELLITE",
    "upgrade": "NULL_NA",
    "gnaf_pid": "GAQLD721146500",
    "tech_change_status": "Not Planned"
   }
  },
  {
   "type": "Feature",
   "geometry": {
    "type": "Point",
    "coordinates": [
     146.15111753,
     -22.08942173
    ]
   },
   "properties": {
    "name": "4739 MORAY CARMICHAEL BOUNDARY ROAD LAGLAN 4721",
    "locID": "LOC000181263626",
    "tech": "SATELLITE",
    "upgrade": "NULL_NA",
    "gnaf_pid": "GAQLD721148942",
    "tech_change_status": "Not Planned"
   }
  }
 ]
}