{
 "type": "FeatureCollection",
 "generated": "2023-09-26T09:58:17.351261",
 "suburb": "LAGLAN",
 "features": [
  {
   "type": "Feature",
   "geometry": {
    "type": "Point",
    "coordinates": [
     146.30904444,
     -22.27960921
    ]
   },
   "properties": {
    "name": "631 BIMBAH ROAD LAGLAN 4721",
    "locID": "LOC000072070016",
    "tech": "SATELLITE",
    "upgrade": "NULL_NA",
    "gnaf_pid": "GAQLD162923306"
   }
  },
  {
   "type": "Feature",
   "geometry": {
    "type": "Point",
    "coordinates": [
     146.18686543,
     -22.38390464
    ]
   },
   "properties": {
    "name": "12760 LOU LOU PARK ROAD LAGLAN 4721",
    "locID": "LOC000142928846",
    "tech": "SATELLITE",
    "upgrade": "NULL_NA",
    "gnaf_pid": "GAQLD163168546"
   }
  },
  {
   "type": "Feature",
   "geometry": {
    "type": "Point",
    "coordinates": [
     146.17096144,
     -22.41089386
    ]
   },
   "properties": {
    "name": "LOT 3 LOU LOU PARK ROAD LAGLAN 4721",
    "locID": "ChIJbRIDjcIBzWsRvOemStpHi8Q",
    "tech": "SATELLITE",
    "upgrade": "UNKNOWN",
    "gnaf_pid": "GAQLD163168548"
   }
  },
  {
   "type": "Feature",
   "geometry": {
    "type": "Point",
    "coordinates": [
     146.57048445,
     -22.45346528
    ]
   },
   "properties": {
    "name": "328 ALINYA ROAD LAGLAN 4721",
    "locID": "ChIJBbBAyQ3KzWsRoZn3k-K8akQ",
    "tech": "SATELLITE",
    "upgrade": "UNKNOWN",
    "gnaf_pid": "GAQLD425757117"
   }
  },
  {
   "type": "Feature",
   "geometry": {
    "type": "Point",
    "coordinates": [
     146.15111753,
     -22.08942173
    ]
   },
   "properties": {
    "name": "4801 MORAY CARMICHAEL BOUNDARY ROAD LAGLAN 4721",
    "locID": "LOC000142338661",
    "tech": "SATELLITE",
    "upgrade": "NULL_NA",
    "gnaf_pid": "GAQLD425804901"
   }
  },
  {
   "type": "Feature",
   "geometry": {
    "type": "Point",
    "coordinates": [
     146.48512149,
     -22.59173702
    ]
   },
   "properties": {
    "name": "1566 ALBRO ROAD LAGLAN 4721",
    "locID": "ChIJv0tTWlpJzGsR_PoPdrKcJuQ",
    "tech": "SATELLITE",
    "upgrade": "UNKNOWN",
    "gnaf_pid": "GAQLD719129279"
   }
  },
  {
   "type": "Feature",
   "geometry": {
    "type": "Point",
    "coordinates": [
     146.53077997,
     -22.49553096
    ]
   },
   "properties": {
    "name": "11451 LAGLAN ROAD LAGLAN 4721",
    "locID": "LOC000081754035",
    "tech": "SATELLITE",
    "upgrade": "NULL_NA",
    "gnaf_pid": "GAQLD719136779"
   }
  },
  {
   "type": "Feature",
   "geometry": {
    "type": "Point",
    "coordinates": [
     146.51050709,
     -22.37641365
    ]
   },
   "properties": {
    "name": "487 MELLALUKA ROAD LAGLAN 4721",
    "locID": "ChIJ7fqA5QO3zWsRe2HzEhIffO0",
    "tech": "SATELLITE",
    "upgrade": "UNKNOWN",
    "gnaf_pid": "GAQLD719172089"
   }
  },
  {
   "type": "Feature",
   "geometry": {
    "type": "Point",
    "coordinates": [
     146.47061305,
     -22.7072175
    ]
   },
   "properties": {
    "name": "LOT 3 DEGULLA ROAD LAGLAN 4721",
    "locID": "LOC000142317261",
    "tech": "SATELLITE",
    "upgrade": "NULL_NA",
    "gnaf_pid": "GAQLD719446942"
   }
  },
  {
   "type": "Feature",
   "geometry": {
    "type": "Point",
    "coordinates": [
     146.38613303,
     -22.43338785
    ]
   },
   "properties": {
    "name": "2871 LOU LOU PARK ROAD LAGLAN 4721",
    "locID": "ChIJV3MIW36yzWsRkFIrK7YuoNc",
    "tech": "SATELLITE",
    "upgrade": "UNKNOWN",
    "gnaf_pid": "GAQLD719928169"
   }
  },
  {
   "type": "Feature",
   "geometry": {
    "type": "Point",
    "coordinates": [
     146.38613303,
     -22.43338785
    ]
   },
   "properties": {
    "name": "5822 LOU LOU PARK ROAD LAGLAN 4721",
    "locID": "ChIJV3MIW36yzWsRu3K2yvJvZG0",
    "tech": "SATELLITE",
    "upgrade": "UNKNOWN",
    "gnaf_pid": "GAQLD719929419"
   }
  },
  {
   "type": "Feature",
   "geometry": {
    "type": "Point",
    "coordinates": [
     146.54637742,
     -22.73610653
    ]
   },
   "properties": {
    "name": "6402 DEGULLA ROAD LAGLAN 4721",
    "locID": "ChIJPaesP25HzGsRnra8R73mn-o",
    "tech": "SATELLITE",
    "upgrade": "UNKNOWN",
    "gnaf_pid": "GAQLD719930660"
   }
  },
  {
   "type": "Feature",
   "geometry": {
    "type": "Point",
    "coordinates": [
     146.38613303,
     -22.43338785
    ]
   },
   "properties": {
    "name": "1647 LOU LOU PARK ROAD LAGLAN 4721",
    "locID": "LOC000152808285",
    "tech": "SATELLITE",
    "upgrade": "NULL_NA",
    "gnaf_pid": "GAQLD719934205"
   }
  },
  {
   "type": "Feature",
   "geometry": {
    "type": "Point",
    "coordinates": [
     146.18545316,
     -22.01946709
    ]
   },
   "properties": {
    "name": "LOT 2 CARMICHAEL ROAD LAGLAN 4721",
    "locID": "LOC000142338661",
    "tech": "SATELLITE",
    "upgrade": "NULL_NA",
    "gnaf_pid": "GAQLD720179816"
   }
  },
  {
   "type": "Feature",
   "geometry": {
    "type": "Point",
    "coordinates": [
     146.38613303,
     -22.43338785
    ]
   },
   "properties": {
    "name": "11451 LOU LOU PARK ROAD LAGLAN 4721",
    "locID": "ChIJV3MIW36yzWsRy0gtfFHFFt4",
    "tech": "SATELLITE",
    "upgrade": "UNKNOWN",
    "gnaf_pid": "GAQLD720183060"
   }
  },
  {
   "type": "Feature",
   "geometry": {
    "type": "Point",
    "coordinates": [
     146.67245729,
     -22.67365425
    ]
   },
   "properties": {
    "name": "2835 ALBRO ROAD LAGLAN 4721",
    "locID": "ChIJWceEON4wzGsRKx_q0Z0n8Xo",
    "tech": "SATELLITE",
    "upgrade": "UNKNOWN",
    "gnaf_pid": "GAQLD720200292"
   }
  },
  {
   "type": "Feature",
   "geometry": {
    "type": "Point",
    "coordinates": [
     146.84340316,
     -22.60948106
    ]
   },
   "properties": {
    "name": "9737 LAGLAN ROAD LAGLAN 4721",
    "locID": "ChIJjUEoumgrzGsRn4MxV-jUz3g",
    "tech": "SATELLITE",
    "upgrade": "UNKNOWN",
    "gnaf_pid": "GAQLD720202646"
   }
  },
  {
   "type": "Feature",
   "geometry": {
    "type": "Point",
    "coordinates": [
     146.15111753,
     -22.08942173
    ]
   },
   "properties": {
    "name": "4358 MORAY CARMICHAEL BOUNDARY ROAD LAGLAN 4721",
    "locID": "LOC000181263626",
    "tech": "SATELLITE",
    "upgrade": "NULL_NA",
    "gnaf_pid": "GAQLD721146500"
   }
  },
  {
   "type": "Feature",
   "geometry": {
    "type": "Point",
    "coordinates": [
     146.15111753,
     -22.08942173
    ]
   },
   "properties": {
    "name": "4739 MORAY CARMICHAEL BOUNDARY ROAD LAGLAN 4721",
    "locID": "LOC000181263626",
    "tech": "SATELLITE",
    "upgrade": "NULL_NA",
    "gnaf_pid": "GAQLD721148942"
   }
  },
  {
   "type": "Feature",
   "geometry": {
    "type": "Point",
    "coordinates": [
     146.85752454,
     -22.43315883
    ]
   },
   "properties": {
    "name": "8680 LAGLAN ROAD LAGLAN 4721",
    "locID": "ChIJW8wmF2nXzWsRL0vf-Z6M9J8",
    "tech": "SATELLITE",
    "upgrade": "UNKNOWN",
    "gnaf_pid": "GAQLD721309187"
   }
  },
  {
   "type": "Feature",
   "geometry": {
    "type": "Point",
    "coordinates": [
     146.84268795,
     -22.50446748
    ]
   },
   "properties": {
    "name": "9564 LAGLAN ROAD LAGLAN 4721",
    "locID": "ChIJZynjrRzUzWsRMv7D1UNxJEI",
    "tech": "SATELLITE",
    "upgrade": "UNKNOWN",
    "gnaf_pid": "GAQLD721312222"
   }
  }
 ]
}