{
 "type": "FeatureCollection",
 "generated": "2023-07-14T18:26:27.095076",
 "suburb": "LAWN HILL",
 "features": [
  {
   "type": "Feature",
   "geometry": {
    "type": "Point",
    "coordinates": [
     139.08049071,
     -19.12339343
    ]
   },
   "properties": {
    "name": "3186 RIVERSLEIGH ROAD LAWN HILL 4825",
    "locID": "LOC000142338234",
    "tech": "SATELLITE",
    "upgrade": "NULL_NA",
    "gnaf_pid": "GAQLD163266867"
   }
  },
  {
   "type": "Feature",
   "geometry": {
    "type": "Point",
    "coordinates": [
     138.35114607,
     -19.11081516
    ]
   },
   "properties": {
    "name": "4592 MORESTONE ROAD LAWN HILL 4825",
    "locID": "LOC000148089590",
    "tech": "SATELLITE",
    "upgrade": "NULL_NA",
    "gnaf_pid": "GAQLD425240299"
   }
  },
  {
   "type": "Feature",
   "geometry": {
    "type": "Point",
    "coordinates": [
     138.09608606,
     -18.72133619
    ]
   },
   "properties": {
    "name": "11376 ROCKLANDS ROAD LAWN HILL 4825",
    "locID": "LOC000148055768",
    "tech": "SATELLITE",
    "upgrade": "NULL_NA",
    "gnaf_pid": "GAQLD425266591"
   }
  },
  {
   "type": "Feature",
   "geometry": {
    "type": "Point",
    "coordinates": [
     138.75880277,
     -18.23171829
    ]
   },
   "properties": {
    "name": "LOT 5 DOOMADGEE ROAD LAWN HILL 4825",
    "locID": "LOC100071888046",
    "tech": "SATELLITE",
    "upgrade": "NULL_NA",
    "gnaf_pid": "GAQLD719131226"
   }
  },
  {
   "type": "Feature",
   "geometry": {
    "type": "Point",
    "coordinates": [
     138.52970241,
     -18.69371068
    ]
   },
   "properties": {
    "name": "LOT 3 RIVERSLEIGH ROAD LAWN HILL 4825",
    "locID": "LOC000179958807",
    "tech": "SATELLITE",
    "upgrade": "NULL_NA",
    "gnaf_pid": "GAQLD720859998"
   }
  },
  {
   "type": "Feature",
   "geometry": {
    "type": "Point",
    "coordinates": [
     138.71912374,
     -19.0205669
    ]
   },
   "properties": {
    "name": "LOT 13 RIVERSLEIGH ROAD LAWN HILL 4825",
    "locID": "LOC000179958807",
    "tech": "SATELLITE",
    "upgrade": "NULL_NA",
    "gnaf_pid": "GAQLD721149612"
   }
  },
  {
   "type": "Feature",
   "geometry": {
    "type": "Point",
    "coordinates": [
     138.72756649,
     -19.056755
    ]
   },
   "properties": {
    "name": "LOT 2 RIVERSLEIGH ROAD LAWN HILL 4825",
    "locID": "LOC000179958807",
    "tech": "SATELLITE",
    "upgrade": "NULL_NA",
    "gnaf_pid": "GAQLD721149712"
   }
  }
 ]
}