{
 "type": "FeatureCollection",
 "generated": "2024-07-18T03:27:13.290848",
 "suburb": "LEAFDALE",
 "features": [
  {
   "type": "Feature",
   "geometry": {
    "type": "Point",
    "coordinates": [
     151.76591995,
     -26.24337846
    ]
   },
   "properties": {
    "name": "1313 WONDAI - PROSTON ROAD LEAFDALE 4606",
    "locID": "LOC000034129891",
    "tech": "SATELLITE",
    "upgrade": "NULL_NA",
    "gnaf_pid": "GAQLD158160756",
    "tech_change_status": "Not Planned"
   }
  },
  {
   "type": "Feature",
   "geometry": {
    "type": "Point",
    "coordinates": [
     151.78773522,
     -26.2511793
    ]
   },
   "properties": {
    "name": "1061 WONDAI - PROSTON ROAD LEAFDALE 4606",
    "locID": "LOC000025316907",
    "tech": "SATELLITE",
    "upgrade": "NULL_NA",
    "gnaf_pid": "GAQLD160990858",
    "tech_change_status": "Not Planned"
   }
  },
  {
   "type": "Feature",
   "geometry": {
    "type": "Point",
    "coordinates": [
     151.78745647,
     -26.22393612
    ]
   },
   "properties": {
    "name": "LOT 38 FARRERS ROAD LEAFDALE 4606",
    "locID": "LOC000148063416",
    "tech": "SATELLITE",
    "upgrade": "NULL_NA",
    "gnaf_pid": "GAQLD161145762",
    "tech_change_status": "Not Planned"
   }
  },
  {
   "type": "Feature",
   "geometry": {
    "type": "Point",
    "coordinates": [
     151.76854681,
     -26.23484605
    ]
   },
   "properties": {
    "name": "LOT 3 WONDAI - PROSTON ROAD LEAFDALE 4606",
    "locID": "LOC000025316907",
    "tech": "SATELLITE",
    "upgrade": "NULL_NA",
    "gnaf_pid": "GAQLD161357859",
    "tech_change_status": "Not Planned"
   }
  },
  {
   "type": "Feature",
   "geometry": {
    "type": "Point",
    "coordinates": [
     151.75711513,
     -26.24223351
    ]
   },
   "properties": {
    "name": "130 MOUNT MCEUEN ROAD LEAFDALE 4606",
    "locID": "LOC000142349476",
    "tech": "SATELLITE",
    "upgrade": "NULL_NA",
    "gnaf_pid": "GAQLD161916042",
    "tech_change_status": "Not Planned"
   }
  },
  {
   "type": "Feature",
   "geometry": {
    "type": "Point",
    "coordinates": [
     151.75607725,
     -26.2497957
    ]
   },
   "properties": {
    "name": "153 MOUNT MCEUEN ROAD LEAFDALE 4606",
    "locID": "LOC000067134992",
    "tech": "SATELLITE",
    "upgrade": "NULL_NA",
    "gnaf_pid": "GAQLD161916043",
    "tech_change_status": "Not Planned"
   }
  },
  {
   "type": "Feature",
   "geometry": {
    "type": "Point",
    "coordinates": [
     151.76178967,
     -26.24673301
    ]
   },
   "properties": {
    "name": "LOT 340 MOUNT MCEUEN ROAD LEAFDALE 4606",
    "locID": "LOC000142349476",
    "tech": "SATELLITE",
    "upgrade": "NULL_NA",
    "gnaf_pid": "GAQLD161918864",
    "tech_change_status": "Not Planned"
   }
  },
  {
   "type": "Feature",
   "geometry": {
    "type": "Point",
    "coordinates": [
     151.76178967,
     -26.24673301
    ]
   },
   "properties": {
    "name": "LOT 343 MOUNT MCEUEN ROAD LEAFDALE 4606",
    "locID": "LOC000067134992",
    "tech": "SATELLITE",
    "upgrade": "NULL_NA",
    "gnaf_pid": "GAQLD161918865",
    "tech_change_status": "Not Planned"
   }
  },
  {
   "type": "Feature",
   "geometry": {
    "type": "Point",
    "coordinates": [
     151.77033389,
     -26.24813598
    ]
   },
   "properties": {
    "name": "1 MOUNT MCEUEN ROAD LEAFDALE 4606",
    "locID": "LOC000010854547",
    "tech": "SATELLITE",
    "upgrade": "NULL_NA",
    "gnaf_pid": "GAQLD162376416",
    "tech_change_status": "Not Planned"
   }
  },
  {
   "type": "Feature",
   "geometry": {
    "type": "Point",
    "coordinates": [
     151.77334917,
     -26.23511402
    ]
   },
   "properties": {
    "name": "LOT 1 FLATS ROAD LEAFDALE 4606",
    "locID": "LOC000106574513",
    "tech": "WIRELESS",
    "upgrade": "NULL_NA",
    "gnaf_pid": "GAQLD425037291",
    "tech_change_status": "Not Planned",
    "program_type": "Fixed Wireless and Satellite Upgrade Program",
    "target_eligibility_quarter": "NA"
   }
  },
  {
   "type": "Feature",
   "geometry": {
    "type": "Point",
    "coordinates": [
     151.78555575,
     -26.24663369
    ]
   },
   "properties": {
    "name": "1094 WONDAI - PROSTON ROAD LEAFDALE 4606",
    "locID": "LOC000128791699",
    "tech": "SATELLITE",
    "upgrade": "NULL_NA",
    "gnaf_pid": "GAQLD425041761",
    "tech_change_status": "Not Planned"
   }
  },
  {
   "type": "Feature",
   "geometry": {
    "type": "Point",
    "coordinates": [
     151.76103166,
     -26.22809217
    ]
   },
   "properties": {
    "name": "1419 WONDAI - PROSTON ROAD LEAFDALE 4606",
    "locID": "LOC000128791328",
    "tech": "SATELLITE",
    "upgrade": "NULL_NA",
    "gnaf_pid": "GAQLD425041762",
    "tech_change_status": "Not Planned"
   }
  },
  {
   "type": "Feature",
   "geometry": {
    "type": "Point",
    "coordinates": [
     151.77383514,
     -26.23861096
    ]
   },
   "properties": {
    "name": "LOT 2 WONDAI - PROSTON ROAD LEAFDALE 4606",
    "locID": "LOC000040804175",
    "tech": "WIRELESS",
    "upgrade": "NULL_NA",
    "gnaf_pid": "GAQLD425041763",
    "tech_change_status": "Not Planned",
    "program_type": "Fixed Wireless and Satellite Upgrade Program",
    "target_eligibility_quarter": "NA"
   }
  },
  {
   "type": "Feature",
   "geometry": {
    "type": "Point",
    "coordinates": [
     151.77606586,
     -26.22219502
    ]
   },
   "properties": {
    "name": "156 FARRERS ROAD LEAFDALE 4606",
    "locID": "LOC000148063416",
    "tech": "SATELLITE",
    "upgrade": "NULL_NA",
    "gnaf_pid": "GAQLD425204414",
    "tech_change_status": "Not Planned"
   }
  },
  {
   "type": "Feature",
   "geometry": {
    "type": "Point",
    "coordinates": [
     151.76854681,
     -26.23484605
    ]
   },
   "properties": {
    "name": "LOT 1 WONDAI - PROSTON ROAD LEAFDALE 4606",
    "locID": "LOC000128791699",
    "tech": "SATELLITE",
    "upgrade": "NULL_NA",
    "gnaf_pid": "GAQLD425702443",
    "tech_change_status": "Not Planned"
   }
  },
  {
   "type": "Feature",
   "geometry": {
    "type": "Point",
    "coordinates": [
     151.76854681,
     -26.23484605
    ]
   },
   "properties": {
    "name": "LOT 321 WONDAI - PROSTON ROAD LEAFDALE 4606",
    "locID": "LOC000128791328",
    "tech": "SATELLITE",
    "upgrade": "NULL_NA",
    "gnaf_pid": "GAQLD425702444",
    "tech_change_status": "Not Planned"
   }
  },
  {
   "type": "Feature",
   "geometry": {
    "type": "Point",
    "coordinates": [
     151.76854681,
     -26.23484605
    ]
   },
   "properties": {
    "name": "LOT 339 WONDAI - PROSTON ROAD LEAFDALE 4606",
    "locID": "LOC000034129891",
    "tech": "SATELLITE",
    "upgrade": "NULL_NA",
    "gnaf_pid": "GAQLD425702446",
    "tech_change_status": "Not Planned"
   }
  },
  {
   "type": "Feature",
   "geometry": {
    "type": "Point",
    "coordinates": [
     151.77418797,
     -26.25221126
    ]
   },
   "properties": {
    "name": "23 FAIRDALE ROAD LEAFDALE 4606",
    "locID": "LOC000182298247",
    "tech": "SATELLITE",
    "upgrade": "NULL_NA",
    "gnaf_pid": "GAQLD721147092",
    "tech_change_status": "Not Planned"
   }
  }
 ]
}