{
 "type": "FeatureCollection",
 "generated": "2024-08-27T21:00:08.841148",
 "suburb": "LEMONTREE",
 "features": [
  {
   "type": "Feature",
   "geometry": {
    "type": "Point",
    "coordinates": [
     151.31153106,
     -27.75403404
    ]
   },
   "properties": {
    "name": "LOT 1 BOSTOCK ROAD LEMONTREE 4357",
    "locID": "LOC000180953009",
    "tech": "WIRELESS",
    "upgrade": "NULL_NA",
    "gnaf_pid": "GAQLD161745997",
    "tech_change_status": "Not Planned"
   }
  },
  {
   "type": "Feature",
   "geometry": {
    "type": "Point",
    "coordinates": [
     151.31147236,
     -27.79674219
    ]
   },
   "properties": {
    "name": "313 LEMONTREE ROAD LEMONTREE 4357",
    "locID": "LOC000127777721",
    "tech": "SATELLITE",
    "upgrade": "NULL_NA",
    "gnaf_pid": "GAQLD161759643",
    "tech_change_status": "Not Planned"
   }
  },
  {
   "type": "Feature",
   "geometry": {
    "type": "Point",
    "coordinates": [
     151.33528884,
     -27.79120012
    ]
   },
   "properties": {
    "name": "326 LEMONTREE ROAD LEMONTREE 4357",
    "locID": "LOC000113940126",
    "tech": "WIRELESS",
    "upgrade": "NULL_NA",
    "gnaf_pid": "GAQLD161759644",
    "tech_change_status": "Not Planned",
    "program_type": "Fixed Wireless and Satellite Upgrade Program",
    "target_eligibility_quarter": "NA"
   }
  },
  {
   "type": "Feature",
   "geometry": {
    "type": "Point",
    "coordinates": [
     151.3288731,
     -27.77071847
    ]
   },
   "properties": {
    "name": "528 LEMONTREE ROAD LEMONTREE 4357",
    "locID": "LOC000009106227",
    "tech": "SATELLITE",
    "upgrade": "NULL_NA",
    "gnaf_pid": "GAQLD161759645",
    "tech_change_status": "Not Planned"
   }
  },
  {
   "type": "Feature",
   "geometry": {
    "type": "Point",
    "coordinates": [
     151.30809783,
     -27.78319931
    ]
   },
   "properties": {
    "name": "622 LEMONTREE ROAD LEMONTREE 4357",
    "locID": "LOC000049193158",
    "tech": "WIRELESS",
    "upgrade": "NULL_NA",
    "gnaf_pid": "GAQLD161759646",
    "tech_change_status": "Not Planned",
    "program_type": "Fixed Wireless and Satellite Upgrade Program",
    "target_eligibility_quarter": "NA"
   }
  },
  {
   "type": "Feature",
   "geometry": {
    "type": "Point",
    "coordinates": [
     151.26400522,
     -27.77472546
    ]
   },
   "properties": {
    "name": "240 POONDARRA ROAD LEMONTREE 4357",
    "locID": "LOC000127819527",
    "tech": "SATELLITE",
    "upgrade": "NULL_NA",
    "gnaf_pid": "GAQLD161765319",
    "tech_change_status": "Not Planned"
   }
  },
  {
   "type": "Feature",
   "geometry": {
    "type": "Point",
    "coordinates": [
     151.28928158,
     -27.78359231
    ]
   },
   "properties": {
    "name": "1402 BOSTOCK ROAD LEMONTREE 4357",
    "locID": "LOC000182914449",
    "tech": "WIRELESS",
    "upgrade": "NULL_NA",
    "gnaf_pid": "GAQLD162739112",
    "tech_change_status": "Not Planned",
    "program_type": "Fixed Wireless and Satellite Upgrade Program",
    "target_eligibility_quarter": "Dec 2024"
   }
  },
  {
   "type": "Feature",
   "geometry": {
    "type": "Point",
    "coordinates": [
     151.2509313,
     -27.77687331
    ]
   },
   "properties": {
    "name": "1336 MILLMERRAN - CECIL PLAINS ROAD LEMONTREE 4357",
    "locID": "LOC000070051656",
    "tech": "SATELLITE",
    "upgrade": "NULL_NA",
    "gnaf_pid": "GAQLD162746914",
    "tech_change_status": "Not Planned"
   }
  }
 ]
}