{
 "type": "FeatureCollection",
 "generated": "2023-09-26T10:42:25.507599",
 "suburb": "LESLIE",
 "features": [
  {
   "type": "Feature",
   "geometry": {
    "type": "Point",
    "coordinates": [
     151.92229083,
     -28.17172959
    ]
   },
   "properties": {
    "name": "LOT 646 SANDY CREEK ROAD LESLIE 4370",
    "locID": "Ei42NDYgU2FuZHkgQ3JlZWsgUmQsIExlc2xpZSBRTEQgNDM3MCwgQXVzdHJhbGlhIjESLwoUChIJ9zieAYGil2sRFmZu8mXncGQQhgUqFAoSCR8RQaB8mJdrETV3C70zQxv5",
    "tech": "WIRELESS",
    "upgrade": "UNKNOWN",
    "gnaf_pid": "GAQLD155793339"
   }
  },
  {
   "type": "Feature",
   "geometry": {
    "type": "Point",
    "coordinates": [
     151.9007419,
     -28.15978017
    ]
   },
   "properties": {
    "name": "928 SANDY CREEK ROAD LESLIE 4370",
    "locID": "LOC000090006498",
    "tech": "WIRELESS",
    "upgrade": "NULL_NA",
    "gnaf_pid": "GAQLD158190723"
   }
  },
  {
   "type": "Feature",
   "geometry": {
    "type": "Point",
    "coordinates": [
     151.90521585,
     -28.16450124
    ]
   },
   "properties": {
    "name": "834 SANDY CREEK ROAD LESLIE 4370",
    "locID": "LOC000105670976",
    "tech": "WIRELESS",
    "upgrade": "NULL_NA",
    "gnaf_pid": "GAQLD160686144"
   }
  },
  {
   "type": "Feature",
   "geometry": {
    "type": "Point",
    "coordinates": [
     151.93674724,
     -28.17671128
    ]
   },
   "properties": {
    "name": "LOT 470 SANDY CREEK ROAD LESLIE 4370",
    "locID": "Ei40NzAgU2FuZHkgQ3JlZWsgUmQsIExlc2xpZSBRTEQgNDM3MCwgQXVzdHJhbGlhIjESLwoUChIJJ2bGSp2Yl2sRGtweieJhaA0Q1gMqFAoSCR8RQaB8mJdrETV3C70zQxv5",
    "tech": "WIRELESS",
    "upgrade": "UNKNOWN",
    "gnaf_pid": "GAQLD161301054"
   }
  },
  {
   "type": "Feature",
   "geometry": {
    "type": "Point",
    "coordinates": [
     151.93319082,
     -28.17674661
    ]
   },
   "properties": {
    "name": "106 KARLE ROAD LESLIE 4370",
    "locID": "ChIJNyfCZ4Cil2sRO2bgUYP7_7I",
    "tech": "WIRELESS",
    "upgrade": "UNKNOWN",
    "gnaf_pid": "GAQLD161441849"
   }
  },
  {
   "type": "Feature",
   "geometry": {
    "type": "Point",
    "coordinates": [
     151.91599566,
     -28.17199997
    ]
   },
   "properties": {
    "name": "593 SANDY CREEK ROAD LESLIE 4370",
    "locID": "ChIJUb41iZ6il2sRFpoZD7vctcw",
    "tech": "WIRELESS",
    "upgrade": "UNKNOWN",
    "gnaf_pid": "GAQLD161456768"
   }
  },
  {
   "type": "Feature",
   "geometry": {
    "type": "Point",
    "coordinates": [
     151.9007419,
     -28.15978017
    ]
   },
   "properties": {
    "name": "862-928 SANDY CREEK ROAD LESLIE 4370",
    "locID": "ChIJm7G-e7uil2sRrLjkaK5PU_k",
    "tech": "WIRELESS",
    "upgrade": "UNKNOWN",
    "gnaf_pid": "GAQLD161456769"
   }
  },
  {
   "type": "Feature",
   "geometry": {
    "type": "Point",
    "coordinates": [
     151.89710136,
     -28.17254044
    ]
   },
   "properties": {
    "name": "865 SANDY CREEK ROAD LESLIE 4370",
    "locID": "LOC000127863271",
    "tech": "WIRELESS",
    "upgrade": "NULL_NA",
    "gnaf_pid": "GAQLD161456770"
   }
  },
  {
   "type": "Feature",
   "geometry": {
    "type": "Point",
    "coordinates": [
     151.93694758,
     -28.17484663
    ]
   },
   "properties": {
    "name": "25 SERISIER ROAD LESLIE 4370",
    "locID": "LOC000056755109",
    "tech": "WIRELESS",
    "upgrade": "NULL_NA",
    "gnaf_pid": "GAQLD161457388"
   }
  },
  {
   "type": "Feature",
   "geometry": {
    "type": "Point",
    "coordinates": [
     151.91084663,
     -28.16751616
    ]
   },
   "properties": {
    "name": "611 SANDY CREEK ROAD LESLIE 4370",
    "locID": "LOC000127896861",
    "tech": "WIRELESS",
    "upgrade": "NULL_NA",
    "gnaf_pid": "GAQLD161965742"
   }
  },
  {
   "type": "Feature",
   "geometry": {
    "type": "Point",
    "coordinates": [
     151.9007419,
     -28.15978017
    ]
   },
   "properties": {
    "name": "862 SANDY CREEK ROAD LESLIE 4370",
    "locID": "LOC000092627919",
    "tech": "WIRELESS",
    "upgrade": "NULL_NA",
    "gnaf_pid": "GAQLD161965743"
   }
  },
  {
   "type": "Feature",
   "geometry": {
    "type": "Point",
    "coordinates": [
     151.91424618,
     -28.18190296
    ]
   },
   "properties": {
    "name": "14765 CUNNINGHAM HIGHWAY LESLIE 4370",
    "locID": "ChIJj8pMpnOYl2sRCZQovOUPg8U",
    "tech": "WIRELESS",
    "upgrade": "UNKNOWN",
    "gnaf_pid": "GAQLD162099836"
   }
  },
  {
   "type": "Feature",
   "geometry": {
    "type": "Point",
    "coordinates": [
     151.90253044,
     -28.17288743
    ]
   },
   "properties": {
    "name": "LOT 2 SANDY CREEK ROAD LESLIE 4370",
    "locID": "LOC000105670976",
    "tech": "WIRELESS",
    "upgrade": "NULL_NA",
    "gnaf_pid": "GAQLD162964205"
   }
  },
  {
   "type": "Feature",
   "geometry": {
    "type": "Point",
    "coordinates": [
     151.89710136,
     -28.17254044
    ]
   },
   "properties": {
    "name": "UNIT 1, 865 SANDY CREEK ROAD LESLIE 4370",
    "locID": "LOC000127863263",
    "tech": "WIRELESS",
    "upgrade": "NULL_NA",
    "gnaf_pid": "GAQLD425052048"
   }
  },
  {
   "type": "Feature",
   "geometry": {
    "type": "Point",
    "coordinates": [
     151.89710136,
     -28.17254044
    ]
   },
   "properties": {
    "name": "UNIT 2, 865 SANDY CREEK ROAD LESLIE 4370",
    "locID": "LOC000127863271",
    "tech": "WIRELESS",
    "upgrade": "NULL_NA",
    "gnaf_pid": "GAQLD425052049"
   }
  },
  {
   "type": "Feature",
   "geometry": {
    "type": "Point",
    "coordinates": [
     151.90746345,
     -28.16531736
    ]
   },
   "properties": {
    "name": "LOT 61 SANDY CREEK ROAD LESLIE 4370",
    "locID": "LOC000127896861",
    "tech": "WIRELESS",
    "upgrade": "NULL_NA",
    "gnaf_pid": "GAQLD719450633"
   }
  }
 ]
}