{
 "type": "FeatureCollection",
 "generated": "2024-08-06T18:54:56.483821",
 "suburb": "LUNDAVRA",
 "features": [
  {
   "type": "Feature",
   "geometry": {
    "type": "Point",
    "coordinates": [
     149.93640176,
     -28.09659541
    ]
   },
   "properties": {
    "name": "LOT 36 KIOMA ROAD LUNDAVRA 4390",
    "locID": "LOC000050901198",
    "tech": "SATELLITE",
    "upgrade": "NULL_NA",
    "gnaf_pid": "GAQLD161202354",
    "tech_change_status": "Not Planned"
   }
  },
  {
   "type": "Feature",
   "geometry": {
    "type": "Point",
    "coordinates": [
     149.98282623,
     -28.07042078
    ]
   },
   "properties": {
    "name": "LOT 12 LIENASSIE ROAD LUNDAVRA 4390",
    "locID": "LOC000128136360",
    "tech": "SATELLITE",
    "upgrade": "NULL_NA",
    "gnaf_pid": "GAQLD161213372",
    "tech_change_status": "Not Planned"
   }
  },
  {
   "type": "Feature",
   "geometry": {
    "type": "Point",
    "coordinates": [
     150.072041,
     -28.09446135
    ]
   },
   "properties": {
    "name": "335 BENELAWIN ROAD LUNDAVRA 4390",
    "locID": "LOC000128111848",
    "tech": "SATELLITE",
    "upgrade": "NULL_NA",
    "gnaf_pid": "GAQLD162341564",
    "tech_change_status": "Not Planned"
   }
  },
  {
   "type": "Feature",
   "geometry": {
    "type": "Point",
    "coordinates": [
     150.11874617,
     -28.0739783
    ]
   },
   "properties": {
    "name": "336 BENELAWIN ROAD LUNDAVRA 4390",
    "locID": "LOC000034967111",
    "tech": "SATELLITE",
    "upgrade": "NULL_NA",
    "gnaf_pid": "GAQLD162341565",
    "tech_change_status": "Not Planned"
   }
  },
  {
   "type": "Feature",
   "geometry": {
    "type": "Point",
    "coordinates": [
     150.07626848,
     -28.06322815
    ]
   },
   "properties": {
    "name": "LOT 1 CALNBROOK ROAD LUNDAVRA 4390",
    "locID": "LOC000049599448",
    "tech": "SATELLITE",
    "upgrade": "NULL_NA",
    "gnaf_pid": "GAQLD162343736",
    "tech_change_status": "Not Planned"
   }
  },
  {
   "type": "Feature",
   "geometry": {
    "type": "Point",
    "coordinates": [
     149.9044009,
     -28.11219805
    ]
   },
   "properties": {
    "name": "4454 KIOMA ROAD LUNDAVRA 4390",
    "locID": "LOC000186294909",
    "tech": "SATELLITE",
    "upgrade": "NULL_NA",
    "gnaf_pid": "GAQLD162354324",
    "tech_change_status": "Not Planned"
   }
  },
  {
   "type": "Feature",
   "geometry": {
    "type": "Point",
    "coordinates": [
     149.92351084,
     -28.08066808
    ]
   },
   "properties": {
    "name": "4835 KIOMA ROAD LUNDAVRA 4390",
    "locID": "LOC000050901198",
    "tech": "SATELLITE",
    "upgrade": "NULL_NA",
    "gnaf_pid": "GAQLD162354325",
    "tech_change_status": "Not Planned"
   }
  },
  {
   "type": "Feature",
   "geometry": {
    "type": "Point",
    "coordinates": [
     149.9586613,
     -28.12764127
    ]
   },
   "properties": {
    "name": "5110 KIOMA ROAD LUNDAVRA 4390",
    "locID": "LOC000042919637",
    "tech": "SATELLITE",
    "upgrade": "NULL_NA",
    "gnaf_pid": "GAQLD162354326",
    "tech_change_status": "Not Planned"
   }
  },
  {
   "type": "Feature",
   "geometry": {
    "type": "Point",
    "coordinates": [
     149.92238273,
     -27.99506123
    ]
   },
   "properties": {
    "name": "1400 LIENASSIE ROAD LUNDAVRA 4390",
    "locID": "LOC000023569593",
    "tech": "SATELLITE",
    "upgrade": "NULL_NA",
    "gnaf_pid": "GAQLD162355578",
    "tech_change_status": "Not Planned"
   }
  },
  {
   "type": "Feature",
   "geometry": {
    "type": "Point",
    "coordinates": [
     150.00689591,
     -28.13313107
    ]
   },
   "properties": {
    "name": "3759 MINNEL ROAD LUNDAVRA 4390",
    "locID": "LOC000180675255",
    "tech": "SATELLITE",
    "upgrade": "NULL_NA",
    "gnaf_pid": "GAQLD162358045",
    "tech_change_status": "Not Planned"
   }
  },
  {
   "type": "Feature",
   "geometry": {
    "type": "Point",
    "coordinates": [
     150.10798877,
     -28.03234229
    ]
   },
   "properties": {
    "name": "1767 RETREAT ROAD LUNDAVRA 4390",
    "locID": "LOC000029992492",
    "tech": "SATELLITE",
    "upgrade": "NULL_NA",
    "gnaf_pid": "GAQLD162362752",
    "tech_change_status": "Not Planned"
   }
  },
  {
   "type": "Feature",
   "geometry": {
    "type": "Point",
    "coordinates": [
     150.04554149,
     -28.052711
    ]
   },
   "properties": {
    "name": "LOT 14 CALNBROOK ROAD LUNDAVRA 4390",
    "locID": "LOC000049599448",
    "tech": "SATELLITE",
    "upgrade": "NULL_NA",
    "gnaf_pid": "GAQLD162501833",
    "tech_change_status": "Not Planned"
   }
  },
  {
   "type": "Feature",
   "geometry": {
    "type": "Point",
    "coordinates": [
     150.07286692,
     -28.01156976
    ]
   },
   "properties": {
    "name": "706 CALNBROOK ROAD LUNDAVRA 4390",
    "locID": "LOC000049599448",
    "tech": "SATELLITE",
    "upgrade": "NULL_NA",
    "gnaf_pid": "GAQLD162501835",
    "tech_change_status": "Not Planned"
   }
  },
  {
   "type": "Feature",
   "geometry": {
    "type": "Point",
    "coordinates": [
     150.03169794,
     -28.08344079
    ]
   },
   "properties": {
    "name": "LOT 15 KONDAR ROAD LUNDAVRA 4390",
    "locID": "LOC000035799866",
    "tech": "SATELLITE",
    "upgrade": "NULL_NA",
    "gnaf_pid": "GAQLD162511679",
    "tech_change_status": "Not Planned"
   }
  },
  {
   "type": "Feature",
   "geometry": {
    "type": "Point",
    "coordinates": [
     150.06639896,
     -28.13406783
    ]
   },
   "properties": {
    "name": "2166-2788 KONDAR ROAD LUNDAVRA 4390",
    "locID": "LOC000035799866",
    "tech": "SATELLITE",
    "upgrade": "NULL_NA",
    "gnaf_pid": "GAQLD162511680",
    "tech_change_status": "Not Planned"
   }
  },
  {
   "type": "Feature",
   "geometry": {
    "type": "Point",
    "coordinates": [
     149.91112832,
     -28.03688145
    ]
   },
   "properties": {
    "name": "1277 LIENASSIE ROAD LUNDAVRA 4390",
    "locID": "LOC000104815496",
    "tech": "SATELLITE",
    "upgrade": "NULL_NA",
    "gnaf_pid": "GAQLD162512376",
    "tech_change_status": "Not Planned"
   }
  },
  {
   "type": "Feature",
   "geometry": {
    "type": "Point",
    "coordinates": [
     149.99308731,
     -28.06458148
    ]
   },
   "properties": {
    "name": "238 LIENASSIE ROAD LUNDAVRA 4390",
    "locID": "LOC000179057667",
    "tech": "SATELLITE",
    "upgrade": "NULL_NA",
    "gnaf_pid": "GAQLD162512377",
    "tech_change_status": "Not Planned"
   }
  },
  {
   "type": "Feature",
   "geometry": {
    "type": "Point",
    "coordinates": [
     149.97304311,
     -28.04562221
    ]
   },
   "properties": {
    "name": "678 LIENASSIE ROAD LUNDAVRA 4390",
    "locID": "LOC000023200730",
    "tech": "SATELLITE",
    "upgrade": "NULL_NA",
    "gnaf_pid": "GAQLD162512378",
    "tech_change_status": "Not Planned"
   }
  },
  {
   "type": "Feature",
   "geometry": {
    "type": "Point",
    "coordinates": [
     149.99877901,
     -28.18977468
    ]
   },
   "properties": {
    "name": "2991-3054 MINNEL ROAD LUNDAVRA 4390",
    "locID": "LOC000128120033",
    "tech": "SATELLITE",
    "upgrade": "NULL_NA",
    "gnaf_pid": "GAQLD162514869",
    "tech_change_status": "Not Planned"
   }
  },
  {
   "type": "Feature",
   "geometry": {
    "type": "Point",
    "coordinates": [
     150.03395957,
     -28.12560978
    ]
   },
   "properties": {
    "name": "LOT 4 MINNEL ROAD LUNDAVRA 4390",
    "locID": "LOC000073047321",
    "tech": "SATELLITE",
    "upgrade": "NULL_NA",
    "gnaf_pid": "GAQLD162514870",
    "tech_change_status": "Not Planned"
   }
  },
  {
   "type": "Feature",
   "geometry": {
    "type": "Point",
    "coordinates": [
     150.13385002,
     -28.03380693
    ]
   },
   "properties": {
    "name": "LOT 16 RETREAT ROAD LUNDAVRA 4390",
    "locID": "LOC000184104158",
    "tech": "SATELLITE",
    "upgrade": "NULL_NA",
    "gnaf_pid": "GAQLD162519851",
    "tech_change_status": "Not Planned"
   }
  },
  {
   "type": "Feature",
   "geometry": {
    "type": "Point",
    "coordinates": [
     150.17056006,
     -27.99800654
    ]
   },
   "properties": {
    "name": "LOT 1 RETREAT ROAD LUNDAVRA 4390",
    "locID": "LOC000029992492",
    "tech": "SATELLITE",
    "upgrade": "NULL_NA",
    "gnaf_pid": "GAQLD162519852",
    "tech_change_status": "Not Planned"
   }
  },
  {
   "type": "Feature",
   "geometry": {
    "type": "Point",
    "coordinates": [
     150.10333811,
     -27.97819404
    ]
   },
   "properties": {
    "name": "LOT 111 RIPPLE DOWNS ROAD LUNDAVRA 4390",
    "locID": "LOC000070034495",
    "tech": "SATELLITE",
    "upgrade": "NULL_NA",
    "gnaf_pid": "GAQLD162520119",
    "tech_change_status": "Not Planned"
   }
  },
  {
   "type": "Feature",
   "geometry": {
    "type": "Point",
    "coordinates": [
     149.93274108,
     -28.09723592
    ]
   },
   "properties": {
    "name": "3855 KIOMA ROAD LUNDAVRA 4390",
    "locID": "LOC000102984136",
    "tech": "SATELLITE",
    "upgrade": "NULL_NA",
    "gnaf_pid": "GAQLD162927230",
    "tech_change_status": "Not Planned"
   }
  },
  {
   "type": "Feature",
   "geometry": {
    "type": "Point",
    "coordinates": [
     150.06639896,
     -28.13406783
    ]
   },
   "properties": {
    "name": "2788 KONDAR ROAD LUNDAVRA 4390",
    "locID": "LOC000035799866",
    "tech": "SATELLITE",
    "upgrade": "NULL_NA",
    "gnaf_pid": "GAQLD162927246",
    "tech_change_status": "Not Planned"
   }
  },
  {
   "type": "Feature",
   "geometry": {
    "type": "Point",
    "coordinates": [
     149.92095075,
     -28.02505415
    ]
   },
   "properties": {
    "name": "1 LIENASSIE ROAD LUNDAVRA 4390",
    "locID": "LOC000029307067",
    "tech": "SATELLITE",
    "upgrade": "NULL_NA",
    "gnaf_pid": "GAQLD162927479",
    "tech_change_status": "Not Planned"
   }
  },
  {
   "type": "Feature",
   "geometry": {
    "type": "Point",
    "coordinates": [
     149.92095075,
     -28.02505415
    ]
   },
   "properties": {
    "name": "2 LIENASSIE ROAD LUNDAVRA 4390",
    "locID": "LOC000180266296",
    "tech": "SATELLITE",
    "upgrade": "NULL_NA",
    "gnaf_pid": "GAQLD162927480",
    "tech_change_status": "Not Planned"
   }
  },
  {
   "type": "Feature",
   "geometry": {
    "type": "Point",
    "coordinates": [
     150.06639896,
     -28.13406783
    ]
   },
   "properties": {
    "name": "2166 KONDAR ROAD LUNDAVRA 4390",
    "locID": "LOC000035799866",
    "tech": "SATELLITE",
    "upgrade": "NULL_NA",
    "gnaf_pid": "GAQLD163255228",
    "tech_change_status": "Not Planned"
   }
  },
  {
   "type": "Feature",
   "geometry": {
    "type": "Point",
    "coordinates": [
     150.072041,
     -28.09446135
    ]
   },
   "properties": {
    "name": "UNIT 1, 335 BENELAWIN ROAD LUNDAVRA 4390",
    "locID": "LOC000128111848",
    "tech": "SATELLITE",
    "upgrade": "NULL_NA",
    "gnaf_pid": "GAQLD425045676",
    "tech_change_status": "Not Planned"
   }
  },
  {
   "type": "Feature",
   "geometry": {
    "type": "Point",
    "coordinates": [
     150.072041,
     -28.09446135
    ]
   },
   "properties": {
    "name": "UNIT 2, 335 BENELAWIN ROAD LUNDAVRA 4390",
    "locID": "LOC000128111848",
    "tech": "SATELLITE",
    "upgrade": "NULL_NA",
    "gnaf_pid": "GAQLD425045677",
    "tech_change_status": "Not Planned"
   }
  },
  {
   "type": "Feature",
   "geometry": {
    "type": "Point",
    "coordinates": [
     150.072041,
     -28.09446135
    ]
   },
   "properties": {
    "name": "UNIT 3, 335 BENELAWIN ROAD LUNDAVRA 4390",
    "locID": "LOC000128111848",
    "tech": "SATELLITE",
    "upgrade": "NULL_NA",
    "gnaf_pid": "GAQLD425045678",
    "tech_change_status": "Not Planned"
   }
  },
  {
   "type": "Feature",
   "geometry": {
    "type": "Point",
    "coordinates": [
     149.9806328,
     -28.10337129
    ]
   },
   "properties": {
    "name": "LOT 1 KONDAR ROAD LUNDAVRA 4390",
    "locID": "LOC000035799866",
    "tech": "SATELLITE",
    "upgrade": "NULL_NA",
    "gnaf_pid": "GAQLD425476586",
    "tech_change_status": "Not Planned"
   }
  },
  {
   "type": "Feature",
   "geometry": {
    "type": "Point",
    "coordinates": [
     150.11095999,
     -28.14896501
    ]
   },
   "properties": {
    "name": "LOT 25 KONDAR ROAD LUNDAVRA 4390",
    "locID": "LOC000035799866",
    "tech": "SATELLITE",
    "upgrade": "NULL_NA",
    "gnaf_pid": "GAQLD425476587",
    "tech_change_status": "Not Planned"
   }
  },
  {
   "type": "Feature",
   "geometry": {
    "type": "Point",
    "coordinates": [
     149.89508262,
     -27.97707224
    ]
   },
   "properties": {
    "name": "LOT 1 LIENASSIE ROAD LUNDAVRA 4390",
    "locID": "LOC000128136360",
    "tech": "SATELLITE",
    "upgrade": "NULL_NA",
    "gnaf_pid": "GAQLD719279083",
    "tech_change_status": "Not Planned"
   }
  },
  {
   "type": "Feature",
   "geometry": {
    "type": "Point",
    "coordinates": [
     149.99378716,
     -28.15545816
    ]
   },
   "properties": {
    "name": "3054 MINNEL ROAD LUNDAVRA 4390",
    "locID": "LOC000128120033",
    "tech": "SATELLITE",
    "upgrade": "NULL_NA",
    "gnaf_pid": "GAQLD720330127",
    "tech_change_status": "Not Planned"
   }
  }
 ]
}