{
 "type": "FeatureCollection",
 "generated": "2024-08-30T13:19:43.308835",
 "suburb": "NEBINE",
 "features": [
  {
   "type": "Feature",
   "geometry": {
    "type": "Point",
    "coordinates": [
     146.94754598,
     -27.72784319
    ]
   },
   "properties": {
    "name": "LOT 2 KOONAWARRA ROAD NEBINE 4488",
    "locID": "LOC000128094939",
    "tech": "SATELLITE",
    "upgrade": "NULL_NA",
    "gnaf_pid": "GAQLD155633444",
    "tech_change_status": "Not Planned"
   }
  },
  {
   "type": "Feature",
   "geometry": {
    "type": "Point",
    "coordinates": [
     146.78995231,
     -28.00560364
    ]
   },
   "properties": {
    "name": "LOT 3 MURRA MURRA ROAD NEBINE 4488",
    "locID": "LOC000185608263",
    "tech": "SATELLITE",
    "upgrade": "NULL_NA",
    "gnaf_pid": "GAQLD155633447",
    "tech_change_status": "Not Planned"
   }
  },
  {
   "type": "Feature",
   "geometry": {
    "type": "Point",
    "coordinates": [
     146.65689644,
     -27.9641094
    ]
   },
   "properties": {
    "name": "LOT 4 BALONNE HIGHWAY NEBINE 4488",
    "locID": "LOC000087186271",
    "tech": "SATELLITE",
    "upgrade": "NULL_NA",
    "gnaf_pid": "GAQLD161057168",
    "tech_change_status": "Not Planned"
   }
  },
  {
   "type": "Feature",
   "geometry": {
    "type": "Point",
    "coordinates": [
     146.80875693,
     -27.88754334
    ]
   },
   "properties": {
    "name": "1865 BENDENA ROAD NEBINE 4488",
    "locID": "LOC000028116886",
    "tech": "SATELLITE",
    "upgrade": "NULL_NA",
    "gnaf_pid": "GAQLD162009793",
    "tech_change_status": "Not Planned"
   }
  },
  {
   "type": "Feature",
   "geometry": {
    "type": "Point",
    "coordinates": [
     146.84020027,
     -28.22612415
    ]
   },
   "properties": {
    "name": "861 FERNLEA ROAD NEBINE 4488",
    "locID": "LOC000012499380",
    "tech": "SATELLITE",
    "upgrade": "NULL_NA",
    "gnaf_pid": "GAQLD162027233",
    "tech_change_status": "Not Planned"
   }
  },
  {
   "type": "Feature",
   "geometry": {
    "type": "Point",
    "coordinates": [
     146.71203817,
     -28.09547832
    ]
   },
   "properties": {
    "name": "1594 MURRA MURRA ROAD NEBINE 4488",
    "locID": "LOC000094454161",
    "tech": "SATELLITE",
    "upgrade": "NULL_NA",
    "gnaf_pid": "GAQLD162052497",
    "tech_change_status": "Not Planned"
   }
  },
  {
   "type": "Feature",
   "geometry": {
    "type": "Point",
    "coordinates": [
     146.73380869,
     -28.23353603
    ]
   },
   "properties": {
    "name": "3072 MURRA MURRA ROAD NEBINE 4488",
    "locID": "LOC000185608263",
    "tech": "SATELLITE",
    "upgrade": "NULL_NA",
    "gnaf_pid": "GAQLD162052498",
    "tech_change_status": "Not Planned"
   }
  },
  {
   "type": "Feature",
   "geometry": {
    "type": "Point",
    "coordinates": [
     146.78722803,
     -28.39765397
    ]
   },
   "properties": {
    "name": "4762 MURRA MURRA ROAD NEBINE 4488",
    "locID": "LOC000106570853",
    "tech": "SATELLITE",
    "upgrade": "NULL_NA",
    "gnaf_pid": "GAQLD162052499",
    "tech_change_status": "Not Planned"
   }
  },
  {
   "type": "Feature",
   "geometry": {
    "type": "Point",
    "coordinates": [
     146.86125042,
     -28.08201101
    ]
   },
   "properties": {
    "name": "877 MURRA MURRA ROAD NEBINE 4488",
    "locID": "LOC000056438412",
    "tech": "SATELLITE",
    "upgrade": "NULL_NA",
    "gnaf_pid": "GAQLD162052500",
    "tech_change_status": "Not Planned"
   }
  },
  {
   "type": "Feature",
   "geometry": {
    "type": "Point",
    "coordinates": [
     147.06941552,
     -27.74501429
    ]
   },
   "properties": {
    "name": "1950 KOONAWARRA ROAD NEBINE 4488",
    "locID": "LOC000073584973",
    "tech": "SATELLITE",
    "upgrade": "NULL_NA",
    "gnaf_pid": "GAQLD162354497",
    "tech_change_status": "Not Planned"
   }
  },
  {
   "type": "Feature",
   "geometry": {
    "type": "Point",
    "coordinates": [
     146.92659009,
     -28.46333189
    ]
   },
   "properties": {
    "name": "6665 MUNDA MUNDA ROAD NEBINE 4488",
    "locID": "LOC000047144834",
    "tech": "SATELLITE",
    "upgrade": "NULL_NA",
    "gnaf_pid": "GAQLD162358750",
    "tech_change_status": "Not Planned"
   }
  },
  {
   "type": "Feature",
   "geometry": {
    "type": "Point",
    "coordinates": [
     146.69712831,
     -27.78563751
    ]
   },
   "properties": {
    "name": "7090 LINDEN NEBINE ROAD NEBINE 4488",
    "locID": "LOC000036444966",
    "tech": "SATELLITE",
    "upgrade": "NULL_NA",
    "gnaf_pid": "GAQLD162958024",
    "tech_change_status": "Not Planned"
   }
  },
  {
   "type": "Feature",
   "geometry": {
    "type": "Point",
    "coordinates": [
     146.75906383,
     -27.65964102
    ]
   },
   "properties": {
    "name": "8031 LINDEN NEBINE ROAD NEBINE 4488",
    "locID": "LOC000186621581",
    "tech": "SATELLITE",
    "upgrade": "NULL_NA",
    "gnaf_pid": "GAQLD162958025",
    "tech_change_status": "Not Planned"
   }
  },
  {
   "type": "Feature",
   "geometry": {
    "type": "Point",
    "coordinates": [
     146.65943658,
     -27.53630599
    ]
   },
   "properties": {
    "name": "8283 LINDEN NEBINE ROAD NEBINE 4488",
    "locID": "LOC000049117039",
    "tech": "SATELLITE",
    "upgrade": "NULL_NA",
    "gnaf_pid": "GAQLD162958026",
    "tech_change_status": "Not Planned"
   }
  },
  {
   "type": "Feature",
   "geometry": {
    "type": "Point",
    "coordinates": [
     146.7677796,
     -27.73264196
    ]
   },
   "properties": {
    "name": "8606 LINDEN NEBINE ROAD NEBINE 4488",
    "locID": "LOC000066893286",
    "tech": "SATELLITE",
    "upgrade": "NULL_NA",
    "gnaf_pid": "GAQLD162958027",
    "tech_change_status": "Not Planned"
   }
  },
  {
   "type": "Feature",
   "geometry": {
    "type": "Point",
    "coordinates": [
     146.76397942,
     -27.52744919
    ]
   },
   "properties": {
    "name": "15415 BOLLON - CHARLEVILLE ROAD NEBINE 4488",
    "locID": "LOC000128115578",
    "tech": "SATELLITE",
    "upgrade": "NULL_NA",
    "gnaf_pid": "GAQLD163055284",
    "tech_change_status": "Not Planned"
   }
  },
  {
   "type": "Feature",
   "geometry": {
    "type": "Point",
    "coordinates": [
     147.07315532,
     -27.59400707
    ]
   },
   "properties": {
    "name": "15917 BOLLON - CHARLEVILLE ROAD NEBINE 4488",
    "locID": "LOC000128115606",
    "tech": "SATELLITE",
    "upgrade": "NULL_NA",
    "gnaf_pid": "GAQLD163055285",
    "tech_change_status": "Not Planned"
   }
  },
  {
   "type": "Feature",
   "geometry": {
    "type": "Point",
    "coordinates": [
     147.02086244,
     -27.92396691
    ]
   },
   "properties": {
    "name": "3730 BALONNE HIGHWAY NEBINE 4488",
    "locID": "LOC000087186271",
    "tech": "SATELLITE",
    "upgrade": "NULL_NA",
    "gnaf_pid": "GAQLD163120754",
    "tech_change_status": "Not Planned"
   }
  },
  {
   "type": "Feature",
   "geometry": {
    "type": "Point",
    "coordinates": [
     146.73900485,
     -27.9288163
    ]
   },
   "properties": {
    "name": "7840 BALONNE HIGHWAY NEBINE 4488",
    "locID": "LOC000054837317",
    "tech": "SATELLITE",
    "upgrade": "NULL_NA",
    "gnaf_pid": "GAQLD163120755",
    "tech_change_status": "Not Planned"
   }
  },
  {
   "type": "Feature",
   "geometry": {
    "type": "Point",
    "coordinates": [
     146.92852247,
     -28.09830567
    ]
   },
   "properties": {
    "name": "5457 BALONNE HIGHWAY NEBINE 4488",
    "locID": "LOC000128135546",
    "tech": "SATELLITE",
    "upgrade": "NULL_NA",
    "gnaf_pid": "GAQLD424980743",
    "tech_change_status": "Not Planned"
   }
  },
  {
   "type": "Feature",
   "geometry": {
    "type": "Point",
    "coordinates": [
     147.04595231,
     -27.80722366
    ]
   },
   "properties": {
    "name": "LOT 5 BALONNE HIGHWAY NEBINE 4488",
    "locID": "LOC000054837317",
    "tech": "SATELLITE",
    "upgrade": "NULL_NA",
    "gnaf_pid": "GAQLD424980744",
    "tech_change_status": "Not Planned"
   }
  },
  {
   "type": "Feature",
   "geometry": {
    "type": "Point",
    "coordinates": [
     146.69550461,
     -28.3421722
    ]
   },
   "properties": {
    "name": "8915 MUNDA MUNDA ROAD NEBINE 4488",
    "locID": "LOC100074446580",
    "tech": "SATELLITE",
    "upgrade": "NULL_NA",
    "gnaf_pid": "GAQLD425240561",
    "tech_change_status": "Not Planned"
   }
  },
  {
   "type": "Feature",
   "geometry": {
    "type": "Point",
    "coordinates": [
     146.82550954,
     -28.6488056
    ]
   },
   "properties": {
    "name": "1338 YARALLA ROAD NEBINE 4488",
    "locID": "LOC000167587190",
    "tech": "SATELLITE",
    "upgrade": "NULL_NA",
    "gnaf_pid": "GAQLD721427065",
    "tech_change_status": "Not Planned"
   }
  }
 ]
}