{
 "type": "FeatureCollection",
 "generated": "2024-08-08T22:55:23.739338",
 "suburb": "NEW CHUM",
 "features": [
  {
   "type": "Feature",
   "geometry": {
    "type": "Point",
    "coordinates": [
     152.82510044,
     -27.61816025
    ]
   },
   "properties": {
    "name": "191 BARCLAY STREET NEW CHUM 4303",
    "locID": "LOC000049535535",
    "tech": "FTTP",
    "upgrade": "NULL_NA",
    "gnaf_pid": "GAQLD155636220"
   }
  },
  {
   "type": "Feature",
   "geometry": {
    "type": "Point",
    "coordinates": [
     152.82563525,
     -27.62150017
    ]
   },
   "properties": {
    "name": "189 WHITWOOD ROAD NEW CHUM 4303",
    "locID": "LOC000127749597",
    "tech": "FTTP",
    "upgrade": "NULL_NA",
    "gnaf_pid": "GAQLD155642774"
   }
  },
  {
   "type": "Feature",
   "geometry": {
    "type": "Point",
    "coordinates": [
     152.83717217,
     -27.60329136
    ]
   },
   "properties": {
    "name": "1 JOSEPH STREET NEW CHUM 4303",
    "locID": "LOC000127745833",
    "tech": "FTTP",
    "upgrade": "NULL_NA",
    "gnaf_pid": "GAQLD156532058"
   }
  },
  {
   "type": "Feature",
   "geometry": {
    "type": "Point",
    "coordinates": [
     152.82844393,
     -27.61941114
    ]
   },
   "properties": {
    "name": "152 WHITWOOD ROAD NEW CHUM 4303",
    "locID": "LOC000127749482",
    "tech": "FTTP",
    "upgrade": "NULL_NA",
    "gnaf_pid": "GAQLD156539196"
   }
  },
  {
   "type": "Feature",
   "geometry": {
    "type": "Point",
    "coordinates": [
     152.82432274,
     -27.62024547
    ]
   },
   "properties": {
    "name": "165 WHITWOOD ROAD NEW CHUM 4303",
    "locID": "LOC000127749513",
    "tech": "FTTP",
    "upgrade": "NULL_NA",
    "gnaf_pid": "GAQLD156539199"
   }
  },
  {
   "type": "Feature",
   "geometry": {
    "type": "Point",
    "coordinates": [
     152.8273745,
     -27.62544697
    ]
   },
   "properties": {
    "name": "191 WHITWOOD ROAD NEW CHUM 4303",
    "locID": "LOC000127749634",
    "tech": "FTTN",
    "upgrade": "NULL_NA",
    "gnaf_pid": "GAQLD156539205",
    "tech_change_status": "Not Planned"
   }
  },
  {
   "type": "Feature",
   "geometry": {
    "type": "Point",
    "coordinates": [
     152.83221465,
     -27.60598119
    ]
   },
   "properties": {
    "name": "1 CHUM STREET NEW CHUM 4303",
    "locID": "LOC000064831858",
    "tech": "FTTP",
    "upgrade": "NULL_NA",
    "gnaf_pid": "GAQLD156915570"
   }
  },
  {
   "type": "Feature",
   "geometry": {
    "type": "Point",
    "coordinates": [
     152.83446887,
     -27.60328444
    ]
   },
   "properties": {
    "name": "2 CHUM STREET NEW CHUM 4303",
    "locID": "LOC000127696816",
    "tech": "FTTP",
    "upgrade": "NULL_NA",
    "gnaf_pid": "GAQLD156915571"
   }
  },
  {
   "type": "Feature",
   "geometry": {
    "type": "Point",
    "coordinates": [
     152.83406578,
     -27.62606078
    ]
   },
   "properties": {
    "name": "1A WHITWOOD ROAD NEW CHUM 4303",
    "locID": "LOC000127696800",
    "tech": "FTTN",
    "upgrade": "NULL_NA",
    "gnaf_pid": "GAQLD160825427",
    "tech_change_status": "Not Planned"
   }
  },
  {
   "type": "Feature",
   "geometry": {
    "type": "Point",
    "coordinates": [
     152.83854312,
     -27.60620417
    ]
   },
   "properties": {
    "name": "66 CHUM STREET NEW CHUM 4303",
    "locID": "LOC000103120137",
    "tech": "FTTP",
    "upgrade": "NULL_NA",
    "gnaf_pid": "GAQLD160994400"
   }
  },
  {
   "type": "Feature",
   "geometry": {
    "type": "Point",
    "coordinates": [
     152.83786812,
     -27.62403486
    ]
   },
   "properties": {
    "name": "149 RHONDDA ROAD NEW CHUM 4303",
    "locID": "LOC000127749469",
    "tech": "FTTN",
    "upgrade": "NULL_NA",
    "gnaf_pid": "GAQLD161289298",
    "tech_change_status": "Not Planned"
   }
  },
  {
   "type": "Feature",
   "geometry": {
    "type": "Point",
    "coordinates": [
     152.83110183,
     -27.62534007
    ]
   },
   "properties": {
    "name": "LOT 4 WHITWOOD ROAD NEW CHUM 4303",
    "locID": "LOC000127749482",
    "tech": "FTTP",
    "upgrade": "NULL_NA",
    "gnaf_pid": "GAQLD161353393"
   }
  },
  {
   "type": "Feature",
   "geometry": {
    "type": "Point",
    "coordinates": [
     152.81860047,
     -27.63288046
    ]
   },
   "properties": {
    "name": "1041 REDBANK PLAINS ROAD NEW CHUM 4303",
    "locID": "LOC000041756564",
    "tech": "FTTN",
    "upgrade": "NULL_NA",
    "gnaf_pid": "GAQLD161379918",
    "tech_change_status": "Not Planned"
   }
  },
  {
   "type": "Feature",
   "geometry": {
    "type": "Point",
    "coordinates": [
     152.83393704,
     -27.60810003
    ]
   },
   "properties": {
    "name": "100 CHUM STREET NEW CHUM 4303",
    "locID": "LOC000008397420",
    "tech": "FTTP",
    "upgrade": "NULL_NA",
    "gnaf_pid": "GAQLD161748529"
   }
  },
  {
   "type": "Feature",
   "geometry": {
    "type": "Point",
    "coordinates": [
     152.83370791,
     -27.60422774
    ]
   },
   "properties": {
    "name": "LOT 1 CHUM STREET NEW CHUM 4303",
    "locID": "LOC000064831858",
    "tech": "FTTP",
    "upgrade": "NULL_NA",
    "gnaf_pid": "GAQLD161748530"
   }
  },
  {
   "type": "Feature",
   "geometry": {
    "type": "Point",
    "coordinates": [
     152.81827143,
     -27.63005769
    ]
   },
   "properties": {
    "name": "1051 REDBANK PLAINS ROAD NEW CHUM 4303",
    "locID": "LOC000036471899",
    "tech": "NULL",
    "upgrade": "NULL_NA",
    "gnaf_pid": "GAQLD161766263",
    "tech_change_status": "Not Planned"
   }
  },
  {
   "type": "Feature",
   "geometry": {
    "type": "Point",
    "coordinates": [
     152.84336109,
     -27.61868144
    ]
   },
   "properties": {
    "name": "100 RHONDDA ROAD NEW CHUM 4303",
    "locID": "LOC000127749469",
    "tech": "FTTN",
    "upgrade": "NULL_NA",
    "gnaf_pid": "GAQLD161766433",
    "tech_change_status": "Not Planned"
   }
  },
  {
   "type": "Feature",
   "geometry": {
    "type": "Point",
    "coordinates": [
     152.83786812,
     -27.62403487
    ]
   },
   "properties": {
    "name": "LOT 73 RHONDDA ROAD NEW CHUM 4303",
    "locID": "LOC000127749469",
    "tech": "FTTN",
    "upgrade": "NULL_NA",
    "gnaf_pid": "GAQLD161766436",
    "tech_change_status": "Not Planned"
   }
  },
  {
   "type": "Feature",
   "geometry": {
    "type": "Point",
    "coordinates": [
     152.82286294,
     -27.63087913
    ]
   },
   "properties": {
    "name": "2 AUSTIN STREET NEW CHUM 4303",
    "locID": "LOC000113703142",
    "tech": "FTTN",
    "upgrade": "NULL_NA",
    "gnaf_pid": "GAQLD162706133",
    "tech_change_status": "Not Planned"
   }
  },
  {
   "type": "Feature",
   "geometry": {
    "type": "Point",
    "coordinates": [
     152.8349812,
     -27.61390832
    ]
   },
   "properties": {
    "name": "LOT 268 CHUM STREET NEW CHUM 4303",
    "locID": "LOC000008397420",
    "tech": "FTTP",
    "upgrade": "NULL_NA",
    "gnaf_pid": "GAQLD162886580"
   }
  },
  {
   "type": "Feature",
   "geometry": {
    "type": "Point",
    "coordinates": [
     152.82286294,
     -27.63087913
    ]
   },
   "properties": {
    "name": "LOT 17 AUSTIN STREET NEW CHUM 4303",
    "locID": "LOC000111038070",
    "tech": "FTTN",
    "upgrade": "NULL_NA",
    "gnaf_pid": "GAQLD163065944",
    "tech_change_status": "Not Planned"
   }
  },
  {
   "type": "Feature",
   "geometry": {
    "type": "Point",
    "coordinates": [
     152.82286294,
     -27.63087913
    ]
   },
   "properties": {
    "name": "LOT 18 AUSTIN STREET NEW CHUM 4303",
    "locID": "LOC000111038070",
    "tech": "FTTN",
    "upgrade": "NULL_NA",
    "gnaf_pid": "GAQLD163065945",
    "tech_change_status": "Not Planned"
   }
  },
  {
   "type": "Feature",
   "geometry": {
    "type": "Point",
    "coordinates": [
     152.8350606,
     -27.60603832
    ]
   },
   "properties": {
    "name": "68 CHUM STREET NEW CHUM 4303",
    "locID": "LOC000045027471",
    "tech": "FTTP",
    "upgrade": "NULL_NA",
    "gnaf_pid": "GAQLD163133433"
   }
  },
  {
   "type": "Feature",
   "geometry": {
    "type": "Point",
    "coordinates": [
     152.8199965,
     -27.63088077
    ]
   },
   "properties": {
    "name": "44 AUSTIN STREET NEW CHUM 4303",
    "locID": "LOC000111038070",
    "tech": "FTTN",
    "upgrade": "NULL_NA",
    "gnaf_pid": "GAQLD163301858",
    "tech_change_status": "Not Planned"
   }
  },
  {
   "type": "Feature",
   "geometry": {
    "type": "Point",
    "coordinates": [
     152.82392357,
     -27.62669866
    ]
   },
   "properties": {
    "name": "62 AUSTIN STREET NEW CHUM 4303",
    "locID": "LOC000113703142",
    "tech": "FTTN",
    "upgrade": "NULL_NA",
    "gnaf_pid": "GAQLD163301859",
    "tech_change_status": "Not Planned"
   }
  },
  {
   "type": "Feature",
   "geometry": {
    "type": "Point",
    "coordinates": [
     152.82026786,
     -27.63270289
    ]
   },
   "properties": {
    "name": "LOT 16 REDBANK PLAINS ROAD NEW CHUM 4303",
    "locID": "LOC000082525513",
    "tech": "FTTP",
    "upgrade": "NULL_NA",
    "gnaf_pid": "GAQLD163316782"
   }
  },
  {
   "type": "Feature",
   "geometry": {
    "type": "Point",
    "coordinates": [
     152.8215348,
     -27.63004452
    ]
   },
   "properties": {
    "name": "48 AUSTIN STREET NEW CHUM 4303",
    "locID": "LOC000110790963",
    "tech": "FTTN",
    "upgrade": "NULL_NA",
    "gnaf_pid": "GAQLD163322792",
    "tech_change_status": "Not Planned"
   }
  },
  {
   "type": "Feature",
   "geometry": {
    "type": "Point",
    "coordinates": [
     152.83123542,
     -27.60900363
    ]
   },
   "properties": {
    "name": "LOT 273 CHUM STREET NEW CHUM 4303",
    "locID": "LOC000127696816",
    "tech": "FTTP",
    "upgrade": "NULL_NA",
    "gnaf_pid": "GAQLD425375240"
   }
  },
  {
   "type": "Feature",
   "geometry": {
    "type": "Point",
    "coordinates": [
     152.82844393,
     -27.61941114
    ]
   },
   "properties": {
    "name": "152A WHITWOOD ROAD NEW CHUM 4303",
    "locID": "LOC000127749482",
    "tech": "FTTP",
    "upgrade": "NULL_NA",
    "gnaf_pid": "GAQLD425867503"
   }
  },
  {
   "type": "Feature",
   "geometry": {
    "type": "Point",
    "coordinates": [
     152.82563525,
     -27.62150017
    ]
   },
   "properties": {
    "name": "189A WHITWOOD ROAD NEW CHUM 4303",
    "locID": "LOC000127749597",
    "tech": "FTTP",
    "upgrade": "NULL_NA",
    "gnaf_pid": "GAQLD425867504"
   }
  },
  {
   "type": "Feature",
   "geometry": {
    "type": "Point",
    "coordinates": [
     152.834204,
     -27.62153125
    ]
   },
   "properties": {
    "name": "LOT 2 CHILD STREET NEW CHUM 4303",
    "locID": "LOC000009123664",
    "tech": "FTTP",
    "upgrade": "NULL_NA",
    "gnaf_pid": "GAQLD719070268"
   }
  },
  {
   "type": "Feature",
   "geometry": {
    "type": "Point",
    "coordinates": [
     152.83395403,
     -27.62293667
    ]
   },
   "properties": {
    "name": "LOT 3 CHILD STREET NEW CHUM 4303",
    "locID": "LOC000065960993",
    "tech": "FTTP",
    "upgrade": "NULL_NA",
    "gnaf_pid": "GAQLD719070640"
   }
  },
  {
   "type": "Feature",
   "geometry": {
    "type": "Point",
    "coordinates": [
     152.83367833,
     -27.62040571
    ]
   },
   "properties": {
    "name": "2-32 RHONDDA ROAD NEW CHUM 4303",
    "locID": "LOC000127749469",
    "tech": "FTTN",
    "upgrade": "NULL_NA",
    "gnaf_pid": "GAQLD720861851",
    "tech_change_status": "Not Planned"
   }
  }
 ]
}