{
 "type": "FeatureCollection",
 "generated": "2024-08-30T14:40:13.399697",
 "suburb": "NORTH BRANCH",
 "features": [
  {
   "type": "Feature",
   "geometry": {
    "type": "Point",
    "coordinates": [
     151.64298622,
     -27.79531066
    ]
   },
   "properties": {
    "name": "62 BYCULLA ROAD NORTH BRANCH 4356",
    "locID": "LOC000101545160",
    "tech": "WIRELESS",
    "upgrade": "NULL_NA",
    "gnaf_pid": "GAQLD160726744",
    "tech_change_status": "Not Planned",
    "program_type": "Fixed Wireless and Satellite Upgrade Program",
    "target_eligibility_quarter": "NA"
   }
  },
  {
   "type": "Feature",
   "geometry": {
    "type": "Point",
    "coordinates": [
     151.64146458,
     -27.791298
    ]
   },
   "properties": {
    "name": "66 BYCULLA ROAD NORTH BRANCH 4356",
    "locID": "LOC000169815775",
    "tech": "SATELLITE",
    "upgrade": "NULL_NA",
    "gnaf_pid": "GAQLD160726745",
    "tech_change_status": "Not Planned"
   }
  },
  {
   "type": "Feature",
   "geometry": {
    "type": "Point",
    "coordinates": [
     151.60271237,
     -27.85387371
    ]
   },
   "properties": {
    "name": "250 GUNBOWER ROAD NORTH BRANCH 4356",
    "locID": "LOC000022734050",
    "tech": "WIRELESS",
    "upgrade": "NULL_NA",
    "gnaf_pid": "GAQLD160741324",
    "tech_change_status": "Not Planned",
    "program_type": "Fixed Wireless and Satellite Upgrade Program",
    "target_eligibility_quarter": "NA"
   }
  },
  {
   "type": "Feature",
   "geometry": {
    "type": "Point",
    "coordinates": [
     151.6555076,
     -27.85007429
    ]
   },
   "properties": {
    "name": "16 STIRLING ROAD NORTH BRANCH 4356",
    "locID": "LOC000060216908",
    "tech": "WIRELESS",
    "upgrade": "NULL_NA",
    "gnaf_pid": "GAQLD160766767",
    "tech_change_status": "Not Planned",
    "program_type": "Fixed Wireless and Satellite Upgrade Program",
    "target_eligibility_quarter": "NA"
   }
  },
  {
   "type": "Feature",
   "geometry": {
    "type": "Point",
    "coordinates": [
     151.66706936,
     -27.81328111
    ]
   },
   "properties": {
    "name": "489 VOLKERS ROAD NORTH BRANCH 4356",
    "locID": "LOC000041934434",
    "tech": "WIRELESS",
    "upgrade": "NULL_NA",
    "gnaf_pid": "GAQLD160766768",
    "tech_change_status": "Not Planned",
    "program_type": "Fixed Wireless and Satellite Upgrade Program",
    "target_eligibility_quarter": "NA"
   }
  },
  {
   "type": "Feature",
   "geometry": {
    "type": "Point",
    "coordinates": [
     151.68323152,
     -27.82933633
    ]
   },
   "properties": {
    "name": "492 VOLKERS ROAD NORTH BRANCH 4356",
    "locID": "LOC000022554263",
    "tech": "SATELLITE",
    "upgrade": "NULL_NA",
    "gnaf_pid": "GAQLD160766769",
    "tech_change_status": "Not Planned"
   }
  },
  {
   "type": "Feature",
   "geometry": {
    "type": "Point",
    "coordinates": [
     151.68312462,
     -27.8327935
    ]
   },
   "properties": {
    "name": "522 VOLKERS ROAD NORTH BRANCH 4356",
    "locID": "LOC000064796646",
    "tech": "SATELLITE",
    "upgrade": "NULL_NA",
    "gnaf_pid": "GAQLD160766770",
    "tech_change_status": "Not Planned"
   }
  },
  {
   "type": "Feature",
   "geometry": {
    "type": "Point",
    "coordinates": [
     151.62958755,
     -27.80679478
    ]
   },
   "properties": {
    "name": "55 KINCORA ROAD NORTH BRANCH 4356",
    "locID": "LOC000103169594",
    "tech": "SATELLITE",
    "upgrade": "NULL_NA",
    "gnaf_pid": "GAQLD160768474",
    "tech_change_status": "Not Planned"
   }
  },
  {
   "type": "Feature",
   "geometry": {
    "type": "Point",
    "coordinates": [
     151.61510649,
     -27.8254182
    ]
   },
   "properties": {
    "name": "118 LESLIE BRIDGE ROAD NORTH BRANCH 4356",
    "locID": "LOC000089409127",
    "tech": "SATELLITE",
    "upgrade": "NULL_NA",
    "gnaf_pid": "GAQLD160768475",
    "tech_change_status": "Not Planned"
   }
  },
  {
   "type": "Feature",
   "geometry": {
    "type": "Point",
    "coordinates": [
     151.63531422,
     -27.83933099
    ]
   },
   "properties": {
    "name": "253 LESLIE BRIDGE ROAD NORTH BRANCH 4356",
    "locID": "LOC000049823944",
    "tech": "WIRELESS",
    "upgrade": "NULL_NA",
    "gnaf_pid": "GAQLD160768477",
    "tech_change_status": "Not Planned",
    "program_type": "Fixed Wireless and Satellite Upgrade Program",
    "target_eligibility_quarter": "NA"
   }
  },
  {
   "type": "Feature",
   "geometry": {
    "type": "Point",
    "coordinates": [
     151.62606622,
     -27.84715468
    ]
   },
   "properties": {
    "name": "322 LESLIE BRIDGE ROAD NORTH BRANCH 4356",
    "locID": "LOC000059932752",
    "tech": "SATELLITE",
    "upgrade": "NULL_NA",
    "gnaf_pid": "GAQLD160768479",
    "tech_change_status": "Not Planned"
   }
  },
  {
   "type": "Feature",
   "geometry": {
    "type": "Point",
    "coordinates": [
     151.59953456,
     -27.8730955
    ]
   },
   "properties": {
    "name": "906 LESLIE BRIDGE ROAD NORTH BRANCH 4356",
    "locID": "LOC000086838836",
    "tech": "WIRELESS",
    "upgrade": "NULL_NA",
    "gnaf_pid": "GAQLD160768480",
    "tech_change_status": "Not Planned",
    "program_type": "Fixed Wireless and Satellite Upgrade Program",
    "target_eligibility_quarter": "NA"
   }
  },
  {
   "type": "Feature",
   "geometry": {
    "type": "Point",
    "coordinates": [
     152.3150485,
     -28.02351742
    ]
   },
   "properties": {
    "name": "1142 NORTH BRANCH ROAD NORTH BRANCH 4370",
    "locID": "LOC000027681700",
    "tech": "SATELLITE",
    "upgrade": "NULL_NA",
    "gnaf_pid": "GAQLD160957300",
    "tech_change_status": "Not Planned"
   }
  },
  {
   "type": "Feature",
   "geometry": {
    "type": "Point",
    "coordinates": [
     152.27914161,
     -28.02114609
    ]
   },
   "properties": {
    "name": "717 NORTH BRANCH ROAD NORTH BRANCH 4370",
    "locID": "LOC000112567303",
    "tech": "SATELLITE",
    "upgrade": "NULL_NA",
    "gnaf_pid": "GAQLD160957301",
    "tech_change_status": "Not Planned"
   }
  },
  {
   "type": "Feature",
   "geometry": {
    "type": "Point",
    "coordinates": [
     152.27914161,
     -28.02114609
    ]
   },
   "properties": {
    "name": "851 NORTH BRANCH ROAD NORTH BRANCH 4370",
    "locID": "LOC000111640576",
    "tech": "SATELLITE",
    "upgrade": "NULL_NA",
    "gnaf_pid": "GAQLD160957302",
    "tech_change_status": "Not Planned"
   }
  },
  {
   "type": "Feature",
   "geometry": {
    "type": "Point",
    "coordinates": [
     151.65721254,
     -27.81739046
    ]
   },
   "properties": {
    "name": "LOT 5 CLIFTON ROAD NORTH BRANCH 4356",
    "locID": "LOC000127932082",
    "tech": "WIRELESS",
    "upgrade": "NULL_NA",
    "gnaf_pid": "GAQLD161105081",
    "tech_change_status": "Not Planned",
    "program_type": "Fixed Wireless and Satellite Upgrade Program",
    "target_eligibility_quarter": "NA"
   }
  },
  {
   "type": "Feature",
   "geometry": {
    "type": "Point",
    "coordinates": [
     151.60916077,
     -27.81537262
    ]
   },
   "properties": {
    "name": "LOT 1086 GUNBOWER ROAD NORTH BRANCH 4356",
    "locID": "LOC000022734050",
    "tech": "WIRELESS",
    "upgrade": "NULL_NA",
    "gnaf_pid": "GAQLD161170268",
    "tech_change_status": "Not Planned",
    "program_type": "Fixed Wireless and Satellite Upgrade Program",
    "target_eligibility_quarter": "NA"
   }
  },
  {
   "type": "Feature",
   "geometry": {
    "type": "Point",
    "coordinates": [
     151.61756679,
     -27.8132266
    ]
   },
   "properties": {
    "name": "LOT 1734 GUNBOWER ROAD NORTH BRANCH 4356",
    "locID": "LOC000022734050",
    "tech": "WIRELESS",
    "upgrade": "NULL_NA",
    "gnaf_pid": "GAQLD161170271",
    "tech_change_status": "Not Planned",
    "program_type": "Fixed Wireless and Satellite Upgrade Program",
    "target_eligibility_quarter": "NA"
   }
  },
  {
   "type": "Feature",
   "geometry": {
    "type": "Point",
    "coordinates": [
     151.60765334,
     -27.82446883
    ]
   },
   "properties": {
    "name": "LOT 3082 GUNBOWER ROAD NORTH BRANCH 4356",
    "locID": "LOC000022734050",
    "tech": "WIRELESS",
    "upgrade": "NULL_NA",
    "gnaf_pid": "GAQLD161170275",
    "tech_change_status": "Not Planned",
    "program_type": "Fixed Wireless and Satellite Upgrade Program",
    "target_eligibility_quarter": "NA"
   }
  },
  {
   "type": "Feature",
   "geometry": {
    "type": "Point",
    "coordinates": [
     151.5835705,
     -27.86271863
    ]
   },
   "properties": {
    "name": "LOT 31 LACKS ROAD NORTH BRANCH 4356",
    "locID": "LOC000190365428",
    "tech": "FTTN",
    "upgrade": "NULL_NA",
    "gnaf_pid": "GAQLD161206186",
    "tech_change_status": "Not Planned"
   }
  },
  {
   "type": "Feature",
   "geometry": {
    "type": "Point",
    "coordinates": [
     152.33092628,
     -28.04526657
    ]
   },
   "properties": {
    "name": "1374 NORTH BRANCH ROAD NORTH BRANCH 4370",
    "locID": "LOC000082607989",
    "tech": "SATELLITE",
    "upgrade": "NULL_NA",
    "gnaf_pid": "GAQLD161370263",
    "tech_change_status": "Not Planned"
   }
  },
  {
   "type": "Feature",
   "geometry": {
    "type": "Point",
    "coordinates": [
     152.33937519,
     -28.03373708
    ]
   },
   "properties": {
    "name": "1415 NORTH BRANCH ROAD NORTH BRANCH 4370",
    "locID": "LOC000089776107",
    "tech": "SATELLITE",
    "upgrade": "NULL_NA",
    "gnaf_pid": "GAQLD161450522",
    "tech_change_status": "Not Planned"
   }
  },
  {
   "type": "Feature",
   "geometry": {
    "type": "Point",
    "coordinates": [
     152.35184024,
     -28.03623272
    ]
   },
   "properties": {
    "name": "LOT 54 NORTH BRANCH ROAD NORTH BRANCH 4370",
    "locID": "LOC000178974266",
    "tech": "SATELLITE",
    "upgrade": "NULL_NA",
    "gnaf_pid": "GAQLD161450523",
    "tech_change_status": "Not Planned"
   }
  },
  {
   "type": "Feature",
   "geometry": {
    "type": "Point",
    "coordinates": [
     152.27495024,
     -28.03071698
    ]
   },
   "properties": {
    "name": "702 NORTH BRANCH ROAD NORTH BRANCH 4370",
    "locID": "LOC000089335002",
    "tech": "SATELLITE",
    "upgrade": "NULL_NA",
    "gnaf_pid": "GAQLD161450524",
    "tech_change_status": "Not Planned"
   }
  },
  {
   "type": "Feature",
   "geometry": {
    "type": "Point",
    "coordinates": [
     152.28268868,
     -28.02987652
    ]
   },
   "properties": {
    "name": "808 NORTH BRANCH ROAD NORTH BRANCH 4370",
    "locID": "LOC000053536383",
    "tech": "SATELLITE",
    "upgrade": "NULL_NA",
    "gnaf_pid": "GAQLD161450525",
    "tech_change_status": "Not Planned"
   }
  },
  {
   "type": "Feature",
   "geometry": {
    "type": "Point",
    "coordinates": [
     151.61875831,
     -27.87744458
    ]
   },
   "properties": {
    "name": "223 BLACKGULLY ROAD NORTH BRANCH 4356",
    "locID": "LOC000142346088",
    "tech": "SATELLITE",
    "upgrade": "NULL_NA",
    "gnaf_pid": "GAQLD161651055",
    "tech_change_status": "Not Planned"
   }
  },
  {
   "type": "Feature",
   "geometry": {
    "type": "Point",
    "coordinates": [
     151.68053604,
     -27.81624996
    ]
   },
   "properties": {
    "name": "450 VOLKERS ROAD NORTH BRANCH 4356",
    "locID": "LOC000003520998",
    "tech": "WIRELESS",
    "upgrade": "NULL_NA",
    "gnaf_pid": "GAQLD161670845",
    "tech_change_status": "Not Planned",
    "program_type": "Fixed Wireless and Satellite Upgrade Program",
    "target_eligibility_quarter": "NA"
   }
  },
  {
   "type": "Feature",
   "geometry": {
    "type": "Point",
    "coordinates": [
     151.62611005,
     -27.83453018
    ]
   },
   "properties": {
    "name": "282 LESLIE BRIDGE ROAD NORTH BRANCH 4356",
    "locID": "LOC000079223634",
    "tech": "WIRELESS",
    "upgrade": "NULL_NA",
    "gnaf_pid": "GAQLD161789175",
    "tech_change_status": "Not Planned",
    "program_type": "Fixed Wireless and Satellite Upgrade Program",
    "target_eligibility_quarter": "NA"
   }
  },
  {
   "type": "Feature",
   "geometry": {
    "type": "Point",
    "coordinates": [
     152.27914161,
     -28.02114609
    ]
   },
   "properties": {
    "name": "709 NORTH BRANCH ROAD NORTH BRANCH 4370",
    "locID": "LOC000111813836",
    "tech": "SATELLITE",
    "upgrade": "NULL_NA",
    "gnaf_pid": "GAQLD161962062",
    "tech_change_status": "Not Planned"
   }
  },
  {
   "type": "Feature",
   "geometry": {
    "type": "Point",
    "coordinates": [
     152.27914161,
     -28.02114609
    ]
   },
   "properties": {
    "name": "739 NORTH BRANCH ROAD NORTH BRANCH 4370",
    "locID": "LOC000111088838",
    "tech": "SATELLITE",
    "upgrade": "NULL_NA",
    "gnaf_pid": "GAQLD161962063",
    "tech_change_status": "Not Planned"
   }
  },
  {
   "type": "Feature",
   "geometry": {
    "type": "Point",
    "coordinates": [
     152.27914161,
     -28.02114609
    ]
   },
   "properties": {
    "name": "793 NORTH BRANCH ROAD NORTH BRANCH 4370",
    "locID": "LOC000111759556",
    "tech": "SATELLITE",
    "upgrade": "NULL_NA",
    "gnaf_pid": "GAQLD161962064",
    "tech_change_status": "Not Planned"
   }
  },
  {
   "type": "Feature",
   "geometry": {
    "type": "Point",
    "coordinates": [
     152.27914161,
     -28.02114609
    ]
   },
   "properties": {
    "name": "809 NORTH BRANCH ROAD NORTH BRANCH 4370",
    "locID": "LOC000111040225",
    "tech": "SATELLITE",
    "upgrade": "NULL_NA",
    "gnaf_pid": "GAQLD161962065",
    "tech_change_status": "Not Planned"
   }
  },
  {
   "type": "Feature",
   "geometry": {
    "type": "Point",
    "coordinates": [
     152.27914161,
     -28.02114609
    ]
   },
   "properties": {
    "name": "831 NORTH BRANCH ROAD NORTH BRANCH 4370",
    "locID": "LOC000111650819",
    "tech": "SATELLITE",
    "upgrade": "NULL_NA",
    "gnaf_pid": "GAQLD161962066",
    "tech_change_status": "Not Planned"
   }
  },
  {
   "type": "Feature",
   "geometry": {
    "type": "Point",
    "coordinates": [
     152.30109366,
     -28.01979417
    ]
   },
   "properties": {
    "name": "951 NORTH BRANCH ROAD NORTH BRANCH 4370",
    "locID": "LOC000007662309",
    "tech": "SATELLITE",
    "upgrade": "NULL_NA",
    "gnaf_pid": "GAQLD162105498",
    "tech_change_status": "Not Planned"
   }
  },
  {
   "type": "Feature",
   "geometry": {
    "type": "Point",
    "coordinates": [
     151.58193613,
     -27.80572242
    ]
   },
   "properties": {
    "name": "873 SCRUBBY ROAD NORTH BRANCH 4356",
    "locID": "LOC000053775826",
    "tech": "WIRELESS",
    "upgrade": "NULL_NA",
    "gnaf_pid": "GAQLD162194021",
    "tech_change_status": "Not Planned",
    "program_type": "Fixed Wireless and Satellite Upgrade Program",
    "target_eligibility_quarter": "NA"
   }
  },
  {
   "type": "Feature",
   "geometry": {
    "type": "Point",
    "coordinates": [
     151.67535352,
     -27.80256677
    ]
   },
   "properties": {
    "name": "LOT 1 VOLKERS ROAD NORTH BRANCH 4356",
    "locID": "LOC000064796646",
    "tech": "SATELLITE",
    "upgrade": "NULL_NA",
    "gnaf_pid": "GAQLD162203719",
    "tech_change_status": "Not Planned"
   }
  },
  {
   "type": "Feature",
   "geometry": {
    "type": "Point",
    "coordinates": [
     152.33098532,
     -28.01977431
    ]
   },
   "properties": {
    "name": "1279 NORTH BRANCH ROAD NORTH BRANCH 4370",
    "locID": "LOC000127900466",
    "tech": "SATELLITE",
    "upgrade": "NULL_NA",
    "gnaf_pid": "GAQLD162290241",
    "tech_change_status": "Not Planned"
   }
  },
  {
   "type": "Feature",
   "geometry": {
    "type": "Point",
    "coordinates": [
     151.61508089,
     -27.82913358
    ]
   },
   "properties": {
    "name": "LOT 1 CLIFTON ROAD NORTH BRANCH 4356",
    "locID": "LOC000127932053",
    "tech": "WIRELESS",
    "upgrade": "NULL_NA",
    "gnaf_pid": "GAQLD162654732",
    "tech_change_status": "Not Planned",
    "program_type": "Fixed Wireless and Satellite Upgrade Program",
    "target_eligibility_quarter": "NA"
   }
  },
  {
   "type": "Feature",
   "geometry": {
    "type": "Point",
    "coordinates": [
     152.27914161,
     -28.02114609
    ]
   },
   "properties": {
    "name": "33 MAILMAN ROAD NORTH BRANCH 4370",
    "locID": "LOC000142345015",
    "tech": "SATELLITE",
    "upgrade": "NULL_NA",
    "gnaf_pid": "GAQLD162666843",
    "tech_change_status": "Not Planned"
   }
  },
  {
   "type": "Feature",
   "geometry": {
    "type": "Point",
    "coordinates": [
     152.29094433,
     -28.00441029
    ]
   },
   "properties": {
    "name": "101 MAILMAN ROAD NORTH BRANCH 4370",
    "locID": "LOC000142304179",
    "tech": "SATELLITE",
    "upgrade": "NULL_NA",
    "gnaf_pid": "GAQLD162732359",
    "tech_change_status": "Not Planned"
   }
  },
  {
   "type": "Feature",
   "geometry": {
    "type": "Point",
    "coordinates": [
     152.315812,
     -28.01531674
    ]
   },
   "properties": {
    "name": "288 MAILMAN ROAD NORTH BRANCH 4370",
    "locID": "LOC000143037554",
    "tech": "SATELLITE",
    "upgrade": "NULL_NA",
    "gnaf_pid": "GAQLD162732360",
    "tech_change_status": "Not Planned"
   }
  },
  {
   "type": "Feature",
   "geometry": {
    "type": "Point",
    "coordinates": [
     152.33371872,
     -28.00409932
    ]
   },
   "properties": {
    "name": "LOT 38 MAILMAN ROAD NORTH BRANCH 4370",
    "locID": "LOC000173299184",
    "tech": "SATELLITE",
    "upgrade": "NULL_NA",
    "gnaf_pid": "GAQLD162732361",
    "tech_change_status": "Not Planned"
   }
  },
  {
   "type": "Feature",
   "geometry": {
    "type": "Point",
    "coordinates": [
     152.28161896,
     -28.01216479
    ]
   },
   "properties": {
    "name": "49 MAILMAN ROAD NORTH BRANCH 4370",
    "locID": "LOC000142302496",
    "tech": "SATELLITE",
    "upgrade": "NULL_NA",
    "gnaf_pid": "GAQLD162732362",
    "tech_change_status": "Not Planned"
   }
  },
  {
   "type": "Feature",
   "geometry": {
    "type": "Point",
    "coordinates": [
     152.27914161,
     -28.02114609
    ]
   },
   "properties": {
    "name": "21 MAILMAN ROAD NORTH BRANCH 4370",
    "locID": "LOC000143022917",
    "tech": "SATELLITE",
    "upgrade": "NULL_NA",
    "gnaf_pid": "GAQLD162735950",
    "tech_change_status": "Not Planned"
   }
  },
  {
   "type": "Feature",
   "geometry": {
    "type": "Point",
    "coordinates": [
     151.61730383,
     -27.82807732
    ]
   },
   "properties": {
    "name": "LOT 1289 GUNBOWER ROAD NORTH BRANCH 4356",
    "locID": "LOC000022734050",
    "tech": "WIRELESS",
    "upgrade": "NULL_NA",
    "gnaf_pid": "GAQLD163309036",
    "tech_change_status": "Not Planned",
    "program_type": "Fixed Wireless and Satellite Upgrade Program",
    "target_eligibility_quarter": "NA"
   }
  },
  {
   "type": "Feature",
   "geometry": {
    "type": "Point",
    "coordinates": [
     151.5986563,
     -27.81906489
    ]
   },
   "properties": {
    "name": "LOT 4 GUNBOWER ROAD NORTH BRANCH 4356",
    "locID": "LOC000022734050",
    "tech": "WIRELESS",
    "upgrade": "NULL_NA",
    "gnaf_pid": "GAQLD163309037",
    "tech_change_status": "Not Planned",
    "program_type": "Fixed Wireless and Satellite Upgrade Program",
    "target_eligibility_quarter": "NA"
   }
  },
  {
   "type": "Feature",
   "geometry": {
    "type": "Point",
    "coordinates": [
     151.57357799,
     -27.80045483
    ]
   },
   "properties": {
    "name": "LOT 2 SCRUBBY ROAD NORTH BRANCH 4356",
    "locID": "LOC000053775826",
    "tech": "WIRELESS",
    "upgrade": "NULL_NA",
    "gnaf_pid": "GAQLD163318022",
    "tech_change_status": "Not Planned",
    "program_type": "Fixed Wireless and Satellite Upgrade Program",
    "target_eligibility_quarter": "NA"
   }
  },
  {
   "type": "Feature",
   "geometry": {
    "type": "Point",
    "coordinates": [
     151.64195726,
     -27.89000989
    ]
   },
   "properties": {
    "name": "LOT 6 BLACKGULLY ROAD NORTH BRANCH 4356",
    "locID": "LOC000127932216",
    "tech": "WIRELESS",
    "upgrade": "NULL_NA",
    "gnaf_pid": "GAQLD163357706",
    "tech_change_status": "Not Planned",
    "program_type": "Fixed Wireless and Satellite Upgrade Program",
    "target_eligibility_quarter": "Dec 2024"
   }
  },
  {
   "type": "Feature",
   "geometry": {
    "type": "Point",
    "coordinates": [
     152.29094433,
     -28.00441029
    ]
   },
   "properties": {
    "name": "UNIT 1, 101 MAILMAN ROAD NORTH BRANCH 4370",
    "locID": "LOC000173917911",
    "tech": "SATELLITE",
    "upgrade": "NULL_NA",
    "gnaf_pid": "GAQLD163368844",
    "tech_change_status": "Not Planned"
   }
  },
  {
   "type": "Feature",
   "geometry": {
    "type": "Point",
    "coordinates": [
     152.29094433,
     -28.00441029
    ]
   },
   "properties": {
    "name": "UNIT 2, 101 MAILMAN ROAD NORTH BRANCH 4370",
    "locID": "LOC000148356583",
    "tech": "SATELLITE",
    "upgrade": "NULL_NA",
    "gnaf_pid": "GAQLD425050291",
    "tech_change_status": "Not Planned"
   }
  },
  {
   "type": "Feature",
   "geometry": {
    "type": "Point",
    "coordinates": [
     152.26365349,
     -28.01498045
    ]
   },
   "properties": {
    "name": "74 RATHMELL ROAD NORTH BRANCH 4370",
    "locID": "LOC000148361355",
    "tech": "SATELLITE",
    "upgrade": "NULL_NA",
    "gnaf_pid": "GAQLD425333313",
    "tech_change_status": "Not Planned"
   }
  },
  {
   "type": "Feature",
   "geometry": {
    "type": "Point",
    "coordinates": [
     151.60629315,
     -27.87162774
    ]
   },
   "properties": {
    "name": "LOT 11 LESLIE BRIDGE ROAD NORTH BRANCH 4356",
    "locID": "LOC000089409127",
    "tech": "SATELLITE",
    "upgrade": "NULL_NA",
    "gnaf_pid": "GAQLD425657751",
    "tech_change_status": "Not Planned"
   }
  },
  {
   "type": "Feature",
   "geometry": {
    "type": "Point",
    "coordinates": [
     151.60403462,
     -27.88448303
    ]
   },
   "properties": {
    "name": "LOT 34 LESLIE BRIDGE ROAD NORTH BRANCH 4356",
    "locID": "LOC000049823944",
    "tech": "WIRELESS",
    "upgrade": "NULL_NA",
    "gnaf_pid": "GAQLD425657752",
    "tech_change_status": "Not Planned",
    "program_type": "Fixed Wireless and Satellite Upgrade Program",
    "target_eligibility_quarter": "NA"
   }
  },
  {
   "type": "Feature",
   "geometry": {
    "type": "Point",
    "coordinates": [
     152.29351404,
     -28.02315303
    ]
   },
   "properties": {
    "name": "415 NORTH BRANCH ROAD NORTH BRANCH 4370",
    "locID": "LOC000068274762",
    "tech": "SATELLITE",
    "upgrade": "NULL_NA",
    "gnaf_pid": "GAQLD425860643",
    "tech_change_status": "Not Planned"
   }
  },
  {
   "type": "Feature",
   "geometry": {
    "type": "Point",
    "coordinates": [
     152.27914161,
     -28.02114609
    ]
   },
   "properties": {
    "name": "765 NORTH BRANCH ROAD NORTH BRANCH 4370",
    "locID": "LOC000178974266",
    "tech": "SATELLITE",
    "upgrade": "NULL_NA",
    "gnaf_pid": "GAQLD719067806",
    "tech_change_status": "Not Planned"
   }
  },
  {
   "type": "Feature",
   "geometry": {
    "type": "Point",
    "coordinates": [
     151.67729386,
     -27.84026729
    ]
   },
   "properties": {
    "name": "102 HOGARTH ROAD NORTH BRANCH 4356",
    "locID": "LOC100071923425",
    "tech": "WIRELESS",
    "upgrade": "NULL_NA",
    "gnaf_pid": "GAQLD719264758",
    "tech_change_status": "Not Planned",
    "program_type": "Fixed Wireless and Satellite Upgrade Program",
    "target_eligibility_quarter": "NA"
   }
  },
  {
   "type": "Feature",
   "geometry": {
    "type": "Point",
    "coordinates": [
     151.63929898,
     -27.87588591
    ]
   },
   "properties": {
    "name": "LOT 1 HOGARTH ROAD NORTH BRANCH 4356",
    "locID": "LOC100071923425",
    "tech": "WIRELESS",
    "upgrade": "NULL_NA",
    "gnaf_pid": "GAQLD719273227",
    "tech_change_status": "Not Planned",
    "program_type": "Fixed Wireless and Satellite Upgrade Program",
    "target_eligibility_quarter": "NA"
   }
  },
  {
   "type": "Feature",
   "geometry": {
    "type": "Point",
    "coordinates": [
     151.61207405,
     -27.80621199
    ]
   },
   "properties": {
    "name": "311 KINCORA ROAD NORTH BRANCH 4356",
    "locID": "LOC000127960861",
    "tech": "SATELLITE",
    "upgrade": "NULL_NA",
    "gnaf_pid": "GAQLD719798725",
    "tech_change_status": "Not Planned"
   }
  },
  {
   "type": "Feature",
   "geometry": {
    "type": "Point",
    "coordinates": [
     151.58951292,
     -27.81847716
    ]
   },
   "properties": {
    "name": "1037 TUMMAVILLE ROAD NORTH BRANCH 4356",
    "locID": "LOC000109947280",
    "tech": "WIRELESS",
    "upgrade": "NULL_NA",
    "gnaf_pid": "GAQLD720031625",
    "tech_change_status": "Not Planned",
    "program_type": "Fixed Wireless and Satellite Upgrade Program",
    "target_eligibility_quarter": "NA"
   }
  }
 ]
}