{
 "type": "FeatureCollection",
 "generated": "2023-07-15T22:58:26.573434",
 "suburb": "RIVERSLEIGH",
 "features": [
  {
   "type": "Feature",
   "geometry": {
    "type": "Point",
    "coordinates": [
     146.36556963,
     -26.64865948
    ]
   },
   "properties": {
    "name": "LOT 4 CHARLEVILLE BOLLON ROAD RIVERSLEIGH 4470",
    "locID": "LOC000181148422",
    "tech": "SATELLITE",
    "upgrade": "NULL_NA",
    "gnaf_pid": "GAQLD161100305"
   }
  },
  {
   "type": "Feature",
   "geometry": {
    "type": "Point",
    "coordinates": [
     146.4480263,
     -26.67510208
    ]
   },
   "properties": {
    "name": "LOT 5241 CHARLEVILLE BOLLON ROAD RIVERSLEIGH 4470",
    "locID": "LOC000181148422",
    "tech": "SATELLITE",
    "upgrade": "NULL_NA",
    "gnaf_pid": "GAQLD161100306"
   }
  },
  {
   "type": "Feature",
   "geometry": {
    "type": "Point",
    "coordinates": [
     146.76942315,
     -26.69512704
    ]
   },
   "properties": {
    "name": "LOT 6 NOORALOO ROAD RIVERSLEIGH 4470",
    "locID": "LOC000142346660",
    "tech": "SATELLITE",
    "upgrade": "NULL_NA",
    "gnaf_pid": "GAQLD161257218"
   }
  },
  {
   "type": "Feature",
   "geometry": {
    "type": "Point",
    "coordinates": [
     146.39571307,
     -26.73596513
    ]
   },
   "properties": {
    "name": "LOT 5 WALLAL RIVERSLEIGH ROAD RIVERSLEIGH 4470",
    "locID": "LOC000154200108",
    "tech": "SATELLITE",
    "upgrade": "NULL_NA",
    "gnaf_pid": "GAQLD161343720"
   }
  },
  {
   "type": "Feature",
   "geometry": {
    "type": "Point",
    "coordinates": [
     146.32559973,
     -26.78957625
    ]
   },
   "properties": {
    "name": "LOT 4 HYTHE ROAD RIVERSLEIGH 4470",
    "locID": "LOC000160184042",
    "tech": "SATELLITE",
    "upgrade": "NULL_NA",
    "gnaf_pid": "GAQLD161741843"
   }
  },
  {
   "type": "Feature",
   "geometry": {
    "type": "Point",
    "coordinates": [
     146.34615991,
     -26.72339913
    ]
   },
   "properties": {
    "name": "LOT 2 HYTHE ROAD RIVERSLEIGH 4470",
    "locID": "LOC000160184042",
    "tech": "SATELLITE",
    "upgrade": "NULL_NA",
    "gnaf_pid": "GAQLD162038054"
   }
  },
  {
   "type": "Feature",
   "geometry": {
    "type": "Point",
    "coordinates": [
     146.35144137,
     -26.95389856
    ]
   },
   "properties": {
    "name": "3622 WHEATLEIGH ROAD RIVERSLEIGH 4470",
    "locID": "ChIJnbLdHBdlsmsR4lBW7hJ1aPg",
    "tech": "SATELLITE",
    "upgrade": "UNKNOWN",
    "gnaf_pid": "GAQLD162931492"
   }
  },
  {
   "type": "Feature",
   "geometry": {
    "type": "Point",
    "coordinates": [
     146.31733031,
     -26.86402628
    ]
   },
   "properties": {
    "name": "1963 WHEATLEIGH ROAD RIVERSLEIGH 4470",
    "locID": "LOC000067947322",
    "tech": "SATELLITE",
    "upgrade": "NULL_NA",
    "gnaf_pid": "GAQLD163065539"
   }
  },
  {
   "type": "Feature",
   "geometry": {
    "type": "Point",
    "coordinates": [
     146.61720928,
     -26.68103153
    ]
   },
   "properties": {
    "name": "1695 NOORALOO ROAD RIVERSLEIGH 4470",
    "locID": "LOC000142346660",
    "tech": "SATELLITE",
    "upgrade": "NULL_NA",
    "gnaf_pid": "GAQLD163126554"
   }
  },
  {
   "type": "Feature",
   "geometry": {
    "type": "Point",
    "coordinates": [
     146.35144137,
     -26.95389856
    ]
   },
   "properties": {
    "name": "420 WHEATLEIGH ROAD RIVERSLEIGH 4470",
    "locID": "LOC000154200108",
    "tech": "SATELLITE",
    "upgrade": "NULL_NA",
    "gnaf_pid": "GAQLD425551119"
   }
  },
  {
   "type": "Feature",
   "geometry": {
    "type": "Point",
    "coordinates": [
     146.31079576,
     -26.66180776
    ]
   },
   "properties": {
    "name": "LOT 6 CHARLEVILLE BOLLON ROAD RIVERSLEIGH 4470",
    "locID": "LOC000181148422",
    "tech": "SATELLITE",
    "upgrade": "NULL_NA",
    "gnaf_pid": "GAQLD425809728"
   }
  },
  {
   "type": "Feature",
   "geometry": {
    "type": "Point",
    "coordinates": [
     146.63797057,
     -26.67491331
    ]
   },
   "properties": {
    "name": "838 NOORALOO ROAD RIVERSLEIGH 4470",
    "locID": "ChIJIZbsh9k2smsR5Pe9HPuSZrM",
    "tech": "SATELLITE",
    "upgrade": "UNKNOWN",
    "gnaf_pid": "GAQLD720557312"
   }
  },
  {
   "type": "Feature",
   "geometry": {
    "type": "Point",
    "coordinates": [
     146.34273086,
     -27.05607557
    ]
   },
   "properties": {
    "name": "657 DE WARRA ROAD RIVERSLEIGH 4470",
    "locID": "ChIJ200oLSp6smsRXcP2UzEIPeY",
    "tech": "SATELLITE",
    "upgrade": "UNKNOWN",
    "gnaf_pid": "GAQLD720665465"
   }
  },
  {
   "type": "Feature",
   "geometry": {
    "type": "Point",
    "coordinates": [
     146.55439347,
     -27.11493931
    ]
   },
   "properties": {
    "name": "7963 BOLLON - CHARLEVILLE ROAD RIVERSLEIGH 4470",
    "locID": "ChIJ1ysxI1ZzsmsRKV66hyNhjBs",
    "tech": "SATELLITE",
    "upgrade": "UNKNOWN",
    "gnaf_pid": "GAQLD721116236"
   }
  },
  {
   "type": "Feature",
   "geometry": {
    "type": "Point",
    "coordinates": [
     146.50711954,
     -26.62584467
    ]
   },
   "properties": {
    "name": "LOT 3 BOLLON - CHARLEVILLE ROAD RIVERSLEIGH 4470",
    "locID": "LOC000181148422",
    "tech": "SATELLITE",
    "upgrade": "NULL_NA",
    "gnaf_pid": "GAQLD721119115"
   }
  },
  {
   "type": "Feature",
   "geometry": {
    "type": "Point",
    "coordinates": [
     146.42391038,
     -26.58274743
    ]
   },
   "properties": {
    "name": "2546 BOLLON - CHARLEVILLE ROAD RIVERSLEIGH 4470",
    "locID": "ChIJ-TPPc39OsmsRWhKhyhrzKJM",
    "tech": "SATELLITE",
    "upgrade": "UNKNOWN",
    "gnaf_pid": "GAQLD721120442"
   }
  }
 ]
}