{
 "type": "FeatureCollection",
 "generated": "2024-09-20T05:55:05.106706",
 "suburb": "RIVERSLEIGH",
 "features": [
  {
   "type": "Feature",
   "geometry": {
    "type": "Point",
    "coordinates": [
     146.36556963,
     -26.64865948
    ]
   },
   "properties": {
    "name": "LOT 4 CHARLEVILLE BOLLON ROAD RIVERSLEIGH 4470",
    "locID": "LOC000181148422",
    "tech": "SATELLITE",
    "upgrade": "NULL_NA",
    "gnaf_pid": "GAQLD161100305",
    "tech_change_status": "Not Planned"
   }
  },
  {
   "type": "Feature",
   "geometry": {
    "type": "Point",
    "coordinates": [
     146.4480263,
     -26.67510208
    ]
   },
   "properties": {
    "name": "LOT 5241 CHARLEVILLE BOLLON ROAD RIVERSLEIGH 4470",
    "locID": "LOC000181148422",
    "tech": "SATELLITE",
    "upgrade": "NULL_NA",
    "gnaf_pid": "GAQLD161100306",
    "tech_change_status": "Not Planned"
   }
  },
  {
   "type": "Feature",
   "geometry": {
    "type": "Point",
    "coordinates": [
     146.76942315,
     -26.69512704
    ]
   },
   "properties": {
    "name": "LOT 6 NOORALOO ROAD RIVERSLEIGH 4470",
    "locID": "LOC000142346660",
    "tech": "SATELLITE",
    "upgrade": "NULL_NA",
    "gnaf_pid": "GAQLD161257218",
    "tech_change_status": "Not Planned"
   }
  },
  {
   "type": "Feature",
   "geometry": {
    "type": "Point",
    "coordinates": [
     146.39571307,
     -26.73596513
    ]
   },
   "properties": {
    "name": "LOT 5 WALLAL RIVERSLEIGH ROAD RIVERSLEIGH 4470",
    "locID": "LOC000154200108",
    "tech": "SATELLITE",
    "upgrade": "NULL_NA",
    "gnaf_pid": "GAQLD161343720",
    "tech_change_status": "Not Planned"
   }
  },
  {
   "type": "Feature",
   "geometry": {
    "type": "Point",
    "coordinates": [
     146.32559973,
     -26.78957625
    ]
   },
   "properties": {
    "name": "LOT 4 HYTHE ROAD RIVERSLEIGH 4470",
    "locID": "LOC000160184042",
    "tech": "SATELLITE",
    "upgrade": "NULL_NA",
    "gnaf_pid": "GAQLD161741843",
    "tech_change_status": "Not Planned"
   }
  },
  {
   "type": "Feature",
   "geometry": {
    "type": "Point",
    "coordinates": [
     146.34615991,
     -26.72339913
    ]
   },
   "properties": {
    "name": "LOT 2 HYTHE ROAD RIVERSLEIGH 4470",
    "locID": "LOC000160184042",
    "tech": "SATELLITE",
    "upgrade": "NULL_NA",
    "gnaf_pid": "GAQLD162038054",
    "tech_change_status": "Not Planned"
   }
  },
  {
   "type": "Feature",
   "geometry": {
    "type": "Point",
    "coordinates": [
     146.31733031,
     -26.86402628
    ]
   },
   "properties": {
    "name": "1963 WHEATLEIGH ROAD RIVERSLEIGH 4470",
    "locID": "LOC000067947322",
    "tech": "SATELLITE",
    "upgrade": "NULL_NA",
    "gnaf_pid": "GAQLD163065539",
    "tech_change_status": "Not Planned"
   }
  },
  {
   "type": "Feature",
   "geometry": {
    "type": "Point",
    "coordinates": [
     146.61720928,
     -26.68103153
    ]
   },
   "properties": {
    "name": "1695 NOORALOO ROAD RIVERSLEIGH 4470",
    "locID": "LOC000142346660",
    "tech": "SATELLITE",
    "upgrade": "NULL_NA",
    "gnaf_pid": "GAQLD163126554",
    "tech_change_status": "Not Planned"
   }
  },
  {
   "type": "Feature",
   "geometry": {
    "type": "Point",
    "coordinates": [
     146.35144137,
     -26.95389856
    ]
   },
   "properties": {
    "name": "420 WHEATLEIGH ROAD RIVERSLEIGH 4470",
    "locID": "LOC000154200108",
    "tech": "SATELLITE",
    "upgrade": "NULL_NA",
    "gnaf_pid": "GAQLD425551119",
    "tech_change_status": "Not Planned"
   }
  },
  {
   "type": "Feature",
   "geometry": {
    "type": "Point",
    "coordinates": [
     146.31079576,
     -26.66180776
    ]
   },
   "properties": {
    "name": "LOT 6 CHARLEVILLE BOLLON ROAD RIVERSLEIGH 4470",
    "locID": "LOC000181148422",
    "tech": "SATELLITE",
    "upgrade": "NULL_NA",
    "gnaf_pid": "GAQLD425809728",
    "tech_change_status": "Not Planned"
   }
  },
  {
   "type": "Feature",
   "geometry": {
    "type": "Point",
    "coordinates": [
     146.50711954,
     -26.62584467
    ]
   },
   "properties": {
    "name": "LOT 3 BOLLON - CHARLEVILLE ROAD RIVERSLEIGH 4470",
    "locID": "LOC000181148422",
    "tech": "SATELLITE",
    "upgrade": "NULL_NA",
    "gnaf_pid": "GAQLD721119115",
    "tech_change_status": "Not Planned"
   }
  }
 ]
}