{
 "type": "FeatureCollection",
 "generated": "2023-12-15T13:29:10.100413",
 "suburb": "SHUTE HARBOUR",
 "features": [
  {
   "type": "Feature",
   "geometry": {
    "type": "Point",
    "coordinates": [
     148.79015762,
     -20.28703257
    ]
   },
   "properties": {
    "name": "15 NEERIM CRESCENT SHUTE HARBOUR 4802",
    "locID": "ChIJb63Ewi5L2GsR0czZ37mtuVk",
    "tech": "SATELLITE",
    "upgrade": "UNKNOWN",
    "gnaf_pid": "GAQLD155808387"
   }
  },
  {
   "type": "Feature",
   "geometry": {
    "type": "Point",
    "coordinates": [
     148.78971746,
     -20.28663526
    ]
   },
   "properties": {
    "name": "12 PASSAGE AVENUE SHUTE HARBOUR 4802",
    "locID": "ChIJheJA2i5L2GsRjoKpde2Pjig",
    "tech": "SATELLITE",
    "upgrade": "UNKNOWN",
    "gnaf_pid": "GAQLD155809098"
   }
  },
  {
   "type": "Feature",
   "geometry": {
    "type": "Point",
    "coordinates": [
     148.78714804,
     -20.29061445
    ]
   },
   "properties": {
    "name": "10 BAY TERRACE SHUTE HARBOUR 4802",
    "locID": "ChIJZ4ntoytL2GsRvySq5pqHUdw",
    "tech": "SATELLITE",
    "upgrade": "UNKNOWN",
    "gnaf_pid": "GAQLD155813872"
   }
  },
  {
   "type": "Feature",
   "geometry": {
    "type": "Point",
    "coordinates": [
     148.7871368,
     -20.29017936
    ]
   },
   "properties": {
    "name": "14 BAY TERRACE SHUTE HARBOUR 4802",
    "locID": "ChIJvUxEvCtL2GsRJr1_K6lBdJM",
    "tech": "SATELLITE",
    "upgrade": "UNKNOWN",
    "gnaf_pid": "GAQLD155815679"
   }
  },
  {
   "type": "Feature",
   "geometry": {
    "type": "Point",
    "coordinates": [
     148.79017078,
     -20.28650631
    ]
   },
   "properties": {
    "name": "13 PASSAGE AVENUE SHUTE HARBOUR 4802",
    "locID": "ChIJV_zl3y5L2GsRC-A_pgwBeQE",
    "tech": "SATELLITE",
    "upgrade": "UNKNOWN",
    "gnaf_pid": "GAQLD157099000"
   }
  },
  {
   "type": "Feature",
   "geometry": {
    "type": "Point",
    "coordinates": [
     148.79065271,
     -20.28659783
    ]
   },
   "properties": {
    "name": "19 PASSAGE AVENUE SHUTE HARBOUR 4802",
    "locID": "ChIJvRYg4i5L2GsRwMIR0Uj4IkM",
    "tech": "SATELLITE",
    "upgrade": "UNKNOWN",
    "gnaf_pid": "GAQLD157102609"
   }
  },
  {
   "type": "Feature",
   "geometry": {
    "type": "Point",
    "coordinates": [
     148.78681714,
     -20.29000899
    ]
   },
   "properties": {
    "name": "16 BAY TERRACE SHUTE HARBOUR 4802",
    "locID": "ChIJ6XERuitL2GsRZImYoEm2Vzw",
    "tech": "SATELLITE",
    "upgrade": "UNKNOWN",
    "gnaf_pid": "GAQLD157130938"
   }
  },
  {
   "type": "Feature",
   "geometry": {
    "type": "Point",
    "coordinates": [
     148.79210901,
     -20.28979099
    ]
   },
   "properties": {
    "name": "52 HARBOUR AVENUE SHUTE HARBOUR 4802",
    "locID": "ChIJy_vQ0y1L2GsRwAQXlGqyfWc",
    "tech": "SATELLITE",
    "upgrade": "UNKNOWN",
    "gnaf_pid": "GAQLD157130972"
   }
  },
  {
   "type": "Feature",
   "geometry": {
    "type": "Point",
    "coordinates": [
     148.78663781,
     -20.29091197
    ]
   },
   "properties": {
    "name": "4B BAY TERRACE SHUTE HARBOUR 4802",
    "locID": "ChIJE1AnqCtL2GsRMn9S4d-Z9JI",
    "tech": "SATELLITE",
    "upgrade": "UNKNOWN",
    "gnaf_pid": "GAQLD158603151"
   }
  },
  {
   "type": "Feature",
   "geometry": {
    "type": "Point",
    "coordinates": [
     148.78663781,
     -20.29091197
    ]
   },
   "properties": {
    "name": "4A BAY TERRACE SHUTE HARBOUR 4802",
    "locID": "ChIJE1AnqCtL2GsRZXp8yLgKEqc",
    "tech": "SATELLITE",
    "upgrade": "UNKNOWN",
    "gnaf_pid": "GAQLD158639879"
   }
  },
  {
   "type": "Feature",
   "geometry": {
    "type": "Point",
    "coordinates": [
     148.78608424,
     -20.29239116
    ]
   },
   "properties": {
    "name": "LOT 296 SHUTE HARBOUR ROAD SHUTE HARBOUR 4802",
    "locID": "EjYyOTYgU2h1dGUgSGFyYm91ciBSZCwgQWlybGllIEJlYWNoIFFMRCA0ODAyLCBBdXN0cmFsaWEiMRIvChQKEgkVa4QaRjXYaxGb0WmvGkZBHRCoAioUChIJZdnJd7HL2WsRSyP0wSBa7nM",
    "tech": "FTTN",
    "upgrade": "UNKNOWN",
    "gnaf_pid": "GAQLD161308169"
   }
  },
  {
   "type": "Feature",
   "geometry": {
    "type": "Point",
    "coordinates": [
     148.78215247,
     -20.29155091
    ]
   },
   "properties": {
    "name": "LOT 301 SHUTE HARBOUR ROAD SHUTE HARBOUR 4802",
    "locID": "EjYzMDEgU2h1dGUgSGFyYm91ciBSZCwgQWlybGllIEJlYWNoIFFMRCA0ODAyLCBBdXN0cmFsaWEiMRIvChQKEgnJLqb-RTXYaxHqfIXH-kIDAxCtAioUChIJZdnJd7HL2WsRSyP0wSBa7nM",
    "tech": "FTTN",
    "upgrade": "UNKNOWN",
    "gnaf_pid": "GAQLD161308172"
   }
  },
  {
   "type": "Feature",
   "geometry": {
    "type": "Point",
    "coordinates": [
     148.77536119,
     -20.29048371
    ]
   },
   "properties": {
    "name": "LOT 306 SHUTE HARBOUR ROAD SHUTE HARBOUR 4802",
    "locID": "EjYzMDYgU2h1dGUgSGFyYm91ciBSZCwgQWlybGllIEJlYWNoIFFMRCA0ODAyLCBBdXN0cmFsaWEiMRIvChQKEgkVa4QaRjXYaxGb0WmvGkZBHRCyAioUChIJZdnJd7HL2WsRSyP0wSBa7nM",
    "tech": "FTTN",
    "upgrade": "UNKNOWN",
    "gnaf_pid": "GAQLD161308173"
   }
  },
  {
   "type": "Feature",
   "geometry": {
    "type": "Point",
    "coordinates": [
     148.7846135,
     -20.29213525
    ]
   },
   "properties": {
    "name": "LOT 310 SHUTE HARBOUR ROAD SHUTE HARBOUR 4802",
    "locID": "EjYzMTAgU2h1dGUgSGFyYm91ciBSZCwgQWlybGllIEJlYWNoIFFMRCA0ODAyLCBBdXN0cmFsaWEiMRIvChQKEgkVa4QaRjXYaxGb0WmvGkZBHRC2AioUChIJZdnJd7HL2WsRSyP0wSBa7nM",
    "tech": "FTTN",
    "upgrade": "UNKNOWN",
    "gnaf_pid": "GAQLD161308174"
   }
  },
  {
   "type": "Feature",
   "geometry": {
    "type": "Point",
    "coordinates": [
     148.78599042,
     -20.29031192
    ]
   },
   "properties": {
    "name": "LOT 226 WHITSUNDAY DRIVE SHUTE HARBOUR 4802",
    "locID": "EjQyMjYgV2hpdHN1bmRheSBEciwgU2h1dGUgSGFyYm91ciBRTEQgNDgwMiwgQXVzdHJhbGlhIjESLwoUChIJT2Fg3ipL2GsRxhmc-6BOCg0Q4gEqFAoSCRVJ1EwqS9hrEUU5CKANlbeG",
    "tech": "SATELLITE",
    "upgrade": "UNKNOWN",
    "gnaf_pid": "GAQLD161353312"
   }
  },
  {
   "type": "Feature",
   "geometry": {
    "type": "Point",
    "coordinates": [
     148.78557216,
     -20.29032774
    ]
   },
   "properties": {
    "name": "LOT 311 WHITSUNDAY DRIVE SHUTE HARBOUR 4802",
    "locID": "EjQzMTEgV2hpdHN1bmRheSBEciwgU2h1dGUgSGFyYm91ciBRTEQgNDgwMiwgQXVzdHJhbGlhIjESLwoUChIJT2Fg3ipL2GsRxhmc-6BOCg0QtwIqFAoSCRVJ1EwqS9hrEUU5CKANlbeG",
    "tech": "SATELLITE",
    "upgrade": "UNKNOWN",
    "gnaf_pid": "GAQLD161353315"
   }
  },
  {
   "type": "Feature",
   "geometry": {
    "type": "Point",
    "coordinates": [
     148.78541419,
     -20.29094198
    ]
   },
   "properties": {
    "name": "LOT 225 WHITSUNDAY DRIVE SHUTE HARBOUR 4802",
    "locID": "EjQyMjUgV2hpdHN1bmRheSBEciwgU2h1dGUgSGFyYm91ciBRTEQgNDgwMiwgQXVzdHJhbGlhIjESLwoUChIJT2Fg3ipL2GsRxhmc-6BOCg0Q4QEqFAoSCRVJ1EwqS9hrEUU5CKANlbeG",
    "tech": "SATELLITE",
    "upgrade": "UNKNOWN",
    "gnaf_pid": "GAQLD162834775"
   }
  },
  {
   "type": "Feature",
   "geometry": {
    "type": "Point",
    "coordinates": [
     148.78170999,
     -20.2908728
    ]
   },
   "properties": {
    "name": "3334 SHUTE HARBOUR ROAD SHUTE HARBOUR 4802",
    "locID": "ChIJT_k0E9VK2GsRfpcmgmVA_Os",
    "tech": "SATELLITE",
    "upgrade": "UNKNOWN",
    "gnaf_pid": "GAQLD425145998"
   }
  },
  {
   "type": "Feature",
   "geometry": {
    "type": "Point",
    "coordinates": [
     148.78682383,
     -20.28912639
    ]
   },
   "properties": {
    "name": "60 WHITSUNDAY DRIVE SHUTE HARBOUR 4802",
    "locID": "ChIJ-x8RxStL2GsRaPEZrxGv7A8",
    "tech": "SATELLITE",
    "upgrade": "UNKNOWN",
    "gnaf_pid": "GAQLD719133757"
   }
  }
 ]
}