{
 "type": "FeatureCollection",
 "generated": "2024-10-08T05:29:18.129574",
 "suburb": "SOUTHERN CROSS",
 "features": [
  {
   "type": "Feature",
   "geometry": {
    "type": "Point",
    "coordinates": [
     146.24152551,
     -20.07894365
    ]
   },
   "properties": {
    "name": "LOT 2 FORBES STREET SOUTHERN CROSS 4820",
    "locID": "LOC000129581758",
    "tech": "WIRELESS",
    "upgrade": "NULL_NA",
    "gnaf_pid": "GAQLD155173432",
    "tech_change_status": "Not Planned",
    "program_type": "Fixed Wireless and Satellite Upgrade Program",
    "target_eligibility_quarter": "NA"
   }
  },
  {
   "type": "Feature",
   "geometry": {
    "type": "Point",
    "coordinates": [
     146.22764709,
     -20.08512715
    ]
   },
   "properties": {
    "name": "LOT 2 WELLINGTON ROAD SOUTHERN CROSS 4820",
    "locID": "LOC000129565638",
    "tech": "WIRELESS",
    "upgrade": "NULL_NA",
    "gnaf_pid": "GAQLD155174618",
    "tech_change_status": "Not Planned",
    "program_type": "Fixed Wireless and Satellite Upgrade Program",
    "target_eligibility_quarter": "NA"
   }
  },
  {
   "type": "Feature",
   "geometry": {
    "type": "Point",
    "coordinates": [
     146.2392844,
     -20.08933792
    ]
   },
   "properties": {
    "name": "LOT 1 LOUISA ROAD SOUTHERN CROSS 4820",
    "locID": "LOC000129565910",
    "tech": "WIRELESS",
    "upgrade": "NULL_NA",
    "gnaf_pid": "GAQLD155178235",
    "tech_change_status": "Not Planned",
    "program_type": "Fixed Wireless and Satellite Upgrade Program",
    "target_eligibility_quarter": "NA"
   }
  },
  {
   "type": "Feature",
   "geometry": {
    "type": "Point",
    "coordinates": [
     146.22856428,
     -20.06713176
    ]
   },
   "properties": {
    "name": "LOT 1 GREAT BRITAIN ROAD SOUTHERN CROSS 4820",
    "locID": "LOC000129573669",
    "tech": "WIRELESS",
    "upgrade": "NULL_NA",
    "gnaf_pid": "GAQLD156084498",
    "tech_change_status": "Not Planned",
    "program_type": "Fixed Wireless and Satellite Upgrade Program",
    "target_eligibility_quarter": "NA"
   }
  },
  {
   "type": "Feature",
   "geometry": {
    "type": "Point",
    "coordinates": [
     146.21610127,
     -20.08411363
    ]
   },
   "properties": {
    "name": "LOT 3 BACK CREEK ROAD SOUTHERN CROSS 4820",
    "locID": "LOC000129562062",
    "tech": "WIRELESS",
    "upgrade": "NULL_NA",
    "gnaf_pid": "GAQLD161055777",
    "tech_change_status": "Not Planned",
    "program_type": "Fixed Wireless and Satellite Upgrade Program",
    "target_eligibility_quarter": "NA"
   }
  },
  {
   "type": "Feature",
   "geometry": {
    "type": "Point",
    "coordinates": [
     146.21610127,
     -20.08411363
    ]
   },
   "properties": {
    "name": "LOT 4 BACK CREEK ROAD SOUTHERN CROSS 4820",
    "locID": "LOC000129612574",
    "tech": "WIRELESS",
    "upgrade": "NULL_NA",
    "gnaf_pid": "GAQLD161055778",
    "tech_change_status": "Not Planned",
    "program_type": "Fixed Wireless and Satellite Upgrade Program",
    "target_eligibility_quarter": "NA"
   }
  },
  {
   "type": "Feature",
   "geometry": {
    "type": "Point",
    "coordinates": [
     146.18388032,
     -20.05518859
    ]
   },
   "properties": {
    "name": "LOT 115 BARKLA ROAD SOUTHERN CROSS 4820",
    "locID": "LOC000129599058",
    "tech": "WIRELESS",
    "upgrade": "NULL_NA",
    "gnaf_pid": "GAQLD161058897",
    "tech_change_status": "Not Planned",
    "program_type": "Fixed Wireless and Satellite Upgrade Program",
    "target_eligibility_quarter": "NA"
   }
  },
  {
   "type": "Feature",
   "geometry": {
    "type": "Point",
    "coordinates": [
     146.19394326,
     -20.04616289
    ]
   },
   "properties": {
    "name": "LOT 1 BARKLA ROAD SOUTHERN CROSS 4820",
    "locID": "LOC000129558196",
    "tech": "WIRELESS",
    "upgrade": "NULL_NA",
    "gnaf_pid": "GAQLD161058898",
    "tech_change_status": "Not Planned"
   }
  },
  {
   "type": "Feature",
   "geometry": {
    "type": "Point",
    "coordinates": [
     146.18388032,
     -20.05518859
    ]
   },
   "properties": {
    "name": "LOT 3 BARKLA ROAD SOUTHERN CROSS 4820",
    "locID": "LOC000129573816",
    "tech": "WIRELESS",
    "upgrade": "NULL_NA",
    "gnaf_pid": "GAQLD161058899",
    "tech_change_status": "Not Planned",
    "program_type": "Fixed Wireless and Satellite Upgrade Program",
    "target_eligibility_quarter": "NA"
   }
  },
  {
   "type": "Feature",
   "geometry": {
    "type": "Point",
    "coordinates": [
     146.18388032,
     -20.05518859
    ]
   },
   "properties": {
    "name": "LOT 4 BARKLA ROAD SOUTHERN CROSS 4820",
    "locID": "LOC000178478817",
    "tech": "SATELLITE",
    "upgrade": "NULL_NA",
    "gnaf_pid": "GAQLD161058900",
    "tech_change_status": "Not Planned"
   }
  },
  {
   "type": "Feature",
   "geometry": {
    "type": "Point",
    "coordinates": [
     146.24345141,
     -20.07981993
    ]
   },
   "properties": {
    "name": "LOT 2 BEVAN STREET SOUTHERN CROSS 4820",
    "locID": "LOC000129596197",
    "tech": "WIRELESS",
    "upgrade": "NULL_NA",
    "gnaf_pid": "GAQLD161066787",
    "tech_change_status": "Not Planned",
    "program_type": "Fixed Wireless and Satellite Upgrade Program",
    "target_eligibility_quarter": "NA"
   }
  },
  {
   "type": "Feature",
   "geometry": {
    "type": "Point",
    "coordinates": [
     146.23720588,
     -20.09531403
    ]
   },
   "properties": {
    "name": "LOT 1 BLACK JACK ROAD SOUTHERN CROSS 4820",
    "locID": "LOC000129580989",
    "tech": "WIRELESS",
    "upgrade": "NULL_NA",
    "gnaf_pid": "GAQLD161068857",
    "tech_change_status": "Not Planned",
    "program_type": "Fixed Wireless and Satellite Upgrade Program",
    "target_eligibility_quarter": "NA"
   }
  },
  {
   "type": "Feature",
   "geometry": {
    "type": "Point",
    "coordinates": [
     146.23720588,
     -20.09531403
    ]
   },
   "properties": {
    "name": "LOT 2 BLACK JACK ROAD SOUTHERN CROSS 4820",
    "locID": "LOC000129602225",
    "tech": "WIRELESS",
    "upgrade": "NULL_NA",
    "gnaf_pid": "GAQLD161068858",
    "tech_change_status": "Not Planned",
    "program_type": "Fixed Wireless and Satellite Upgrade Program",
    "target_eligibility_quarter": "NA"
   }
  },
  {
   "type": "Feature",
   "geometry": {
    "type": "Point",
    "coordinates": [
     146.23903302,
     -20.08041387
    ]
   },
   "properties": {
    "name": "LOT 1 DUMAN ROAD SOUTHERN CROSS 4820",
    "locID": "LOC000129557555",
    "tech": "WIRELESS",
    "upgrade": "NULL_NA",
    "gnaf_pid": "GAQLD161131832",
    "tech_change_status": "Not Planned",
    "program_type": "Fixed Wireless and Satellite Upgrade Program",
    "target_eligibility_quarter": "NA"
   }
  },
  {
   "type": "Feature",
   "geometry": {
    "type": "Point",
    "coordinates": [
     146.23649757,
     -20.08014856
    ]
   },
   "properties": {
    "name": "LOT 2 DUMAN ROAD SOUTHERN CROSS 4820",
    "locID": "LOC000129599155",
    "tech": "WIRELESS",
    "upgrade": "NULL_NA",
    "gnaf_pid": "GAQLD161131834",
    "tech_change_status": "Not Planned",
    "program_type": "Fixed Wireless and Satellite Upgrade Program",
    "target_eligibility_quarter": "NA"
   }
  },
  {
   "type": "Feature",
   "geometry": {
    "type": "Point",
    "coordinates": [
     146.23649757,
     -20.08014856
    ]
   },
   "properties": {
    "name": "LOT 3 DUMAN ROAD SOUTHERN CROSS 4820",
    "locID": "LOC000129602294",
    "tech": "WIRELESS",
    "upgrade": "NULL_NA",
    "gnaf_pid": "GAQLD161131837",
    "tech_change_status": "Not Planned",
    "program_type": "Fixed Wireless and Satellite Upgrade Program",
    "target_eligibility_quarter": "NA"
   }
  },
  {
   "type": "Feature",
   "geometry": {
    "type": "Point",
    "coordinates": [
     146.23649757,
     -20.08014856
    ]
   },
   "properties": {
    "name": "LOT 4 DUMAN ROAD SOUTHERN CROSS 4820",
    "locID": "LOC000129605291",
    "tech": "WIRELESS",
    "upgrade": "NULL_NA",
    "gnaf_pid": "GAQLD161131838",
    "tech_change_status": "Not Planned",
    "program_type": "Fixed Wireless and Satellite Upgrade Program",
    "target_eligibility_quarter": "NA"
   }
  },
  {
   "type": "Feature",
   "geometry": {
    "type": "Point",
    "coordinates": [
     146.14582936,
     -20.09086487
    ]
   },
   "properties": {
    "name": "LOT 1 FEATHERBY ROAD SOUTHERN CROSS 4820",
    "locID": "LOC000129587892",
    "tech": "WIRELESS",
    "upgrade": "NULL_NA",
    "gnaf_pid": "GAQLD161145989",
    "tech_change_status": "Not Planned",
    "program_type": "Fixed Wireless and Satellite Upgrade Program",
    "target_eligibility_quarter": "NA"
   }
  },
  {
   "type": "Feature",
   "geometry": {
    "type": "Point",
    "coordinates": [
     146.23978923,
     -20.08930951
    ]
   },
   "properties": {
    "name": "LOT 2 LOUISA ROAD SOUTHERN CROSS 4820",
    "locID": "LOC100078005570",
    "tech": "WIRELESS",
    "upgrade": "NULL_NA",
    "gnaf_pid": "GAQLD161217268",
    "tech_change_status": "Not Planned",
    "program_type": "Fixed Wireless and Satellite Upgrade Program",
    "target_eligibility_quarter": "NA"
   }
  },
  {
   "type": "Feature",
   "geometry": {
    "type": "Point",
    "coordinates": [
     146.23359765,
     -20.0831365
    ]
   },
   "properties": {
    "name": "LOT 1 NEYLONS ROAD SOUTHERN CROSS 4820",
    "locID": "LOC000129558108",
    "tech": "WIRELESS",
    "upgrade": "NULL_NA",
    "gnaf_pid": "GAQLD161255661",
    "tech_change_status": "Not Planned",
    "program_type": "Fixed Wireless and Satellite Upgrade Program",
    "target_eligibility_quarter": "NA"
   }
  },
  {
   "type": "Feature",
   "geometry": {
    "type": "Point",
    "coordinates": [
     146.23359765,
     -20.0831365
    ]
   },
   "properties": {
    "name": "LOT 3 NEYLONS ROAD SOUTHERN CROSS 4820",
    "locID": "LOC000129602583",
    "tech": "WIRELESS",
    "upgrade": "NULL_NA",
    "gnaf_pid": "GAQLD161255663",
    "tech_change_status": "Not Planned",
    "program_type": "Fixed Wireless and Satellite Upgrade Program",
    "target_eligibility_quarter": "NA"
   }
  },
  {
   "type": "Feature",
   "geometry": {
    "type": "Point",
    "coordinates": [
     146.22901647,
     -20.073537
    ]
   },
   "properties": {
    "name": "LOT 1 SANDY CREEK ROAD SOUTHERN CROSS 4820",
    "locID": "LOC000129573567",
    "tech": "WIRELESS",
    "upgrade": "NULL_NA",
    "gnaf_pid": "GAQLD161301158",
    "tech_change_status": "Not Planned",
    "program_type": "Fixed Wireless and Satellite Upgrade Program",
    "target_eligibility_quarter": "NA"
   }
  },
  {
   "type": "Feature",
   "geometry": {
    "type": "Point",
    "coordinates": [
     146.21855012,
     -20.07215254
    ]
   },
   "properties": {
    "name": "LOT 2 SANDY CREEK ROAD SOUTHERN CROSS 4820",
    "locID": "LOC000129588352",
    "tech": "WIRELESS",
    "upgrade": "NULL_NA",
    "gnaf_pid": "GAQLD161301159",
    "tech_change_status": "Not Planned",
    "program_type": "Fixed Wireless and Satellite Upgrade Program",
    "target_eligibility_quarter": "NA"
   }
  },
  {
   "type": "Feature",
   "geometry": {
    "type": "Point",
    "coordinates": [
     146.22776546,
     -20.0715749
    ]
   },
   "properties": {
    "name": "LOT 3 SANDY CREEK ROAD SOUTHERN CROSS 4820",
    "locID": "LOC100078005515",
    "tech": "WIRELESS",
    "upgrade": "NULL_NA",
    "gnaf_pid": "GAQLD161301160",
    "tech_change_status": "Not Planned",
    "program_type": "Fixed Wireless and Satellite Upgrade Program",
    "target_eligibility_quarter": "NA"
   }
  },
  {
   "type": "Feature",
   "geometry": {
    "type": "Point",
    "coordinates": [
     146.2008644,
     -20.07339101
    ]
   },
   "properties": {
    "name": "LOT 40 SANDY CREEK ROAD SOUTHERN CROSS 4820",
    "locID": "LOC000158345526",
    "tech": "WIRELESS",
    "upgrade": "NULL_NA",
    "gnaf_pid": "GAQLD161301161",
    "tech_change_status": "Not Planned",
    "program_type": "Fixed Wireless and Satellite Upgrade Program",
    "target_eligibility_quarter": "NA"
   }
  },
  {
   "type": "Feature",
   "geometry": {
    "type": "Point",
    "coordinates": [
     146.23846098,
     -20.0708389
    ]
   },
   "properties": {
    "name": "LOT 7 SCRUBBY CREEK ROAD SOUTHERN CROSS 4820",
    "locID": "LOC000129557950",
    "tech": "WIRELESS",
    "upgrade": "NULL_NA",
    "gnaf_pid": "GAQLD161303879",
    "tech_change_status": "Not Planned",
    "program_type": "Fixed Wireless and Satellite Upgrade Program",
    "target_eligibility_quarter": "NA"
   }
  },
  {
   "type": "Feature",
   "geometry": {
    "type": "Point",
    "coordinates": [
     146.23846098,
     -20.0708389
    ]
   },
   "properties": {
    "name": "LOT 8 SCRUBBY CREEK ROAD SOUTHERN CROSS 4820",
    "locID": "LOC000129573788",
    "tech": "WIRELESS",
    "upgrade": "NULL_NA",
    "gnaf_pid": "GAQLD161303881",
    "tech_change_status": "Not Planned",
    "program_type": "Fixed Wireless and Satellite Upgrade Program",
    "target_eligibility_quarter": "NA"
   }
  },
  {
   "type": "Feature",
   "geometry": {
    "type": "Point",
    "coordinates": [
     146.23031291,
     -20.09540746
    ]
   },
   "properties": {
    "name": "LOT 1 WELLINGTON ROAD SOUTHERN CROSS 4820",
    "locID": "LOC000129570078",
    "tech": "WIRELESS",
    "upgrade": "NULL_NA",
    "gnaf_pid": "GAQLD161350206",
    "tech_change_status": "Not Planned",
    "program_type": "Fixed Wireless and Satellite Upgrade Program",
    "target_eligibility_quarter": "NA"
   }
  },
  {
   "type": "Feature",
   "geometry": {
    "type": "Point",
    "coordinates": [
     146.22764709,
     -20.08512715
    ]
   },
   "properties": {
    "name": "LOT 5 WELLINGTON ROAD SOUTHERN CROSS 4820",
    "locID": "LOC000129599313",
    "tech": "WIRELESS",
    "upgrade": "NULL_NA",
    "gnaf_pid": "GAQLD161350209",
    "tech_change_status": "Not Planned",
    "program_type": "Fixed Wireless and Satellite Upgrade Program",
    "target_eligibility_quarter": "NA"
   }
  },
  {
   "type": "Feature",
   "geometry": {
    "type": "Point",
    "coordinates": [
     146.22764709,
     -20.08512715
    ]
   },
   "properties": {
    "name": "LOT 60 WELLINGTON ROAD SOUTHERN CROSS 4820",
    "locID": "LOC000129578087",
    "tech": "WIRELESS",
    "upgrade": "NULL_NA",
    "gnaf_pid": "GAQLD161350210",
    "tech_change_status": "Not Planned",
    "program_type": "Fixed Wireless and Satellite Upgrade Program",
    "target_eligibility_quarter": "NA"
   }
  },
  {
   "type": "Feature",
   "geometry": {
    "type": "Point",
    "coordinates": [
     146.22764709,
     -20.08512715
    ]
   },
   "properties": {
    "name": "LOT 8 WELLINGTON ROAD SOUTHERN CROSS 4820",
    "locID": "LOC000129602614",
    "tech": "WIRELESS",
    "upgrade": "NULL_NA",
    "gnaf_pid": "GAQLD161350212",
    "tech_change_status": "Not Planned",
    "program_type": "Fixed Wireless and Satellite Upgrade Program",
    "target_eligibility_quarter": "NA"
   }
  },
  {
   "type": "Feature",
   "geometry": {
    "type": "Point",
    "coordinates": [
     146.17348504,
     -20.08498955
    ]
   },
   "properties": {
    "name": "LOT 1545 BARKLA ROAD SOUTHERN CROSS 4820",
    "locID": "LOC000178478817",
    "tech": "SATELLITE",
    "upgrade": "NULL_NA",
    "gnaf_pid": "GAQLD162120148",
    "tech_change_status": "Not Planned"
   }
  },
  {
   "type": "Feature",
   "geometry": {
    "type": "Point",
    "coordinates": [
     146.196293,
     -20.04900184
    ]
   },
   "properties": {
    "name": "LOT 2 BARKLA ROAD SOUTHERN CROSS 4820",
    "locID": "LOC000129599058",
    "tech": "WIRELESS",
    "upgrade": "NULL_NA",
    "gnaf_pid": "GAQLD162120150",
    "tech_change_status": "Not Planned",
    "program_type": "Fixed Wireless and Satellite Upgrade Program",
    "target_eligibility_quarter": "NA"
   }
  },
  {
   "type": "Feature",
   "geometry": {
    "type": "Point",
    "coordinates": [
     146.14241382,
     -20.07525643
    ]
   },
   "properties": {
    "name": "LOT 9810 BARKLA ROAD SOUTHERN CROSS 4820",
    "locID": "LOC000178478817",
    "tech": "SATELLITE",
    "upgrade": "NULL_NA",
    "gnaf_pid": "GAQLD162120166",
    "tech_change_status": "Not Planned"
   }
  },
  {
   "type": "Feature",
   "geometry": {
    "type": "Point",
    "coordinates": [
     146.24345141,
     -20.07981993
    ]
   },
   "properties": {
    "name": "LOT 1 BEVAN STREET SOUTHERN CROSS 4820",
    "locID": "LOC000129596178",
    "tech": "WIRELESS",
    "upgrade": "NULL_NA",
    "gnaf_pid": "GAQLD162122819",
    "tech_change_status": "Not Planned",
    "program_type": "Fixed Wireless and Satellite Upgrade Program",
    "target_eligibility_quarter": "NA"
   }
  },
  {
   "type": "Feature",
   "geometry": {
    "type": "Point",
    "coordinates": [
     146.21426604,
     -20.05723296
    ]
   },
   "properties": {
    "name": "LOT 79 GREAT BRITAIN ROAD SOUTHERN CROSS 4820",
    "locID": "LOC000129558385",
    "tech": "SATELLITE",
    "upgrade": "NULL_NA",
    "gnaf_pid": "GAQLD162150293",
    "tech_change_status": "Not Planned"
   }
  },
  {
   "type": "Feature",
   "geometry": {
    "type": "Point",
    "coordinates": [
     146.22229404,
     -20.07964098
    ]
   },
   "properties": {
    "name": "LOT 10 LEAKE ROAD SOUTHERN CROSS 4820",
    "locID": "LOC000129588443",
    "tech": "WIRELESS",
    "upgrade": "NULL_NA",
    "gnaf_pid": "GAQLD162163562",
    "tech_change_status": "Not Planned",
    "program_type": "Fixed Wireless and Satellite Upgrade Program",
    "target_eligibility_quarter": "NA"
   }
  },
  {
   "type": "Feature",
   "geometry": {
    "type": "Point",
    "coordinates": [
     146.22229404,
     -20.07964098
    ]
   },
   "properties": {
    "name": "LOT 8 LEAKE ROAD SOUTHERN CROSS 4820",
    "locID": "LOC000129557932",
    "tech": "WIRELESS",
    "upgrade": "NULL_NA",
    "gnaf_pid": "GAQLD162163565",
    "tech_change_status": "Not Planned",
    "program_type": "Fixed Wireless and Satellite Upgrade Program",
    "target_eligibility_quarter": "NA"
   }
  },
  {
   "type": "Feature",
   "geometry": {
    "type": "Point",
    "coordinates": [
     146.22229404,
     -20.07964098
    ]
   },
   "properties": {
    "name": "LOT 9 LEAKE ROAD SOUTHERN CROSS 4820",
    "locID": "LOC000129561774",
    "tech": "WIRELESS",
    "upgrade": "NULL_NA",
    "gnaf_pid": "GAQLD162163566",
    "tech_change_status": "Not Planned",
    "program_type": "Fixed Wireless and Satellite Upgrade Program",
    "target_eligibility_quarter": "NA"
   }
  },
  {
   "type": "Feature",
   "geometry": {
    "type": "Point",
    "coordinates": [
     146.23038759,
     -19.96961626
    ]
   },
   "properties": {
    "name": "LOT 54 LYND HIGHWAY SOUTHERN CROSS 4820",
    "locID": "LOC000129490574",
    "tech": "WIRELESS",
    "upgrade": "NULL_NA",
    "gnaf_pid": "GAQLD162167228",
    "tech_change_status": "Not Planned",
    "program_type": "Fixed Wireless and Satellite Upgrade Program",
    "target_eligibility_quarter": "NA"
   }
  },
  {
   "type": "Feature",
   "geometry": {
    "type": "Point",
    "coordinates": [
     146.152638,
     -19.96372701
    ]
   },
   "properties": {
    "name": "LOT 63 PERCY SPRINGS ROAD SOUTHERN CROSS 4820",
    "locID": "LOC000129595407",
    "tech": "NULL",
    "upgrade": "NULL_NA",
    "gnaf_pid": "GAQLD162184694",
    "tech_change_status": "Not Planned"
   }
  },
  {
   "type": "Feature",
   "geometry": {
    "type": "Point",
    "coordinates": [
     146.21855012,
     -20.07215254
    ]
   },
   "properties": {
    "name": "LOT 10 SANDY CREEK ROAD SOUTHERN CROSS 4820",
    "locID": "LOC000129611874",
    "tech": "WIRELESS",
    "upgrade": "NULL_NA",
    "gnaf_pid": "GAQLD162193291",
    "tech_change_status": "Not Planned",
    "program_type": "Fixed Wireless and Satellite Upgrade Program",
    "target_eligibility_quarter": "NA"
   }
  },
  {
   "type": "Feature",
   "geometry": {
    "type": "Point",
    "coordinates": [
     146.21855012,
     -20.07215254
    ]
   },
   "properties": {
    "name": "LOT 47 SANDY CREEK ROAD SOUTHERN CROSS 4820",
    "locID": "LOC000129605010",
    "tech": "WIRELESS",
    "upgrade": "NULL_NA",
    "gnaf_pid": "GAQLD162193292",
    "tech_change_status": "Not Planned",
    "program_type": "Fixed Wireless and Satellite Upgrade Program",
    "target_eligibility_quarter": "NA"
   }
  },
  {
   "type": "Feature",
   "geometry": {
    "type": "Point",
    "coordinates": [
     146.21855012,
     -20.07215254
    ]
   },
   "properties": {
    "name": "LOT 7 SANDY CREEK ROAD SOUTHERN CROSS 4820",
    "locID": "LOC000129566126",
    "tech": "WIRELESS",
    "upgrade": "NULL_NA",
    "gnaf_pid": "GAQLD162193293",
    "tech_change_status": "Not Planned",
    "program_type": "Fixed Wireless and Satellite Upgrade Program",
    "target_eligibility_quarter": "NA"
   }
  },
  {
   "type": "Feature",
   "geometry": {
    "type": "Point",
    "coordinates": [
     146.21855012,
     -20.07215254
    ]
   },
   "properties": {
    "name": "LOT 9 SANDY CREEK ROAD SOUTHERN CROSS 4820",
    "locID": "LOC000129585383",
    "tech": "WIRELESS",
    "upgrade": "NULL_NA",
    "gnaf_pid": "GAQLD162193295",
    "tech_change_status": "Not Planned",
    "program_type": "Fixed Wireless and Satellite Upgrade Program",
    "target_eligibility_quarter": "NA"
   }
  },
  {
   "type": "Feature",
   "geometry": {
    "type": "Point",
    "coordinates": [
     146.22223948,
     -20.01830778
    ]
   },
   "properties": {
    "name": "LOT 10 URDERA ROAD SOUTHERN CROSS 4820",
    "locID": "LOC000129573863",
    "tech": "WIRELESS",
    "upgrade": "NULL_NA",
    "gnaf_pid": "GAQLD162202617",
    "tech_change_status": "Not Planned",
    "program_type": "Fixed Wireless and Satellite Upgrade Program",
    "target_eligibility_quarter": "NA"
   }
  },
  {
   "type": "Feature",
   "geometry": {
    "type": "Point",
    "coordinates": [
     146.202838,
     -20.00847921
    ]
   },
   "properties": {
    "name": "LOT 1 URDERA ROAD SOUTHERN CROSS 4820",
    "locID": "LOC000129591663",
    "tech": "WIRELESS",
    "upgrade": "NULL_NA",
    "gnaf_pid": "GAQLD162202621",
    "tech_change_status": "Not Planned",
    "program_type": "Fixed Wireless and Satellite Upgrade Program",
    "target_eligibility_quarter": "NA"
   }
  },
  {
   "type": "Feature",
   "geometry": {
    "type": "Point",
    "coordinates": [
     146.22764709,
     -20.08512715
    ]
   },
   "properties": {
    "name": "LOT 4 WELLINGTON ROAD SOUTHERN CROSS 4820",
    "locID": "LOC000111645930",
    "tech": "WIRELESS",
    "upgrade": "NULL_NA",
    "gnaf_pid": "GAQLD162206099",
    "tech_change_status": "Not Planned",
    "program_type": "Fixed Wireless and Satellite Upgrade Program",
    "target_eligibility_quarter": "NA"
   }
  },
  {
   "type": "Feature",
   "geometry": {
    "type": "Point",
    "coordinates": [
     146.22764709,
     -20.08512715
    ]
   },
   "properties": {
    "name": "LOT 12 WELLINGTON ROAD SOUTHERN CROSS 4820",
    "locID": "LOC000129565638",
    "tech": "WIRELESS",
    "upgrade": "NULL_NA",
    "gnaf_pid": "GAQLD162238604",
    "tech_change_status": "Not Planned",
    "program_type": "Fixed Wireless and Satellite Upgrade Program",
    "target_eligibility_quarter": "NA"
   }
  },
  {
   "type": "Feature",
   "geometry": {
    "type": "Point",
    "coordinates": [
     146.23309256,
     -20.08953595
    ]
   },
   "properties": {
    "name": "UNIT 3, 1 LOUISA ROAD SOUTHERN CROSS 4820",
    "locID": "LOC000129565910",
    "tech": "WIRELESS",
    "upgrade": "NULL_NA",
    "gnaf_pid": "GAQLD162735762",
    "tech_change_status": "Not Planned",
    "program_type": "Fixed Wireless and Satellite Upgrade Program",
    "target_eligibility_quarter": "NA"
   }
  },
  {
   "type": "Feature",
   "geometry": {
    "type": "Point",
    "coordinates": [
     146.23309256,
     -20.08953595
    ]
   },
   "properties": {
    "name": "UNIT 4, 1 LOUISA ROAD SOUTHERN CROSS 4820",
    "locID": "LOC000129565910",
    "tech": "WIRELESS",
    "upgrade": "NULL_NA",
    "gnaf_pid": "GAQLD162735763",
    "tech_change_status": "Not Planned",
    "program_type": "Fixed Wireless and Satellite Upgrade Program",
    "target_eligibility_quarter": "NA"
   }
  },
  {
   "type": "Feature",
   "geometry": {
    "type": "Point",
    "coordinates": [
     146.23309256,
     -20.08953595
    ]
   },
   "properties": {
    "name": "1 LOUISA ROAD SOUTHERN CROSS 4820",
    "locID": "LOC000129565910",
    "tech": "WIRELESS",
    "upgrade": "NULL_NA",
    "gnaf_pid": "GAQLD162735765",
    "tech_change_status": "Not Planned",
    "program_type": "Fixed Wireless and Satellite Upgrade Program",
    "target_eligibility_quarter": "NA"
   }
  },
  {
   "type": "Feature",
   "geometry": {
    "type": "Point",
    "coordinates": [
     146.23309256,
     -20.08953595
    ]
   },
   "properties": {
    "name": "5 LOUISA ROAD SOUTHERN CROSS 4820",
    "locID": "LOC000113996582",
    "tech": "WIRELESS",
    "upgrade": "NULL_NA",
    "gnaf_pid": "GAQLD162735766",
    "tech_change_status": "Not Planned",
    "program_type": "Fixed Wireless and Satellite Upgrade Program",
    "target_eligibility_quarter": "NA"
   }
  },
  {
   "type": "Feature",
   "geometry": {
    "type": "Point",
    "coordinates": [
     146.23309256,
     -20.08953595
    ]
   },
   "properties": {
    "name": "LOT 6 LOUISA ROAD SOUTHERN CROSS 4820",
    "locID": "LOC000129570050",
    "tech": "WIRELESS",
    "upgrade": "NULL_NA",
    "gnaf_pid": "GAQLD162735768",
    "tech_change_status": "Not Planned",
    "program_type": "Fixed Wireless and Satellite Upgrade Program",
    "target_eligibility_quarter": "NA"
   }
  },
  {
   "type": "Feature",
   "geometry": {
    "type": "Point",
    "coordinates": [
     146.23359765,
     -20.0831365
    ]
   },
   "properties": {
    "name": "1 NEYLONS ROAD SOUTHERN CROSS 4820",
    "locID": "LOC000129558108",
    "tech": "WIRELESS",
    "upgrade": "NULL_NA",
    "gnaf_pid": "GAQLD162736511",
    "tech_change_status": "Not Planned",
    "program_type": "Fixed Wireless and Satellite Upgrade Program",
    "target_eligibility_quarter": "NA"
   }
  },
  {
   "type": "Feature",
   "geometry": {
    "type": "Point",
    "coordinates": [
     146.21855012,
     -20.07215254
    ]
   },
   "properties": {
    "name": "2 SANDY CREEK ROAD SOUTHERN CROSS 4820",
    "locID": "LOC000110730534",
    "tech": "WIRELESS",
    "upgrade": "NULL_NA",
    "gnaf_pid": "GAQLD162737058",
    "tech_change_status": "Not Planned",
    "program_type": "Fixed Wireless and Satellite Upgrade Program",
    "target_eligibility_quarter": "NA"
   }
  },
  {
   "type": "Feature",
   "geometry": {
    "type": "Point",
    "coordinates": [
     146.21855012,
     -20.07215254
    ]
   },
   "properties": {
    "name": "LOT 5 SANDY CREEK ROAD SOUTHERN CROSS 4820",
    "locID": "LOC000129611874",
    "tech": "WIRELESS",
    "upgrade": "NULL_NA",
    "gnaf_pid": "GAQLD162737059",
    "tech_change_status": "Not Planned",
    "program_type": "Fixed Wireless and Satellite Upgrade Program",
    "target_eligibility_quarter": "NA"
   }
  },
  {
   "type": "Feature",
   "geometry": {
    "type": "Point",
    "coordinates": [
     146.22764709,
     -20.08512715
    ]
   },
   "properties": {
    "name": "UNIT 2, 1 WELLINGTON ROAD SOUTHERN CROSS 4820",
    "locID": "LOC000158376678",
    "tech": "WIRELESS",
    "upgrade": "NULL_NA",
    "gnaf_pid": "GAQLD162737547",
    "tech_change_status": "Not Planned",
    "program_type": "Fixed Wireless and Satellite Upgrade Program",
    "target_eligibility_quarter": "NA"
   }
  },
  {
   "type": "Feature",
   "geometry": {
    "type": "Point",
    "coordinates": [
     146.22764709,
     -20.08512715
    ]
   },
   "properties": {
    "name": "UNIT 3, 1 WELLINGTON ROAD SOUTHERN CROSS 4820",
    "locID": "LOC000129570078",
    "tech": "WIRELESS",
    "upgrade": "NULL_NA",
    "gnaf_pid": "GAQLD162737548",
    "tech_change_status": "Not Planned",
    "program_type": "Fixed Wireless and Satellite Upgrade Program",
    "target_eligibility_quarter": "NA"
   }
  },
  {
   "type": "Feature",
   "geometry": {
    "type": "Point",
    "coordinates": [
     146.17505004,
     -19.95467567
    ]
   },
   "properties": {
    "name": "LOT 1 PERCY SPRINGS ROAD SOUTHERN CROSS 4820",
    "locID": "LOC000129561624",
    "tech": "SATELLITE",
    "upgrade": "NULL_NA",
    "gnaf_pid": "GAQLD162863396",
    "tech_change_status": "Not Planned"
   }
  },
  {
   "type": "Feature",
   "geometry": {
    "type": "Point",
    "coordinates": [
     146.22764709,
     -20.08512715
    ]
   },
   "properties": {
    "name": "1 WELLINGTON ROAD SOUTHERN CROSS 4820",
    "locID": "LOC000129570078",
    "tech": "WIRELESS",
    "upgrade": "NULL_NA",
    "gnaf_pid": "GAQLD162998578",
    "tech_change_status": "Not Planned",
    "program_type": "Fixed Wireless and Satellite Upgrade Program",
    "target_eligibility_quarter": "NA"
   }
  },
  {
   "type": "Feature",
   "geometry": {
    "type": "Point",
    "coordinates": [
     146.22512822,
     -20.07090971
    ]
   },
   "properties": {
    "name": "LOT 2 STEEL ROAD SOUTHERN CROSS 4820",
    "locID": "LOC100078005504",
    "tech": "WIRELESS",
    "upgrade": "NULL_NA",
    "gnaf_pid": "GAQLD163019205",
    "tech_change_status": "Not Planned",
    "program_type": "Fixed Wireless and Satellite Upgrade Program",
    "target_eligibility_quarter": "NA"
   }
  },
  {
   "type": "Feature",
   "geometry": {
    "type": "Point",
    "coordinates": [
     146.12179216,
     -20.0738973
    ]
   },
   "properties": {
    "name": "LOT 1 FLINDERS HIGHWAY SOUTHERN CROSS 4820",
    "locID": "LOC100078005493",
    "tech": "WIRELESS",
    "upgrade": "NULL_NA",
    "gnaf_pid": "GAQLD163104475",
    "tech_change_status": "Not Planned",
    "program_type": "Fixed Wireless and Satellite Upgrade Program",
    "target_eligibility_quarter": "NA"
   }
  },
  {
   "type": "Feature",
   "geometry": {
    "type": "Point",
    "coordinates": [
     146.23196688,
     -20.09736186
    ]
   },
   "properties": {
    "name": "LOT 1 MACKERETH ROAD SOUTHERN CROSS 4820",
    "locID": "LOC000129577961",
    "tech": "WIRELESS",
    "upgrade": "NULL_NA",
    "gnaf_pid": "GAQLD163168744",
    "tech_change_status": "Not Planned",
    "program_type": "Fixed Wireless and Satellite Upgrade Program",
    "target_eligibility_quarter": "NA"
   }
  },
  {
   "type": "Feature",
   "geometry": {
    "type": "Point",
    "coordinates": [
     146.23309256,
     -20.08953595
    ]
   },
   "properties": {
    "name": "UNIT 1, 1 LOUISA ROAD SOUTHERN CROSS 4820",
    "locID": "LOC000129565910",
    "tech": "WIRELESS",
    "upgrade": "NULL_NA",
    "gnaf_pid": "GAQLD163180240",
    "tech_change_status": "Not Planned",
    "program_type": "Fixed Wireless and Satellite Upgrade Program",
    "target_eligibility_quarter": "NA"
   }
  },
  {
   "type": "Feature",
   "geometry": {
    "type": "Point",
    "coordinates": [
     146.23309256,
     -20.08953595
    ]
   },
   "properties": {
    "name": "UNIT 2, 1 LOUISA ROAD SOUTHERN CROSS 4820",
    "locID": "LOC000129565910",
    "tech": "WIRELESS",
    "upgrade": "NULL_NA",
    "gnaf_pid": "GAQLD163180241",
    "tech_change_status": "Not Planned",
    "program_type": "Fixed Wireless and Satellite Upgrade Program",
    "target_eligibility_quarter": "NA"
   }
  },
  {
   "type": "Feature",
   "geometry": {
    "type": "Point",
    "coordinates": [
     146.2132789,
     -20.09706103
    ]
   },
   "properties": {
    "name": "351 BACK CREEK ROAD SOUTHERN CROSS 4820",
    "locID": "LOC000129577631",
    "tech": "WIRELESS",
    "upgrade": "NULL_NA",
    "gnaf_pid": "GAQLD163247882",
    "tech_change_status": "Not Planned",
    "program_type": "Fixed Wireless and Satellite Upgrade Program",
    "target_eligibility_quarter": "NA"
   }
  },
  {
   "type": "Feature",
   "geometry": {
    "type": "Point",
    "coordinates": [
     146.22024273,
     -20.08301447
    ]
   },
   "properties": {
    "name": "68 BACK CREEK ROAD SOUTHERN CROSS 4820",
    "locID": "LOC000129562062",
    "tech": "WIRELESS",
    "upgrade": "NULL_NA",
    "gnaf_pid": "GAQLD163247883",
    "tech_change_status": "Not Planned",
    "program_type": "Fixed Wireless and Satellite Upgrade Program",
    "target_eligibility_quarter": "NA"
   }
  },
  {
   "type": "Feature",
   "geometry": {
    "type": "Point",
    "coordinates": [
     146.19792287,
     -20.06211277
    ]
   },
   "properties": {
    "name": "203 BARKLA ROAD SOUTHERN CROSS 4820",
    "locID": "LOC000129599058",
    "tech": "WIRELESS",
    "upgrade": "NULL_NA",
    "gnaf_pid": "GAQLD163247933",
    "tech_change_status": "Not Planned",
    "program_type": "Fixed Wireless and Satellite Upgrade Program",
    "target_eligibility_quarter": "NA"
   }
  },
  {
   "type": "Feature",
   "geometry": {
    "type": "Point",
    "coordinates": [
     146.19270571,
     -20.0536644
    ]
   },
   "properties": {
    "name": "332 BARKLA ROAD SOUTHERN CROSS 4820",
    "locID": "LOC000129573816",
    "tech": "WIRELESS",
    "upgrade": "NULL_NA",
    "gnaf_pid": "GAQLD163247934",
    "tech_change_status": "Not Planned",
    "program_type": "Fixed Wireless and Satellite Upgrade Program",
    "target_eligibility_quarter": "NA"
   }
  },
  {
   "type": "Feature",
   "geometry": {
    "type": "Point",
    "coordinates": [
     146.22405813,
     -19.97213964
    ]
   },
   "properties": {
    "name": "35 BARNS ROAD SOUTHERN CROSS 4820",
    "locID": "LOC100079002757",
    "tech": "WIRELESS",
    "upgrade": "NULL_NA",
    "gnaf_pid": "GAQLD163247935",
    "tech_change_status": "Not Planned",
    "program_type": "Fixed Wireless and Satellite Upgrade Program",
    "target_eligibility_quarter": "NA"
   }
  },
  {
   "type": "Feature",
   "geometry": {
    "type": "Point",
    "coordinates": [
     146.23556946,
     -20.09352803
    ]
   },
   "properties": {
    "name": "192 BLACK JACK ROAD SOUTHERN CROSS 4820",
    "locID": "LOC000129595359",
    "tech": "WIRELESS",
    "upgrade": "NULL_NA",
    "gnaf_pid": "GAQLD163247972",
    "tech_change_status": "Not Planned",
    "program_type": "Fixed Wireless and Satellite Upgrade Program",
    "target_eligibility_quarter": "NA"
   }
  },
  {
   "type": "Feature",
   "geometry": {
    "type": "Point",
    "coordinates": [
     146.23537607,
     -20.09587778
    ]
   },
   "properties": {
    "name": "216 BLACK JACK ROAD SOUTHERN CROSS 4820",
    "locID": "LOC000129602225",
    "tech": "WIRELESS",
    "upgrade": "NULL_NA",
    "gnaf_pid": "GAQLD163247973",
    "tech_change_status": "Not Planned",
    "program_type": "Fixed Wireless and Satellite Upgrade Program",
    "target_eligibility_quarter": "NA"
   }
  },
  {
   "type": "Feature",
   "geometry": {
    "type": "Point",
    "coordinates": [
     146.23476799,
     -20.09812764
    ]
   },
   "properties": {
    "name": "234 BLACK JACK ROAD SOUTHERN CROSS 4820",
    "locID": "LOC000129608433",
    "tech": "WIRELESS",
    "upgrade": "NULL_NA",
    "gnaf_pid": "GAQLD163247975",
    "tech_change_status": "Not Planned",
    "program_type": "Fixed Wireless and Satellite Upgrade Program",
    "target_eligibility_quarter": "NA"
   }
  },
  {
   "type": "Feature",
   "geometry": {
    "type": "Point",
    "coordinates": [
     146.23413647,
     -20.09926183
    ]
   },
   "properties": {
    "name": "246 BLACK JACK ROAD SOUTHERN CROSS 4820",
    "locID": "LOC000129612060",
    "tech": "WIRELESS",
    "upgrade": "NULL_NA",
    "gnaf_pid": "GAQLD163247976",
    "tech_change_status": "Not Planned",
    "program_type": "Fixed Wireless and Satellite Upgrade Program",
    "target_eligibility_quarter": "NA"
   }
  },
  {
   "type": "Feature",
   "geometry": {
    "type": "Point",
    "coordinates": [
     146.24083021,
     -20.07883877
    ]
   },
   "properties": {
    "name": "9 FORBES STREET SOUTHERN CROSS 4820",
    "locID": "LOC000129581758",
    "tech": "WIRELESS",
    "upgrade": "NULL_NA",
    "gnaf_pid": "GAQLD163249535",
    "tech_change_status": "Not Planned",
    "program_type": "Fixed Wireless and Satellite Upgrade Program",
    "target_eligibility_quarter": "NA"
   }
  },
  {
   "type": "Feature",
   "geometry": {
    "type": "Point",
    "coordinates": [
     146.21838575,
     -20.06130111
    ]
   },
   "properties": {
    "name": "293 GREAT BRITAIN ROAD SOUTHERN CROSS 4820",
    "locID": "LOC000129561828",
    "tech": "WIRELESS",
    "upgrade": "NULL_NA",
    "gnaf_pid": "GAQLD163249684",
    "tech_change_status": "Not Planned",
    "program_type": "Fixed Wireless and Satellite Upgrade Program",
    "target_eligibility_quarter": "NA"
   }
  },
  {
   "type": "Feature",
   "geometry": {
    "type": "Point",
    "coordinates": [
     146.21461309,
     -20.05915261
    ]
   },
   "properties": {
    "name": "343 GREAT BRITAIN ROAD SOUTHERN CROSS 4820",
    "locID": "LOC000129573973",
    "tech": "WIRELESS",
    "upgrade": "NULL_NA",
    "gnaf_pid": "GAQLD163249685",
    "tech_change_status": "Not Planned",
    "program_type": "Fixed Wireless and Satellite Upgrade Program",
    "target_eligibility_quarter": "NA"
   }
  },
  {
   "type": "Feature",
   "geometry": {
    "type": "Point",
    "coordinates": [
     146.21088824,
     -20.05493569
    ]
   },
   "properties": {
    "name": "388 GREAT BRITAIN ROAD SOUTHERN CROSS 4820",
    "locID": "LOC000129581484",
    "tech": "WIRELESS",
    "upgrade": "NULL_NA",
    "gnaf_pid": "GAQLD163249686",
    "tech_change_status": "Not Planned",
    "program_type": "Fixed Wireless and Satellite Upgrade Program",
    "target_eligibility_quarter": "NA"
   }
  },
  {
   "type": "Feature",
   "geometry": {
    "type": "Point",
    "coordinates": [
     146.20295897,
     -20.05461495
    ]
   },
   "properties": {
    "name": "457 GREAT BRITAIN ROAD SOUTHERN CROSS 4820",
    "locID": "LOC000129591998",
    "tech": "WIRELESS",
    "upgrade": "NULL_NA",
    "gnaf_pid": "GAQLD163249687",
    "tech_change_status": "Not Planned",
    "program_type": "Fixed Wireless and Satellite Upgrade Program",
    "target_eligibility_quarter": "NA"
   }
  },
  {
   "type": "Feature",
   "geometry": {
    "type": "Point",
    "coordinates": [
     146.20030233,
     -20.05046511
    ]
   },
   "properties": {
    "name": "503 GREAT BRITAIN ROAD SOUTHERN CROSS 4820",
    "locID": "LOC000129599397",
    "tech": "WIRELESS",
    "upgrade": "NULL_NA",
    "gnaf_pid": "GAQLD163249688",
    "tech_change_status": "Not Planned"
   }
  },
  {
   "type": "Feature",
   "geometry": {
    "type": "Point",
    "coordinates": [
     146.20417322,
     -20.04969074
    ]
   },
   "properties": {
    "name": "536 GREAT BRITAIN ROAD SOUTHERN CROSS 4820",
    "locID": "LOC000129602554",
    "tech": "WIRELESS",
    "upgrade": "NULL_NA",
    "gnaf_pid": "GAQLD163249689",
    "tech_change_status": "Not Planned"
   }
  },
  {
   "type": "Feature",
   "geometry": {
    "type": "Point",
    "coordinates": [
     146.1998782,
     -20.04708859
    ]
   },
   "properties": {
    "name": "540 GREAT BRITAIN ROAD SOUTHERN CROSS 4820",
    "locID": "LOC000129605338",
    "tech": "WIRELESS",
    "upgrade": "NULL_NA",
    "gnaf_pid": "GAQLD163249690",
    "tech_change_status": "Not Planned"
   }
  },
  {
   "type": "Feature",
   "geometry": {
    "type": "Point",
    "coordinates": [
     146.18214419,
     -20.04025742
    ]
   },
   "properties": {
    "name": "650 GREAT BRITAIN ROAD SOUTHERN CROSS 4820",
    "locID": "LOC000129558385",
    "tech": "SATELLITE",
    "upgrade": "NULL_NA",
    "gnaf_pid": "GAQLD163249692",
    "tech_change_status": "Not Planned"
   }
  },
  {
   "type": "Feature",
   "geometry": {
    "type": "Point",
    "coordinates": [
     146.23930412,
     -20.08676425
    ]
   },
   "properties": {
    "name": "12 JOWETT STREET SOUTHERN CROSS 4820",
    "locID": "LOC000129565503",
    "tech": "WIRELESS",
    "upgrade": "NULL_NA",
    "gnaf_pid": "GAQLD163249916",
    "tech_change_status": "Not Planned",
    "program_type": "Fixed Wireless and Satellite Upgrade Program",
    "target_eligibility_quarter": "NA"
   }
  },
  {
   "type": "Feature",
   "geometry": {
    "type": "Point",
    "coordinates": [
     146.23077013,
     -20.09007535
    ]
   },
   "properties": {
    "name": "123 LOUISA ROAD SOUTHERN CROSS 4820",
    "locID": "LOC000086706360",
    "tech": "WIRELESS",
    "upgrade": "NULL_NA",
    "gnaf_pid": "GAQLD163250362",
    "tech_change_status": "Not Planned",
    "program_type": "Fixed Wireless and Satellite Upgrade Program",
    "target_eligibility_quarter": "NA"
   }
  },
  {
   "type": "Feature",
   "geometry": {
    "type": "Point",
    "coordinates": [
     146.24055221,
     -20.08939674
    ]
   },
   "properties": {
    "name": "13 LOUISA ROAD SOUTHERN CROSS 4820",
    "locID": "LOC000129569763",
    "tech": "WIRELESS",
    "upgrade": "NULL_NA",
    "gnaf_pid": "GAQLD163250363",
    "tech_change_status": "Not Planned",
    "program_type": "Fixed Wireless and Satellite Upgrade Program",
    "target_eligibility_quarter": "NA"
   }
  },
  {
   "type": "Feature",
   "geometry": {
    "type": "Point",
    "coordinates": [
     146.22942981,
     -20.0900635
    ]
   },
   "properties": {
    "name": "141 LOUISA ROAD SOUTHERN CROSS 4820",
    "locID": "LOC000041775938",
    "tech": "WIRELESS",
    "upgrade": "NULL_NA",
    "gnaf_pid": "GAQLD163250364",
    "tech_change_status": "Not Planned",
    "program_type": "Fixed Wireless and Satellite Upgrade Program",
    "target_eligibility_quarter": "NA"
   }
  },
  {
   "type": "Feature",
   "geometry": {
    "type": "Point",
    "coordinates": [
     146.24019705,
     -20.08933943
    ]
   },
   "properties": {
    "name": "19 LOUISA ROAD SOUTHERN CROSS 4820",
    "locID": "LOC000129591587",
    "tech": "WIRELESS",
    "upgrade": "NULL_NA",
    "gnaf_pid": "GAQLD163250367",
    "tech_change_status": "Not Planned",
    "program_type": "Fixed Wireless and Satellite Upgrade Program",
    "target_eligibility_quarter": "NA"
   }
  },
  {
   "type": "Feature",
   "geometry": {
    "type": "Point",
    "coordinates": [
     146.23910147,
     -20.08840431
    ]
   },
   "properties": {
    "name": "30 LOUISA ROAD SOUTHERN CROSS 4820",
    "locID": "LOC000129565910",
    "tech": "WIRELESS",
    "upgrade": "NULL_NA",
    "gnaf_pid": "GAQLD163250368",
    "tech_change_status": "Not Planned",
    "program_type": "Fixed Wireless and Satellite Upgrade Program",
    "target_eligibility_quarter": "NA"
   }
  },
  {
   "type": "Feature",
   "geometry": {
    "type": "Point",
    "coordinates": [
     146.23673772,
     -20.09048507
    ]
   },
   "properties": {
    "name": "57 LOUISA ROAD SOUTHERN CROSS 4820",
    "locID": "LOC000113996582",
    "tech": "WIRELESS",
    "upgrade": "NULL_NA",
    "gnaf_pid": "GAQLD163250369",
    "tech_change_status": "Not Planned",
    "program_type": "Fixed Wireless and Satellite Upgrade Program",
    "target_eligibility_quarter": "NA"
   }
  },
  {
   "type": "Feature",
   "geometry": {
    "type": "Point",
    "coordinates": [
     146.2354668,
     -20.09124839
    ]
   },
   "properties": {
    "name": "83 LOUISA ROAD SOUTHERN CROSS 4820",
    "locID": "LOC100078005570",
    "tech": "WIRELESS",
    "upgrade": "NULL_NA",
    "gnaf_pid": "GAQLD163250370",
    "tech_change_status": "Not Planned",
    "program_type": "Fixed Wireless and Satellite Upgrade Program",
    "target_eligibility_quarter": "NA"
   }
  },
  {
   "type": "Feature",
   "geometry": {
    "type": "Point",
    "coordinates": [
     146.23300774,
     -20.0903324
    ]
   },
   "properties": {
    "name": "85 LOUISA ROAD SOUTHERN CROSS 4820",
    "locID": "LOC000129581575",
    "tech": "WIRELESS",
    "upgrade": "NULL_NA",
    "gnaf_pid": "GAQLD163250371",
    "tech_change_status": "Not Planned",
    "program_type": "Fixed Wireless and Satellite Upgrade Program",
    "target_eligibility_quarter": "NA"
   }
  },
  {
   "type": "Feature",
   "geometry": {
    "type": "Point",
    "coordinates": [
     146.23283503,
     -20.0877827
    ]
   },
   "properties": {
    "name": "98 LOUISA ROAD SOUTHERN CROSS 4820",
    "locID": "LOC000129588539",
    "tech": "WIRELESS",
    "upgrade": "NULL_NA",
    "gnaf_pid": "GAQLD163250372",
    "tech_change_status": "Not Planned",
    "program_type": "Fixed Wireless and Satellite Upgrade Program",
    "target_eligibility_quarter": "NA"
   }
  },
  {
   "type": "Feature",
   "geometry": {
    "type": "Point",
    "coordinates": [
     146.24098187,
     -20.08909032
    ]
   },
   "properties": {
    "name": "9 LOUISA ROAD SOUTHERN CROSS 4820",
    "locID": "LOC000129581791",
    "tech": "WIRELESS",
    "upgrade": "NULL_NA",
    "gnaf_pid": "GAQLD163250373",
    "tech_change_status": "Not Planned",
    "program_type": "Fixed Wireless and Satellite Upgrade Program",
    "target_eligibility_quarter": "NA"
   }
  },
  {
   "type": "Feature",
   "geometry": {
    "type": "Point",
    "coordinates": [
     146.23139776,
     -20.0996558
    ]
   },
   "properties": {
    "name": "61 MACKERETH ROAD SOUTHERN CROSS 4820",
    "locID": "LOC000129612601",
    "tech": "WIRELESS",
    "upgrade": "NULL_NA",
    "gnaf_pid": "GAQLD163250378",
    "tech_change_status": "Not Planned",
    "program_type": "Fixed Wireless and Satellite Upgrade Program",
    "target_eligibility_quarter": "NA"
   }
  },
  {
   "type": "Feature",
   "geometry": {
    "type": "Point",
    "coordinates": [
     146.2295094,
     -20.08774259
    ]
   },
   "properties": {
    "name": "104 NEYLONS ROAD SOUTHERN CROSS 4820",
    "locID": "LOC000129557593",
    "tech": "WIRELESS",
    "upgrade": "NULL_NA",
    "gnaf_pid": "GAQLD163250674",
    "tech_change_status": "Not Planned",
    "program_type": "Fixed Wireless and Satellite Upgrade Program",
    "target_eligibility_quarter": "NA"
   }
  },
  {
   "type": "Feature",
   "geometry": {
    "type": "Point",
    "coordinates": [
     146.23499272,
     -20.0835822
    ]
   },
   "properties": {
    "name": "39 NEYLONS ROAD SOUTHERN CROSS 4820",
    "locID": "LOC000129581534",
    "tech": "WIRELESS",
    "upgrade": "NULL_NA",
    "gnaf_pid": "GAQLD163250675",
    "tech_change_status": "Not Planned",
    "program_type": "Fixed Wireless and Satellite Upgrade Program",
    "target_eligibility_quarter": "NA"
   }
  },
  {
   "type": "Feature",
   "geometry": {
    "type": "Point",
    "coordinates": [
     146.23132528,
     -20.08294376
    ]
   },
   "properties": {
    "name": "54 NEYLONS ROAD SOUTHERN CROSS 4820",
    "locID": "LOC000129602583",
    "tech": "WIRELESS",
    "upgrade": "NULL_NA",
    "gnaf_pid": "GAQLD163250676",
    "tech_change_status": "Not Planned",
    "program_type": "Fixed Wireless and Satellite Upgrade Program",
    "target_eligibility_quarter": "NA"
   }
  },
  {
   "type": "Feature",
   "geometry": {
    "type": "Point",
    "coordinates": [
     146.23050682,
     -20.08438908
    ]
   },
   "properties": {
    "name": "74 NEYLONS ROAD SOUTHERN CROSS 4820",
    "locID": "LOC000129570406",
    "tech": "WIRELESS",
    "upgrade": "NULL_NA",
    "gnaf_pid": "GAQLD163250677",
    "tech_change_status": "Not Planned",
    "program_type": "Fixed Wireless and Satellite Upgrade Program",
    "target_eligibility_quarter": "NA"
   }
  },
  {
   "type": "Feature",
   "geometry": {
    "type": "Point",
    "coordinates": [
     146.2303272,
     -20.08511808
    ]
   },
   "properties": {
    "name": "76 NEYLONS ROAD SOUTHERN CROSS 4820",
    "locID": "LOC000112053481",
    "tech": "WIRELESS",
    "upgrade": "NULL_NA",
    "gnaf_pid": "GAQLD163250678",
    "tech_change_status": "Not Planned",
    "program_type": "Fixed Wireless and Satellite Upgrade Program",
    "target_eligibility_quarter": "NA"
   }
  },
  {
   "type": "Feature",
   "geometry": {
    "type": "Point",
    "coordinates": [
     146.23051243,
     -20.08601528
    ]
   },
   "properties": {
    "name": "94 NEYLONS ROAD SOUTHERN CROSS 4820",
    "locID": "LOC000129585486",
    "tech": "WIRELESS",
    "upgrade": "NULL_NA",
    "gnaf_pid": "GAQLD163250679",
    "tech_change_status": "Not Planned",
    "program_type": "Fixed Wireless and Satellite Upgrade Program",
    "target_eligibility_quarter": "NA"
   }
  },
  {
   "type": "Feature",
   "geometry": {
    "type": "Point",
    "coordinates": [
     146.23042704,
     -20.08688549
    ]
   },
   "properties": {
    "name": "98 NEYLONS ROAD SOUTHERN CROSS 4820",
    "locID": "LOC000129588560",
    "tech": "WIRELESS",
    "upgrade": "NULL_NA",
    "gnaf_pid": "GAQLD163250680",
    "tech_change_status": "Not Planned",
    "program_type": "Fixed Wireless and Satellite Upgrade Program",
    "target_eligibility_quarter": "NA"
   }
  },
  {
   "type": "Feature",
   "geometry": {
    "type": "Point",
    "coordinates": [
     146.22128554,
     -19.99022704
    ]
   },
   "properties": {
    "name": "115 PERCY SPRINGS ROAD SOUTHERN CROSS 4820",
    "locID": "LOC000129561533",
    "tech": "SATELLITE",
    "upgrade": "NULL_NA",
    "gnaf_pid": "GAQLD163250837",
    "tech_change_status": "Not Planned"
   }
  },
  {
   "type": "Feature",
   "geometry": {
    "type": "Point",
    "coordinates": [
     146.21466681,
     -19.98797148
    ]
   },
   "properties": {
    "name": "159 PERCY SPRINGS ROAD SOUTHERN CROSS 4820",
    "locID": "LOC100079067061",
    "tech": "SATELLITE",
    "upgrade": "NULL_NA",
    "gnaf_pid": "GAQLD163250838",
    "tech_change_status": "Not Planned"
   }
  },
  {
   "type": "Feature",
   "geometry": {
    "type": "Point",
    "coordinates": [
     146.20817937,
     -19.9707103
    ]
   },
   "properties": {
    "name": "194 PERCY SPRINGS ROAD SOUTHERN CROSS 4820",
    "locID": "LOC000129595407",
    "tech": "NULL",
    "upgrade": "NULL_NA",
    "gnaf_pid": "GAQLD163250839",
    "tech_change_status": "Not Planned"
   }
  },
  {
   "type": "Feature",
   "geometry": {
    "type": "Point",
    "coordinates": [
     146.19822072,
     -19.98766559
    ]
   },
   "properties": {
    "name": "269 PERCY SPRINGS ROAD SOUTHERN CROSS 4820",
    "locID": "LOC000129557875",
    "tech": "NULL",
    "upgrade": "NULL_NA",
    "gnaf_pid": "GAQLD163250840",
    "tech_change_status": "Not Planned"
   }
  },
  {
   "type": "Feature",
   "geometry": {
    "type": "Point",
    "coordinates": [
     146.17707942,
     -19.9883227
    ]
   },
   "properties": {
    "name": "513 PERCY SPRINGS ROAD SOUTHERN CROSS 4820",
    "locID": "LOC000129602327",
    "tech": "WIRELESS",
    "upgrade": "NULL_NA",
    "gnaf_pid": "GAQLD163250841",
    "tech_change_status": "Not Planned"
   }
  },
  {
   "type": "Feature",
   "geometry": {
    "type": "Point",
    "coordinates": [
     146.22658584,
     -20.07261634
    ]
   },
   "properties": {
    "name": "142 SANDY CREEK ROAD SOUTHERN CROSS 4820",
    "locID": "LOC000129573567",
    "tech": "WIRELESS",
    "upgrade": "NULL_NA",
    "gnaf_pid": "GAQLD163251015",
    "tech_change_status": "Not Planned",
    "program_type": "Fixed Wireless and Satellite Upgrade Program",
    "target_eligibility_quarter": "NA"
   }
  },
  {
   "type": "Feature",
   "geometry": {
    "type": "Point",
    "coordinates": [
     146.22605831,
     -20.07651511
    ]
   },
   "properties": {
    "name": "163 SANDY CREEK ROAD SOUTHERN CROSS 4820",
    "locID": "LOC000129581133",
    "tech": "WIRELESS",
    "upgrade": "NULL_NA",
    "gnaf_pid": "GAQLD163251016",
    "tech_change_status": "Not Planned",
    "program_type": "Fixed Wireless and Satellite Upgrade Program",
    "target_eligibility_quarter": "NA"
   }
  },
  {
   "type": "Feature",
   "geometry": {
    "type": "Point",
    "coordinates": [
     146.22510651,
     -20.07641642
    ]
   },
   "properties": {
    "name": "171 SANDY CREEK ROAD SOUTHERN CROSS 4820",
    "locID": "LOC000110730534",
    "tech": "WIRELESS",
    "upgrade": "NULL_NA",
    "gnaf_pid": "GAQLD163251017",
    "tech_change_status": "Not Planned",
    "program_type": "Fixed Wireless and Satellite Upgrade Program",
    "target_eligibility_quarter": "NA"
   }
  },
  {
   "type": "Feature",
   "geometry": {
    "type": "Point",
    "coordinates": [
     146.21959917,
     -20.06861708
    ]
   },
   "properties": {
    "name": "254 SANDY CREEK ROAD SOUTHERN CROSS 4820",
    "locID": "LOC000129612221",
    "tech": "WIRELESS",
    "upgrade": "NULL_NA",
    "gnaf_pid": "GAQLD163251018",
    "tech_change_status": "Not Planned",
    "program_type": "Fixed Wireless and Satellite Upgrade Program",
    "target_eligibility_quarter": "NA"
   }
  },
  {
   "type": "Feature",
   "geometry": {
    "type": "Point",
    "coordinates": [
     146.21877597,
     -20.06720871
    ]
   },
   "properties": {
    "name": "256 SANDY CREEK ROAD SOUTHERN CROSS 4820",
    "locID": "LOC000129612232",
    "tech": "WIRELESS",
    "upgrade": "NULL_NA",
    "gnaf_pid": "GAQLD163251019",
    "tech_change_status": "Not Planned",
    "program_type": "Fixed Wireless and Satellite Upgrade Program",
    "target_eligibility_quarter": "NA"
   }
  },
  {
   "type": "Feature",
   "geometry": {
    "type": "Point",
    "coordinates": [
     146.21692787,
     -20.06914952
    ]
   },
   "properties": {
    "name": "276 SANDY CREEK ROAD SOUTHERN CROSS 4820",
    "locID": "LOC000129558046",
    "tech": "WIRELESS",
    "upgrade": "NULL_NA",
    "gnaf_pid": "GAQLD163251020",
    "tech_change_status": "Not Planned",
    "program_type": "Fixed Wireless and Satellite Upgrade Program",
    "target_eligibility_quarter": "NA"
   }
  },
  {
   "type": "Feature",
   "geometry": {
    "type": "Point",
    "coordinates": [
     146.23889213,
     -20.0740572
    ]
   },
   "properties": {
    "name": "30 SANDY CREEK ROAD SOUTHERN CROSS 4820",
    "locID": "LOC000129565952",
    "tech": "WIRELESS",
    "upgrade": "NULL_NA",
    "gnaf_pid": "GAQLD163251021",
    "tech_change_status": "Not Planned",
    "program_type": "Fixed Wireless and Satellite Upgrade Program",
    "target_eligibility_quarter": "NA"
   }
  },
  {
   "type": "Feature",
   "geometry": {
    "type": "Point",
    "coordinates": [
     146.23800895,
     -20.0741936
    ]
   },
   "properties": {
    "name": "34 SANDY CREEK ROAD SOUTHERN CROSS 4820",
    "locID": "LOC000129573941",
    "tech": "WIRELESS",
    "upgrade": "NULL_NA",
    "gnaf_pid": "GAQLD163251022",
    "tech_change_status": "Not Planned",
    "program_type": "Fixed Wireless and Satellite Upgrade Program",
    "target_eligibility_quarter": "NA"
   }
  },
  {
   "type": "Feature",
   "geometry": {
    "type": "Point",
    "coordinates": [
     146.20376417,
     -20.06761987
    ]
   },
   "properties": {
    "name": "428 SANDY CREEK ROAD SOUTHERN CROSS 4820",
    "locID": "LOC000036593216",
    "tech": "WIRELESS",
    "upgrade": "NULL_NA",
    "gnaf_pid": "GAQLD163251024",
    "tech_change_status": "Not Planned",
    "program_type": "Fixed Wireless and Satellite Upgrade Program",
    "target_eligibility_quarter": "NA"
   }
  },
  {
   "type": "Feature",
   "geometry": {
    "type": "Point",
    "coordinates": [
     146.23684227,
     -20.07411733
    ]
   },
   "properties": {
    "name": "42 SANDY CREEK ROAD SOUTHERN CROSS 4820",
    "locID": "LOC000129588352",
    "tech": "WIRELESS",
    "upgrade": "NULL_NA",
    "gnaf_pid": "GAQLD163251025",
    "tech_change_status": "Not Planned",
    "program_type": "Fixed Wireless and Satellite Upgrade Program",
    "target_eligibility_quarter": "NA"
   }
  },
  {
   "type": "Feature",
   "geometry": {
    "type": "Point",
    "coordinates": [
     146.19966073,
     -20.06894028
    ]
   },
   "properties": {
    "name": "456 SANDY CREEK ROAD SOUTHERN CROSS 4820",
    "locID": "LOC000129591979",
    "tech": "WIRELESS",
    "upgrade": "NULL_NA",
    "gnaf_pid": "GAQLD163251026",
    "tech_change_status": "Not Planned",
    "program_type": "Fixed Wireless and Satellite Upgrade Program",
    "target_eligibility_quarter": "NA"
   }
  },
  {
   "type": "Feature",
   "geometry": {
    "type": "Point",
    "coordinates": [
     146.19175117,
     -20.06749783
    ]
   },
   "properties": {
    "name": "490 SANDY CREEK ROAD SOUTHERN CROSS 4820",
    "locID": "LOC000129599186",
    "tech": "WIRELESS",
    "upgrade": "NULL_NA",
    "gnaf_pid": "GAQLD163251027",
    "tech_change_status": "Not Planned",
    "program_type": "Fixed Wireless and Satellite Upgrade Program",
    "target_eligibility_quarter": "NA"
   }
  },
  {
   "type": "Feature",
   "geometry": {
    "type": "Point",
    "coordinates": [
     146.23600376,
     -20.0741419
    ]
   },
   "properties": {
    "name": "50 SANDY CREEK ROAD SOUTHERN CROSS 4820",
    "locID": "LOC000129599384",
    "tech": "WIRELESS",
    "upgrade": "NULL_NA",
    "gnaf_pid": "GAQLD163251028",
    "tech_change_status": "Not Planned",
    "program_type": "Fixed Wireless and Satellite Upgrade Program",
    "target_eligibility_quarter": "NA"
   }
  },
  {
   "type": "Feature",
   "geometry": {
    "type": "Point",
    "coordinates": [
     146.23605731,
     -20.0766667
    ]
   },
   "properties": {
    "name": "51 SANDY CREEK ROAD SOUTHERN CROSS 4820",
    "locID": "LOC000129602315",
    "tech": "WIRELESS",
    "upgrade": "NULL_NA",
    "gnaf_pid": "GAQLD163251029",
    "tech_change_status": "Not Planned",
    "program_type": "Fixed Wireless and Satellite Upgrade Program",
    "target_eligibility_quarter": "NA"
   }
  },
  {
   "type": "Feature",
   "geometry": {
    "type": "Point",
    "coordinates": [
     146.23443591,
     -20.0734031
    ]
   },
   "properties": {
    "name": "78 SANDY CREEK ROAD SOUTHERN CROSS 4820",
    "locID": "LOC000129574207",
    "tech": "WIRELESS",
    "upgrade": "NULL_NA",
    "gnaf_pid": "GAQLD163251030",
    "tech_change_status": "Not Planned",
    "program_type": "Fixed Wireless and Satellite Upgrade Program",
    "target_eligibility_quarter": "NA"
   }
  },
  {
   "type": "Feature",
   "geometry": {
    "type": "Point",
    "coordinates": [
     146.24065941,
     -20.07546943
    ]
   },
   "properties": {
    "name": "7 SANDY CREEK ROAD SOUTHERN CROSS 4820",
    "locID": "LOC000129566126",
    "tech": "WIRELESS",
    "upgrade": "NULL_NA",
    "gnaf_pid": "GAQLD163251031",
    "tech_change_status": "Not Planned",
    "program_type": "Fixed Wireless and Satellite Upgrade Program",
    "target_eligibility_quarter": "NA"
   }
  },
  {
   "type": "Feature",
   "geometry": {
    "type": "Point",
    "coordinates": [
     146.23134313,
     -20.07459602
    ]
   },
   "properties": {
    "name": "90 SANDY CREEK ROAD SOUTHERN CROSS 4820",
    "locID": "LOC000129585383",
    "tech": "WIRELESS",
    "upgrade": "NULL_NA",
    "gnaf_pid": "GAQLD163251032",
    "tech_change_status": "Not Planned",
    "program_type": "Fixed Wireless and Satellite Upgrade Program",
    "target_eligibility_quarter": "NA"
   }
  },
  {
   "type": "Feature",
   "geometry": {
    "type": "Point",
    "coordinates": [
     146.23243146,
     -20.07719692
    ]
   },
   "properties": {
    "name": "93 SANDY CREEK ROAD SOUTHERN CROSS 4820",
    "locID": "LOC000129585455",
    "tech": "WIRELESS",
    "upgrade": "NULL_NA",
    "gnaf_pid": "GAQLD163251033",
    "tech_change_status": "Not Planned",
    "program_type": "Fixed Wireless and Satellite Upgrade Program",
    "target_eligibility_quarter": "NA"
   }
  },
  {
   "type": "Feature",
   "geometry": {
    "type": "Point",
    "coordinates": [
     146.23916277,
     -20.07191715
    ]
   },
   "properties": {
    "name": "27 SCRUBBY CREEK ROAD SOUTHERN CROSS 4820",
    "locID": "LOC000129557950",
    "tech": "WIRELESS",
    "upgrade": "NULL_NA",
    "gnaf_pid": "GAQLD163251051",
    "tech_change_status": "Not Planned",
    "program_type": "Fixed Wireless and Satellite Upgrade Program",
    "target_eligibility_quarter": "NA"
   }
  },
  {
   "type": "Feature",
   "geometry": {
    "type": "Point",
    "coordinates": [
     146.23828932,
     -20.0719589
    ]
   },
   "properties": {
    "name": "33 SCRUBBY CREEK ROAD SOUTHERN CROSS 4820",
    "locID": "LOC000129573788",
    "tech": "WIRELESS",
    "upgrade": "NULL_NA",
    "gnaf_pid": "GAQLD163251052",
    "tech_change_status": "Not Planned",
    "program_type": "Fixed Wireless and Satellite Upgrade Program",
    "target_eligibility_quarter": "NA"
   }
  },
  {
   "type": "Feature",
   "geometry": {
    "type": "Point",
    "coordinates": [
     146.21789061,
     -20.08267185
    ]
   },
   "properties": {
    "name": "131 SOUTHWALK ROAD SOUTHERN CROSS 4820",
    "locID": "LOC000129569802",
    "tech": "WIRELESS",
    "upgrade": "NULL_NA",
    "gnaf_pid": "GAQLD163251371",
    "tech_change_status": "Not Planned",
    "program_type": "Fixed Wireless and Satellite Upgrade Program",
    "target_eligibility_quarter": "NA"
   }
  },
  {
   "type": "Feature",
   "geometry": {
    "type": "Point",
    "coordinates": [
     146.22614463,
     -20.09412409
    ]
   },
   "properties": {
    "name": "25 TAMARA ROAD SOUTHERN CROSS 4820",
    "locID": "LOC000129612191",
    "tech": "WIRELESS",
    "upgrade": "NULL_NA",
    "gnaf_pid": "GAQLD163251527",
    "tech_change_status": "Not Planned",
    "program_type": "Fixed Wireless and Satellite Upgrade Program",
    "target_eligibility_quarter": "NA"
   }
  },
  {
   "type": "Feature",
   "geometry": {
    "type": "Point",
    "coordinates": [
     146.22723369,
     -20.0966837
    ]
   },
   "properties": {
    "name": "7 TAMARA ROAD SOUTHERN CROSS 4820",
    "locID": "LOC000129566142",
    "tech": "WIRELESS",
    "upgrade": "NULL_NA",
    "gnaf_pid": "GAQLD163251528",
    "tech_change_status": "Not Planned",
    "program_type": "Fixed Wireless and Satellite Upgrade Program",
    "target_eligibility_quarter": "NA"
   }
  },
  {
   "type": "Feature",
   "geometry": {
    "type": "Point",
    "coordinates": [
     146.23240852,
     -20.02707592
    ]
   },
   "properties": {
    "name": "19 URDERA ROAD SOUTHERN CROSS 4820",
    "locID": "LOC000129591663",
    "tech": "WIRELESS",
    "upgrade": "NULL_NA",
    "gnaf_pid": "GAQLD163251699",
    "tech_change_status": "Not Planned",
    "program_type": "Fixed Wireless and Satellite Upgrade Program",
    "target_eligibility_quarter": "NA"
   }
  },
  {
   "type": "Feature",
   "geometry": {
    "type": "Point",
    "coordinates": [
     146.2062573,
     -20.01428181
    ]
   },
   "properties": {
    "name": "338 URDERA ROAD SOUTHERN CROSS 4820",
    "locID": "LOC000129573863",
    "tech": "WIRELESS",
    "upgrade": "NULL_NA",
    "gnaf_pid": "GAQLD163251700",
    "tech_change_status": "Not Planned",
    "program_type": "Fixed Wireless and Satellite Upgrade Program",
    "target_eligibility_quarter": "NA"
   }
  },
  {
   "type": "Feature",
   "geometry": {
    "type": "Point",
    "coordinates": [
     146.20147032,
     -20.01969594
    ]
   },
   "properties": {
    "name": "392 URDERA ROAD SOUTHERN CROSS 4820",
    "locID": "LOC000129585026",
    "tech": "WIRELESS",
    "upgrade": "NULL_NA",
    "gnaf_pid": "GAQLD163251701",
    "tech_change_status": "Not Planned"
   }
  },
  {
   "type": "Feature",
   "geometry": {
    "type": "Point",
    "coordinates": [
     146.24109381,
     -20.07262009
    ]
   },
   "properties": {
    "name": "54 VIEW STREET SOUTHERN CROSS 4820",
    "locID": "LOC000129602605",
    "tech": "WIRELESS",
    "upgrade": "NULL_NA",
    "gnaf_pid": "GAQLD163251707",
    "tech_change_status": "Not Planned",
    "program_type": "Fixed Wireless and Satellite Upgrade Program",
    "target_eligibility_quarter": "NA"
   }
  },
  {
   "type": "Feature",
   "geometry": {
    "type": "Point",
    "coordinates": [
     146.22724128,
     -20.08983215
    ]
   },
   "properties": {
    "name": "121 WELLINGTON ROAD SOUTHERN CROSS 4820",
    "locID": "LOC000129565638",
    "tech": "WIRELESS",
    "upgrade": "NULL_NA",
    "gnaf_pid": "GAQLD163251789",
    "tech_change_status": "Not Planned",
    "program_type": "Fixed Wireless and Satellite Upgrade Program",
    "target_eligibility_quarter": "NA"
   }
  },
  {
   "type": "Feature",
   "geometry": {
    "type": "Point",
    "coordinates": [
     146.22877395,
     -20.08578051
    ]
   },
   "properties": {
    "name": "174 WELLINGTON ROAD SOUTHERN CROSS 4820",
    "locID": "LOC000111645930",
    "tech": "WIRELESS",
    "upgrade": "NULL_NA",
    "gnaf_pid": "GAQLD163251790",
    "tech_change_status": "Not Planned",
    "program_type": "Fixed Wireless and Satellite Upgrade Program",
    "target_eligibility_quarter": "NA"
   }
  },
  {
   "type": "Feature",
   "geometry": {
    "type": "Point",
    "coordinates": [
     146.2290286,
     -20.08468029
    ]
   },
   "properties": {
    "name": "176 WELLINGTON ROAD SOUTHERN CROSS 4820",
    "locID": "LOC000129587939",
    "tech": "WIRELESS",
    "upgrade": "NULL_NA",
    "gnaf_pid": "GAQLD163251791",
    "tech_change_status": "Not Planned",
    "program_type": "Fixed Wireless and Satellite Upgrade Program",
    "target_eligibility_quarter": "NA"
   }
  },
  {
   "type": "Feature",
   "geometry": {
    "type": "Point",
    "coordinates": [
     146.22814757,
     -20.08409456
    ]
   },
   "properties": {
    "name": "178 WELLINGTON ROAD SOUTHERN CROSS 4820",
    "locID": "LOC000129587973",
    "tech": "WIRELESS",
    "upgrade": "NULL_NA",
    "gnaf_pid": "GAQLD163251792",
    "tech_change_status": "Not Planned",
    "program_type": "Fixed Wireless and Satellite Upgrade Program",
    "target_eligibility_quarter": "NA"
   }
  },
  {
   "type": "Feature",
   "geometry": {
    "type": "Point",
    "coordinates": [
     146.22882257,
     -20.08274975
    ]
   },
   "properties": {
    "name": "202 WELLINGTON ROAD SOUTHERN CROSS 4820",
    "locID": "LOC000129599043",
    "tech": "WIRELESS",
    "upgrade": "NULL_NA",
    "gnaf_pid": "GAQLD163251793",
    "tech_change_status": "Not Planned",
    "program_type": "Fixed Wireless and Satellite Upgrade Program",
    "target_eligibility_quarter": "NA"
   }
  },
  {
   "type": "Feature",
   "geometry": {
    "type": "Point",
    "coordinates": [
     146.22637085,
     -20.08227327
    ]
   },
   "properties": {
    "name": "207 WELLINGTON ROAD SOUTHERN CROSS 4820",
    "locID": "LOC000129602013",
    "tech": "WIRELESS",
    "upgrade": "NULL_NA",
    "gnaf_pid": "GAQLD163251794",
    "tech_change_status": "Not Planned",
    "program_type": "Fixed Wireless and Satellite Upgrade Program",
    "target_eligibility_quarter": "NA"
   }
  },
  {
   "type": "Feature",
   "geometry": {
    "type": "Point",
    "coordinates": [
     146.22675551,
     -20.08155689
    ]
   },
   "properties": {
    "name": "209 WELLINGTON ROAD SOUTHERN CROSS 4820",
    "locID": "LOC000129602050",
    "tech": "WIRELESS",
    "upgrade": "NULL_NA",
    "gnaf_pid": "GAQLD163251795",
    "tech_change_status": "Not Planned",
    "program_type": "Fixed Wireless and Satellite Upgrade Program",
    "target_eligibility_quarter": "NA"
   }
  },
  {
   "type": "Feature",
   "geometry": {
    "type": "Point",
    "coordinates": [
     146.22880327,
     -20.08162428
    ]
   },
   "properties": {
    "name": "224 WELLINGTON ROAD SOUTHERN CROSS 4820",
    "locID": "LOC000129605204",
    "tech": "WIRELESS",
    "upgrade": "NULL_NA",
    "gnaf_pid": "GAQLD163251796",
    "tech_change_status": "Not Planned",
    "program_type": "Fixed Wireless and Satellite Upgrade Program",
    "target_eligibility_quarter": "NA"
   }
  },
  {
   "type": "Feature",
   "geometry": {
    "type": "Point",
    "coordinates": [
     146.22866107,
     -20.07999469
    ]
   },
   "properties": {
    "name": "226 WELLINGTON ROAD SOUTHERN CROSS 4820",
    "locID": "LOC000129605236",
    "tech": "WIRELESS",
    "upgrade": "NULL_NA",
    "gnaf_pid": "GAQLD163251797",
    "tech_change_status": "Not Planned",
    "program_type": "Fixed Wireless and Satellite Upgrade Program",
    "target_eligibility_quarter": "NA"
   }
  },
  {
   "type": "Feature",
   "geometry": {
    "type": "Point",
    "coordinates": [
     146.22640199,
     -20.07917229
    ]
   },
   "properties": {
    "name": "243 WELLINGTON ROAD SOUTHERN CROSS 4820",
    "locID": "LOC000129612041",
    "tech": "WIRELESS",
    "upgrade": "NULL_NA",
    "gnaf_pid": "GAQLD163251798",
    "tech_change_status": "Not Planned",
    "program_type": "Fixed Wireless and Satellite Upgrade Program",
    "target_eligibility_quarter": "NA"
   }
  },
  {
   "type": "Feature",
   "geometry": {
    "type": "Point",
    "coordinates": [
     146.22653583,
     -20.07805603
    ]
   },
   "properties": {
    "name": "257 WELLINGTON ROAD SOUTHERN CROSS 4820",
    "locID": "LOC000129612245",
    "tech": "WIRELESS",
    "upgrade": "NULL_NA",
    "gnaf_pid": "GAQLD163251799",
    "tech_change_status": "Not Planned",
    "program_type": "Fixed Wireless and Satellite Upgrade Program",
    "target_eligibility_quarter": "NA"
   }
  },
  {
   "type": "Feature",
   "geometry": {
    "type": "Point",
    "coordinates": [
     146.23352499,
     -20.09521378
    ]
   },
   "properties": {
    "name": "31 WELLINGTON ROAD SOUTHERN CROSS 4820",
    "locID": "LOC000129570078",
    "tech": "WIRELESS",
    "upgrade": "NULL_NA",
    "gnaf_pid": "GAQLD163251800",
    "tech_change_status": "Not Planned",
    "program_type": "Fixed Wireless and Satellite Upgrade Program",
    "target_eligibility_quarter": "NA"
   }
  },
  {
   "type": "Feature",
   "geometry": {
    "type": "Point",
    "coordinates": [
     146.23294115,
     -20.09454803
    ]
   },
   "properties": {
    "name": "49 WELLINGTON ROAD SOUTHERN CROSS 4820",
    "locID": "LOC000112048378",
    "tech": "WIRELESS",
    "upgrade": "NULL_NA",
    "gnaf_pid": "GAQLD163251801",
    "tech_change_status": "Not Planned",
    "program_type": "Fixed Wireless and Satellite Upgrade Program",
    "target_eligibility_quarter": "NA"
   }
  },
  {
   "type": "Feature",
   "geometry": {
    "type": "Point",
    "coordinates": [
     146.23277634,
     -20.09200875
    ]
   },
   "properties": {
    "name": "54 WELLINGTON ROAD SOUTHERN CROSS 4820",
    "locID": "LOC000129602614",
    "tech": "WIRELESS",
    "upgrade": "NULL_NA",
    "gnaf_pid": "GAQLD163251802",
    "tech_change_status": "Not Planned",
    "program_type": "Fixed Wireless and Satellite Upgrade Program",
    "target_eligibility_quarter": "NA"
   }
  },
  {
   "type": "Feature",
   "geometry": {
    "type": "Point",
    "coordinates": [
     146.22952665,
     -20.09224921
    ]
   },
   "properties": {
    "name": "83 WELLINGTON ROAD SOUTHERN CROSS 4820",
    "locID": "LOC000129578087",
    "tech": "WIRELESS",
    "upgrade": "NULL_NA",
    "gnaf_pid": "GAQLD163251803",
    "tech_change_status": "Not Planned",
    "program_type": "Fixed Wireless and Satellite Upgrade Program",
    "target_eligibility_quarter": "NA"
   }
  },
  {
   "type": "Feature",
   "geometry": {
    "type": "Point",
    "coordinates": [
     146.22611741,
     -20.09176925
    ]
   },
   "properties": {
    "name": "99 WELLINGTON ROAD SOUTHERN CROSS 4820",
    "locID": "LOC000129588616",
    "tech": "WIRELESS",
    "upgrade": "NULL_NA",
    "gnaf_pid": "GAQLD163251804",
    "tech_change_status": "Not Planned",
    "program_type": "Fixed Wireless and Satellite Upgrade Program",
    "target_eligibility_quarter": "NA"
   }
  },
  {
   "type": "Feature",
   "geometry": {
    "type": "Point",
    "coordinates": [
     146.23867223,
     -20.09159658
    ]
   },
   "properties": {
    "name": "158 BLACK JACK ROAD SOUTHERN CROSS 4820",
    "locID": "LOC000129580989",
    "tech": "WIRELESS",
    "upgrade": "NULL_NA",
    "gnaf_pid": "GAQLD163251878",
    "tech_change_status": "Not Planned",
    "program_type": "Fixed Wireless and Satellite Upgrade Program",
    "target_eligibility_quarter": "NA"
   }
  },
  {
   "type": "Feature",
   "geometry": {
    "type": "Point",
    "coordinates": [
     146.23773395,
     -20.09287547
    ]
   },
   "properties": {
    "name": "178 BLACK JACK ROAD SOUTHERN CROSS 4820",
    "locID": "LOC000129587941",
    "tech": "WIRELESS",
    "upgrade": "NULL_NA",
    "gnaf_pid": "GAQLD163251879",
    "tech_change_status": "Not Planned",
    "program_type": "Fixed Wireless and Satellite Upgrade Program",
    "target_eligibility_quarter": "NA"
   }
  },
  {
   "type": "Feature",
   "geometry": {
    "type": "Point",
    "coordinates": [
     146.23024218,
     -20.05983834
    ]
   },
   "properties": {
    "name": "146 GREAT BRITAIN ROAD SOUTHERN CROSS 4820",
    "locID": "LOC000129573669",
    "tech": "WIRELESS",
    "upgrade": "NULL_NA",
    "gnaf_pid": "GAQLD163251889",
    "tech_change_status": "Not Planned",
    "program_type": "Fixed Wireless and Satellite Upgrade Program",
    "target_eligibility_quarter": "NA"
   }
  },
  {
   "type": "Feature",
   "geometry": {
    "type": "Point",
    "coordinates": [
     146.2204778,
     -20.05333795
    ]
   },
   "properties": {
    "name": "282 GREAT BRITAIN ROAD SOUTHERN CROSS 4820",
    "locID": "LOC000129561682",
    "tech": "WIRELESS",
    "upgrade": "NULL_NA",
    "gnaf_pid": "GAQLD163251891",
    "tech_change_status": "Not Planned",
    "program_type": "Fixed Wireless and Satellite Upgrade Program",
    "target_eligibility_quarter": "NA"
   }
  },
  {
   "type": "Feature",
   "geometry": {
    "type": "Point",
    "coordinates": [
     146.21725044,
     -20.05980006
    ]
   },
   "properties": {
    "name": "313 GREAT BRITAIN ROAD SOUTHERN CROSS 4820",
    "locID": "LOC000129570097",
    "tech": "WIRELESS",
    "upgrade": "NULL_NA",
    "gnaf_pid": "GAQLD163251892",
    "tech_change_status": "Not Planned",
    "program_type": "Fixed Wireless and Satellite Upgrade Program",
    "target_eligibility_quarter": "NA"
   }
  },
  {
   "type": "Feature",
   "geometry": {
    "type": "Point",
    "coordinates": [
     146.23871046,
     -20.07649443
    ]
   },
   "properties": {
    "name": "17 SANDY CREEK ROAD SOUTHERN CROSS 4820",
    "locID": "LOC000129584880",
    "tech": "WIRELESS",
    "upgrade": "NULL_NA",
    "gnaf_pid": "GAQLD163251911",
    "tech_change_status": "Not Planned",
    "program_type": "Fixed Wireless and Satellite Upgrade Program",
    "target_eligibility_quarter": "NA"
   }
  },
  {
   "type": "Feature",
   "geometry": {
    "type": "Point",
    "coordinates": [
     146.21931464,
     -20.07451399
    ]
   },
   "properties": {
    "name": "219 SANDY CREEK ROAD SOUTHERN CROSS 4820",
    "locID": "LOC000129605010",
    "tech": "WIRELESS",
    "upgrade": "NULL_NA",
    "gnaf_pid": "GAQLD163251912",
    "tech_change_status": "Not Planned",
    "program_type": "Fixed Wireless and Satellite Upgrade Program",
    "target_eligibility_quarter": "NA"
   }
  },
  {
   "type": "Feature",
   "geometry": {
    "type": "Point",
    "coordinates": [
     146.20315965,
     -20.0833957
    ]
   },
   "properties": {
    "name": "292 BACK CREEK ROAD SOUTHERN CROSS 4820",
    "locID": "LOC000129561816",
    "tech": "WIRELESS",
    "upgrade": "NULL_NA",
    "gnaf_pid": "GAQLD163280134",
    "tech_change_status": "Not Planned",
    "program_type": "Fixed Wireless and Satellite Upgrade Program",
    "target_eligibility_quarter": "NA"
   }
  },
  {
   "type": "Feature",
   "geometry": {
    "type": "Point",
    "coordinates": [
     146.19385497,
     -20.09605744
    ]
   },
   "properties": {
    "name": "324 BACK CREEK ROAD SOUTHERN CROSS 4820",
    "locID": "LOC000129573703",
    "tech": "WIRELESS",
    "upgrade": "NULL_NA",
    "gnaf_pid": "GAQLD163280135",
    "tech_change_status": "Not Planned",
    "program_type": "Fixed Wireless and Satellite Upgrade Program",
    "target_eligibility_quarter": "NA"
   }
  },
  {
   "type": "Feature",
   "geometry": {
    "type": "Point",
    "coordinates": [
     146.22023419,
     -20.08592613
    ]
   },
   "properties": {
    "name": "69 BACK CREEK ROAD SOUTHERN CROSS 4820",
    "locID": "LOC000129562172",
    "tech": "WIRELESS",
    "upgrade": "NULL_NA",
    "gnaf_pid": "GAQLD163280136",
    "tech_change_status": "Not Planned",
    "program_type": "Fixed Wireless and Satellite Upgrade Program",
    "target_eligibility_quarter": "NA"
   }
  },
  {
   "type": "Feature",
   "geometry": {
    "type": "Point",
    "coordinates": [
     146.20875524,
     -20.06674288
    ]
   },
   "properties": {
    "name": "63 BARKLA ROAD SOUTHERN CROSS 4820",
    "locID": "LOC000129558196",
    "tech": "WIRELESS",
    "upgrade": "NULL_NA",
    "gnaf_pid": "GAQLD163280153",
    "tech_change_status": "Not Planned"
   }
  },
  {
   "type": "Feature",
   "geometry": {
    "type": "Point",
    "coordinates": [
     146.19653859,
     -20.06808776
    ]
   },
   "properties": {
    "name": "13 DAWSON ROAD SOUTHERN CROSS 4820",
    "locID": "LOC000129569737",
    "tech": "WIRELESS",
    "upgrade": "NULL_NA",
    "gnaf_pid": "GAQLD163281270",
    "tech_change_status": "Not Planned",
    "program_type": "Fixed Wireless and Satellite Upgrade Program",
    "target_eligibility_quarter": "NA"
   }
  },
  {
   "type": "Feature",
   "geometry": {
    "type": "Point",
    "coordinates": [
     146.20027234,
     -20.06552174
    ]
   },
   "properties": {
    "name": "32 DAWSON ROAD SOUTHERN CROSS 4820",
    "locID": "LOC000129570153",
    "tech": "WIRELESS",
    "upgrade": "NULL_NA",
    "gnaf_pid": "GAQLD163281271",
    "tech_change_status": "Not Planned",
    "program_type": "Fixed Wireless and Satellite Upgrade Program",
    "target_eligibility_quarter": "NA"
   }
  },
  {
   "type": "Feature",
   "geometry": {
    "type": "Point",
    "coordinates": [
     146.19584963,
     -20.06454024
    ]
   },
   "properties": {
    "name": "60 DAWSON ROAD SOUTHERN CROSS 4820",
    "locID": "LOC000129612437",
    "tech": "WIRELESS",
    "upgrade": "NULL_NA",
    "gnaf_pid": "GAQLD163281272",
    "tech_change_status": "Not Planned",
    "program_type": "Fixed Wireless and Satellite Upgrade Program",
    "target_eligibility_quarter": "NA"
   }
  },
  {
   "type": "Feature",
   "geometry": {
    "type": "Point",
    "coordinates": [
     146.18171532,
     -20.06363016
    ]
   },
   "properties": {
    "name": "90 DAWSON ROAD SOUTHERN CROSS 4820",
    "locID": "LOC000129585349",
    "tech": "WIRELESS",
    "upgrade": "NULL_NA",
    "gnaf_pid": "GAQLD163281273",
    "tech_change_status": "Not Planned",
    "program_type": "Fixed Wireless and Satellite Upgrade Program",
    "target_eligibility_quarter": "NA"
   }
  },
  {
   "type": "Feature",
   "geometry": {
    "type": "Point",
    "coordinates": [
     146.24027554,
     -20.04123712
    ]
   },
   "properties": {
    "name": "17 DAYLIGHT LANE SOUTHERN CROSS 4820",
    "locID": "LOC000129584782",
    "tech": "WIRELESS",
    "upgrade": "NULL_NA",
    "gnaf_pid": "GAQLD163281282",
    "tech_change_status": "Not Planned",
    "program_type": "Fixed Wireless and Satellite Upgrade Program",
    "target_eligibility_quarter": "NA"
   }
  },
  {
   "type": "Feature",
   "geometry": {
    "type": "Point",
    "coordinates": [
     146.24120753,
     -20.04001255
    ]
   },
   "properties": {
    "name": "18 DAYLIGHT LANE SOUTHERN CROSS 4820",
    "locID": "LOC000129588055",
    "tech": "WIRELESS",
    "upgrade": "NULL_NA",
    "gnaf_pid": "GAQLD163281283",
    "tech_change_status": "Not Planned",
    "program_type": "Fixed Wireless and Satellite Upgrade Program",
    "target_eligibility_quarter": "NA"
   }
  },
  {
   "type": "Feature",
   "geometry": {
    "type": "Point",
    "coordinates": [
     146.23945447,
     -20.08168674
    ]
   },
   "properties": {
    "name": "103 DUMAN ROAD SOUTHERN CROSS 4820",
    "locID": "LOC000129557555",
    "tech": "WIRELESS",
    "upgrade": "NULL_NA",
    "gnaf_pid": "GAQLD163281356",
    "tech_change_status": "Not Planned",
    "program_type": "Fixed Wireless and Satellite Upgrade Program",
    "target_eligibility_quarter": "NA"
   }
  },
  {
   "type": "Feature",
   "geometry": {
    "type": "Point",
    "coordinates": [
     146.23768847,
     -20.08179418
    ]
   },
   "properties": {
    "name": "125 DUMAN ROAD SOUTHERN CROSS 4820",
    "locID": "LOC000129565693",
    "tech": "WIRELESS",
    "upgrade": "NULL_NA",
    "gnaf_pid": "GAQLD163281357",
    "tech_change_status": "Not Planned",
    "program_type": "Fixed Wireless and Satellite Upgrade Program",
    "target_eligibility_quarter": "NA"
   }
  },
  {
   "type": "Feature",
   "geometry": {
    "type": "Point",
    "coordinates": [
     146.23572221,
     -20.07836957
    ]
   },
   "properties": {
    "name": "176 DUMAN ROAD SOUTHERN CROSS 4820",
    "locID": "LOC000129587925",
    "tech": "WIRELESS",
    "upgrade": "NULL_NA",
    "gnaf_pid": "GAQLD163281358",
    "tech_change_status": "Not Planned",
    "program_type": "Fixed Wireless and Satellite Upgrade Program",
    "target_eligibility_quarter": "NA"
   }
  },
  {
   "type": "Feature",
   "geometry": {
    "type": "Point",
    "coordinates": [
     146.23214887,
     -20.08012427
    ]
   },
   "properties": {
    "name": "183 DUMAN ROAD SOUTHERN CROSS 4820",
    "locID": "LOC000129588174",
    "tech": "WIRELESS",
    "upgrade": "NULL_NA",
    "gnaf_pid": "GAQLD163281359",
    "tech_change_status": "Not Planned",
    "program_type": "Fixed Wireless and Satellite Upgrade Program",
    "target_eligibility_quarter": "NA"
   }
  },
  {
   "type": "Feature",
   "geometry": {
    "type": "Point",
    "coordinates": [
     146.23078465,
     -20.07985201
    ]
   },
   "properties": {
    "name": "207 DUMAN ROAD SOUTHERN CROSS 4820",
    "locID": "LOC000129599155",
    "tech": "WIRELESS",
    "upgrade": "NULL_NA",
    "gnaf_pid": "GAQLD163281360",
    "tech_change_status": "Not Planned",
    "program_type": "Fixed Wireless and Satellite Upgrade Program",
    "target_eligibility_quarter": "NA"
   }
  },
  {
   "type": "Feature",
   "geometry": {
    "type": "Point",
    "coordinates": [
     146.22928081,
     -20.07863273
    ]
   },
   "properties": {
    "name": "219 DUMAN ROAD SOUTHERN CROSS 4820",
    "locID": "LOC000129602294",
    "tech": "WIRELESS",
    "upgrade": "NULL_NA",
    "gnaf_pid": "GAQLD163281362",
    "tech_change_status": "Not Planned",
    "program_type": "Fixed Wireless and Satellite Upgrade Program",
    "target_eligibility_quarter": "NA"
   }
  },
  {
   "type": "Feature",
   "geometry": {
    "type": "Point",
    "coordinates": [
     146.22876196,
     -20.07858219
    ]
   },
   "properties": {
    "name": "229 DUMAN ROAD SOUTHERN CROSS 4820",
    "locID": "LOC000129605291",
    "tech": "WIRELESS",
    "upgrade": "NULL_NA",
    "gnaf_pid": "GAQLD163281363",
    "tech_change_status": "Not Planned",
    "program_type": "Fixed Wireless and Satellite Upgrade Program",
    "target_eligibility_quarter": "NA"
   }
  },
  {
   "type": "Feature",
   "geometry": {
    "type": "Point",
    "coordinates": [
     146.18777414,
     -20.07717197
    ]
   },
   "properties": {
    "name": "173 FEATHERBY ROAD SOUTHERN CROSS 4820",
    "locID": "LOC000129587892",
    "tech": "WIRELESS",
    "upgrade": "NULL_NA",
    "gnaf_pid": "GAQLD163281521",
    "tech_change_status": "Not Planned",
    "program_type": "Fixed Wireless and Satellite Upgrade Program",
    "target_eligibility_quarter": "NA"
   }
  },
  {
   "type": "Feature",
   "geometry": {
    "type": "Point",
    "coordinates": [
     146.20842858,
     -20.10357149
    ]
   },
   "properties": {
    "name": "202 FLORENCE ROAD SOUTHERN CROSS 4820",
    "locID": "LOC000129599027",
    "tech": "WIRELESS",
    "upgrade": "NULL_NA",
    "gnaf_pid": "GAQLD163281605",
    "tech_change_status": "Not Planned",
    "program_type": "Fixed Wireless and Satellite Upgrade Program",
    "target_eligibility_quarter": "NA"
   }
  },
  {
   "type": "Feature",
   "geometry": {
    "type": "Point",
    "coordinates": [
     146.19201399,
     -20.10582054
    ]
   },
   "properties": {
    "name": "314 FLORENCE ROAD SOUTHERN CROSS 4820",
    "locID": "LOC000129570107",
    "tech": "WIRELESS",
    "upgrade": "NULL_NA",
    "gnaf_pid": "GAQLD163281606",
    "tech_change_status": "Not Planned",
    "program_type": "Fixed Wireless and Satellite Upgrade Program",
    "target_eligibility_quarter": "NA"
   }
  },
  {
   "type": "Feature",
   "geometry": {
    "type": "Point",
    "coordinates": [
     146.18049494,
     -20.11204972
    ]
   },
   "properties": {
    "name": "576 FLORENCE ROAD SOUTHERN CROSS 4820",
    "locID": "LOC000129605624",
    "tech": "SATELLITE",
    "upgrade": "NULL_NA",
    "gnaf_pid": "GAQLD163281607",
    "tech_change_status": "Not Planned"
   }
  },
  {
   "type": "Feature",
   "geometry": {
    "type": "Point",
    "coordinates": [
     146.21997233,
     -20.06238557
    ]
   },
   "properties": {
    "name": "265 GREAT BRITAIN ROAD SOUTHERN CROSS 4820",
    "locID": "LOC000129557834",
    "tech": "WIRELESS",
    "upgrade": "NULL_NA",
    "gnaf_pid": "GAQLD163281920",
    "tech_change_status": "Not Planned",
    "program_type": "Fixed Wireless and Satellite Upgrade Program",
    "target_eligibility_quarter": "NA"
   }
  },
  {
   "type": "Feature",
   "geometry": {
    "type": "Point",
    "coordinates": [
     146.20883572,
     -20.05886842
    ]
   },
   "properties": {
    "name": "385 GREAT BRITAIN ROAD SOUTHERN CROSS 4820",
    "locID": "LOC000129581466",
    "tech": "WIRELESS",
    "upgrade": "NULL_NA",
    "gnaf_pid": "GAQLD163281921",
    "tech_change_status": "Not Planned",
    "program_type": "Fixed Wireless and Satellite Upgrade Program",
    "target_eligibility_quarter": "NA"
   }
  },
  {
   "type": "Feature",
   "geometry": {
    "type": "Point",
    "coordinates": [
     146.22413722,
     -20.04263219
    ]
   },
   "properties": {
    "name": "81 GRISINGER ROAD SOUTHERN CROSS 4820",
    "locID": "LOC000129577942",
    "tech": "WIRELESS",
    "upgrade": "NULL_NA",
    "gnaf_pid": "GAQLD163282039",
    "tech_change_status": "Not Planned",
    "program_type": "Fixed Wireless and Satellite Upgrade Program",
    "target_eligibility_quarter": "NA"
   }
  },
  {
   "type": "Feature",
   "geometry": {
    "type": "Point",
    "coordinates": [
     146.18153699,
     -20.08766457
    ]
   },
   "properties": {
    "name": "55 GUPPY SPRINGS ROAD SOUTHERN CROSS 4820",
    "locID": "LOC000129605412",
    "tech": "WIRELESS",
    "upgrade": "NULL_NA",
    "gnaf_pid": "GAQLD163282044",
    "tech_change_status": "Not Planned",
    "program_type": "Fixed Wireless and Satellite Upgrade Program",
    "target_eligibility_quarter": "NA"
   }
  },
  {
   "type": "Feature",
   "geometry": {
    "type": "Point",
    "coordinates": [
     146.18697671,
     -20.08061709
    ]
   },
   "properties": {
    "name": "56 GUPPY SPRINGS ROAD SOUTHERN CROSS 4820",
    "locID": "LOC000129605496",
    "tech": "WIRELESS",
    "upgrade": "NULL_NA",
    "gnaf_pid": "GAQLD163282045",
    "tech_change_status": "Not Planned",
    "program_type": "Fixed Wireless and Satellite Upgrade Program",
    "target_eligibility_quarter": "NA"
   }
  },
  {
   "type": "Feature",
   "geometry": {
    "type": "Point",
    "coordinates": [
     146.21458689,
     -20.06707206
    ]
   },
   "properties": {
    "name": "34 HOWEARTH ROAD SOUTHERN CROSS 4820",
    "locID": "LOC000129573892",
    "tech": "WIRELESS",
    "upgrade": "NULL_NA",
    "gnaf_pid": "GAQLD163282552",
    "tech_change_status": "Not Planned",
    "program_type": "Fixed Wireless and Satellite Upgrade Program",
    "target_eligibility_quarter": "NA"
   }
  },
  {
   "type": "Feature",
   "geometry": {
    "type": "Point",
    "coordinates": [
     146.21337404,
     -20.06099828
    ]
   },
   "properties": {
    "name": "35 HOWEARTH ROAD SOUTHERN CROSS 4820",
    "locID": "LOC000129577568",
    "tech": "WIRELESS",
    "upgrade": "NULL_NA",
    "gnaf_pid": "GAQLD163282553",
    "tech_change_status": "Not Planned",
    "program_type": "Fixed Wireless and Satellite Upgrade Program",
    "target_eligibility_quarter": "NA"
   }
  },
  {
   "type": "Feature",
   "geometry": {
    "type": "Point",
    "coordinates": [
     146.21848626,
     -20.06355507
    ]
   },
   "properties": {
    "name": "78 HOWEARTH ROAD SOUTHERN CROSS 4820",
    "locID": "LOC000129574160",
    "tech": "WIRELESS",
    "upgrade": "NULL_NA",
    "gnaf_pid": "GAQLD163282554",
    "tech_change_status": "Not Planned",
    "program_type": "Fixed Wireless and Satellite Upgrade Program",
    "target_eligibility_quarter": "NA"
   }
  },
  {
   "type": "Feature",
   "geometry": {
    "type": "Point",
    "coordinates": [
     146.20284531,
     -20.05753762
    ]
   },
   "properties": {
    "name": "37 JOHNSON ROAD SOUTHERN CROSS 4820",
    "locID": "LOC000129581271",
    "tech": "WIRELESS",
    "upgrade": "NULL_NA",
    "gnaf_pid": "GAQLD163282791",
    "tech_change_status": "Not Planned",
    "program_type": "Fixed Wireless and Satellite Upgrade Program",
    "target_eligibility_quarter": "NA"
   }
  },
  {
   "type": "Feature",
   "geometry": {
    "type": "Point",
    "coordinates": [
     146.24227764,
     -20.0867269
    ]
   },
   "properties": {
    "name": "2 JOWETT STREET SOUTHERN CROSS 4820",
    "locID": "LOC000129595578",
    "tech": "WIRELESS",
    "upgrade": "NULL_NA",
    "gnaf_pid": "GAQLD163282797",
    "tech_change_status": "Not Planned",
    "program_type": "Fixed Wireless and Satellite Upgrade Program",
    "target_eligibility_quarter": "NA"
   }
  },
  {
   "type": "Feature",
   "geometry": {
    "type": "Point",
    "coordinates": [
     146.18256388,
     -20.08128175
    ]
   },
   "properties": {
    "name": "43 LEITCH ROAD SOUTHERN CROSS 4820",
    "locID": "LOC000129588458",
    "tech": "WIRELESS",
    "upgrade": "NULL_NA",
    "gnaf_pid": "GAQLD163283061",
    "tech_change_status": "Not Planned",
    "program_type": "Fixed Wireless and Satellite Upgrade Program",
    "target_eligibility_quarter": "NA"
   }
  },
  {
   "type": "Feature",
   "geometry": {
    "type": "Point",
    "coordinates": [
     146.2386837,
     -20.09019604
    ]
   },
   "properties": {
    "name": "31 LOUISA ROAD SOUTHERN CROSS 4820",
    "locID": "LOC000129570050",
    "tech": "WIRELESS",
    "upgrade": "NULL_NA",
    "gnaf_pid": "GAQLD163283166",
    "tech_change_status": "Not Planned",
    "program_type": "Fixed Wireless and Satellite Upgrade Program",
    "target_eligibility_quarter": "NA"
   }
  },
  {
   "type": "Feature",
   "geometry": {
    "type": "Point",
    "coordinates": [
     146.22940391,
     -20.09969191
    ]
   },
   "properties": {
    "name": "81 MACKERETH ROAD SOUTHERN CROSS 4820",
    "locID": "LOC000129577961",
    "tech": "WIRELESS",
    "upgrade": "NULL_NA",
    "gnaf_pid": "GAQLD163283253",
    "tech_change_status": "Not Planned",
    "program_type": "Fixed Wireless and Satellite Upgrade Program",
    "target_eligibility_quarter": "NA"
   }
  },
  {
   "type": "Feature",
   "geometry": {
    "type": "Point",
    "coordinates": [
     146.22784952,
     -20.09970888
    ]
   },
   "properties": {
    "name": "85 MACKERETH ROAD SOUTHERN CROSS 4820",
    "locID": "LOC000129581581",
    "tech": "WIRELESS",
    "upgrade": "NULL_NA",
    "gnaf_pid": "GAQLD163283254",
    "tech_change_status": "Not Planned",
    "program_type": "Fixed Wireless and Satellite Upgrade Program",
    "target_eligibility_quarter": "NA"
   }
  },
  {
   "type": "Feature",
   "geometry": {
    "type": "Point",
    "coordinates": [
     146.23211142,
     -20.09599429
    ]
   },
   "properties": {
    "name": "27 MAGG ROAD SOUTHERN CROSS 4820",
    "locID": "LOC000129557945",
    "tech": "WIRELESS",
    "upgrade": "NULL_NA",
    "gnaf_pid": "GAQLD163283270",
    "tech_change_status": "Not Planned",
    "program_type": "Fixed Wireless and Satellite Upgrade Program",
    "target_eligibility_quarter": "NA"
   }
  },
  {
   "type": "Feature",
   "geometry": {
    "type": "Point",
    "coordinates": [
     146.19036721,
     -20.0820933
    ]
   },
   "properties": {
    "name": "60 MISSOCK ROAD SOUTHERN CROSS 4820",
    "locID": "LOC000129612485",
    "tech": "WIRELESS",
    "upgrade": "NULL_NA",
    "gnaf_pid": "GAQLD163283522",
    "tech_change_status": "Not Planned",
    "program_type": "Fixed Wireless and Satellite Upgrade Program",
    "target_eligibility_quarter": "NA"
   }
  },
  {
   "type": "Feature",
   "geometry": {
    "type": "Point",
    "coordinates": [
     146.23406183,
     -20.08088034
    ]
   },
   "properties": {
    "name": "28 NEYLONS ROAD SOUTHERN CROSS 4820",
    "locID": "LOC000129558108",
    "tech": "WIRELESS",
    "upgrade": "NULL_NA",
    "gnaf_pid": "GAQLD163283863",
    "tech_change_status": "Not Planned",
    "program_type": "Fixed Wireless and Satellite Upgrade Program",
    "target_eligibility_quarter": "NA"
   }
  },
  {
   "type": "Feature",
   "geometry": {
    "type": "Point",
    "coordinates": [
     146.22568205,
     -19.98391551
    ]
   },
   "properties": {
    "name": "118 PERCY SPRINGS ROAD SOUTHERN CROSS 4820",
    "locID": "LOC000129561624",
    "tech": "SATELLITE",
    "upgrade": "NULL_NA",
    "gnaf_pid": "GAQLD163284444",
    "tech_change_status": "Not Planned"
   }
  },
  {
   "type": "Feature",
   "geometry": {
    "type": "Point",
    "coordinates": [
     146.2252043,
     -20.06639341
    ]
   },
   "properties": {
    "name": "102 PHILLIPS ROAD SOUTHERN CROSS 4820",
    "locID": "LOC000129557529",
    "tech": "WIRELESS",
    "upgrade": "NULL_NA",
    "gnaf_pid": "GAQLD163284547",
    "tech_change_status": "Not Planned",
    "program_type": "Fixed Wireless and Satellite Upgrade Program",
    "target_eligibility_quarter": "NA"
   }
  },
  {
   "type": "Feature",
   "geometry": {
    "type": "Point",
    "coordinates": [
     146.23173087,
     -20.07280114
    ]
   },
   "properties": {
    "name": "LOT 1 PHILLIPS ROAD SOUTHERN CROSS 4820",
    "locID": "LOC000129557529",
    "tech": "WIRELESS",
    "upgrade": "NULL_NA",
    "gnaf_pid": "GAQLD163284549",
    "tech_change_status": "Not Planned",
    "program_type": "Fixed Wireless and Satellite Upgrade Program",
    "target_eligibility_quarter": "NA"
   }
  },
  {
   "type": "Feature",
   "geometry": {
    "type": "Point",
    "coordinates": [
     146.23999382,
     -20.07437123
    ]
   },
   "properties": {
    "name": "10 SANDY CREEK ROAD SOUTHERN CROSS 4820",
    "locID": "LOC000129611874",
    "tech": "WIRELESS",
    "upgrade": "NULL_NA",
    "gnaf_pid": "GAQLD163285107",
    "tech_change_status": "Not Planned",
    "program_type": "Fixed Wireless and Satellite Upgrade Program",
    "target_eligibility_quarter": "NA"
   }
  },
  {
   "type": "Feature",
   "geometry": {
    "type": "Point",
    "coordinates": [
     146.22703547,
     -20.07661708
    ]
   },
   "properties": {
    "name": "147 SANDY CREEK ROAD SOUTHERN CROSS 4820",
    "locID": "LOC000129577228",
    "tech": "FTTN",
    "upgrade": "NULL_NA",
    "gnaf_pid": "GAQLD163285108",
    "tech_change_status": "Not Planned"
   }
  },
  {
   "type": "Feature",
   "geometry": {
    "type": "Point",
    "coordinates": [
     146.24003861,
     -20.08443297
    ]
   },
   "properties": {
    "name": "27 SHARP ROAD SOUTHERN CROSS 4820",
    "locID": "LOC000129557966",
    "tech": "WIRELESS",
    "upgrade": "NULL_NA",
    "gnaf_pid": "GAQLD163285164",
    "tech_change_status": "Not Planned",
    "program_type": "Fixed Wireless and Satellite Upgrade Program",
    "target_eligibility_quarter": "NA"
   }
  },
  {
   "type": "Feature",
   "geometry": {
    "type": "Point",
    "coordinates": [
     146.24226364,
     -20.0836384
    ]
   },
   "properties": {
    "name": "30 SHARP ROAD SOUTHERN CROSS 4820",
    "locID": "LOC000129565968",
    "tech": "WIRELESS",
    "upgrade": "NULL_NA",
    "gnaf_pid": "GAQLD163285165",
    "tech_change_status": "Not Planned",
    "program_type": "Fixed Wireless and Satellite Upgrade Program",
    "target_eligibility_quarter": "NA"
   }
  },
  {
   "type": "Feature",
   "geometry": {
    "type": "Point",
    "coordinates": [
     146.24073065,
     -20.0822072
    ]
   },
   "properties": {
    "name": "55 SHARP ROAD SOUTHERN CROSS 4820",
    "locID": "LOC000129605449",
    "tech": "WIRELESS",
    "upgrade": "NULL_NA",
    "gnaf_pid": "GAQLD163285166",
    "tech_change_status": "Not Planned",
    "program_type": "Fixed Wireless and Satellite Upgrade Program",
    "target_eligibility_quarter": "NA"
   }
  },
  {
   "type": "Feature",
   "geometry": {
    "type": "Point",
    "coordinates": [
     146.24135704,
     -20.08098151
    ]
   },
   "properties": {
    "name": "65 SHARP ROAD SOUTHERN CROSS 4820",
    "locID": "LOC000129558359",
    "tech": "WIRELESS",
    "upgrade": "NULL_NA",
    "gnaf_pid": "GAQLD163285167",
    "tech_change_status": "Not Planned",
    "program_type": "Fixed Wireless and Satellite Upgrade Program",
    "target_eligibility_quarter": "NA"
   }
  },
  {
   "type": "Feature",
   "geometry": {
    "type": "Point",
    "coordinates": [
     146.24078986,
     -20.08627785
    ]
   },
   "properties": {
    "name": "7 SHARP ROAD SOUTHERN CROSS 4820",
    "locID": "LOC000129566135",
    "tech": "WIRELESS",
    "upgrade": "NULL_NA",
    "gnaf_pid": "GAQLD163285168",
    "tech_change_status": "Not Planned",
    "program_type": "Fixed Wireless and Satellite Upgrade Program",
    "target_eligibility_quarter": "NA"
   }
  },
  {
   "type": "Feature",
   "geometry": {
    "type": "Point",
    "coordinates": [
     146.21828599,
     -20.07763965
    ]
   },
   "properties": {
    "name": "61 SOUTHWALK ROAD SOUTHERN CROSS 4820",
    "locID": "LOC000129612629",
    "tech": "WIRELESS",
    "upgrade": "NULL_NA",
    "gnaf_pid": "GAQLD163285377",
    "tech_change_status": "Not Planned",
    "program_type": "Fixed Wireless and Satellite Upgrade Program",
    "target_eligibility_quarter": "NA"
   }
  },
  {
   "type": "Feature",
   "geometry": {
    "type": "Point",
    "coordinates": [
     146.22208348,
     -20.07071492
    ]
   },
   "properties": {
    "name": "45 STEEL ROAD SOUTHERN CROSS 4820",
    "locID": "LOC000129591882",
    "tech": "WIRELESS",
    "upgrade": "NULL_NA",
    "gnaf_pid": "GAQLD163285515",
    "tech_change_status": "Not Planned",
    "program_type": "Fixed Wireless and Satellite Upgrade Program",
    "target_eligibility_quarter": "NA"
   }
  },
  {
   "type": "Feature",
   "geometry": {
    "type": "Point",
    "coordinates": [
     146.22454475,
     -20.06864887
    ]
   },
   "properties": {
    "name": "49 STEEL ROAD SOUTHERN CROSS 4820",
    "locID": "LOC000129595938",
    "tech": "WIRELESS",
    "upgrade": "NULL_NA",
    "gnaf_pid": "GAQLD163285516",
    "tech_change_status": "Not Planned",
    "program_type": "Fixed Wireless and Satellite Upgrade Program",
    "target_eligibility_quarter": "NA"
   }
  },
  {
   "type": "Feature",
   "geometry": {
    "type": "Point",
    "coordinates": [
     146.20562142,
     -20.02874961
    ]
   },
   "properties": {
    "name": "441 URDERA ROAD SOUTHERN CROSS 4820",
    "locID": "LOC000129591811",
    "tech": "WIRELESS",
    "upgrade": "NULL_NA",
    "gnaf_pid": "GAQLD163286151",
    "tech_change_status": "Not Planned",
    "program_type": "Fixed Wireless and Satellite Upgrade Program",
    "target_eligibility_quarter": "NA"
   }
  },
  {
   "type": "Feature",
   "geometry": {
    "type": "Point",
    "coordinates": [
     146.22532131,
     -20.01357255
    ]
   },
   "properties": {
    "name": "44 URDERA ROAD SOUTHERN CROSS 4820",
    "locID": "LOC000129591797",
    "tech": "WIRELESS",
    "upgrade": "NULL_NA",
    "gnaf_pid": "GAQLD163286152",
    "tech_change_status": "Not Planned",
    "program_type": "Fixed Wireless and Satellite Upgrade Program",
    "target_eligibility_quarter": "NA"
   }
  },
  {
   "type": "Feature",
   "geometry": {
    "type": "Point",
    "coordinates": [
     146.23346049,
     -20.02725638
    ]
   },
   "properties": {
    "name": "7 URDERA ROAD SOUTHERN CROSS 4820",
    "locID": "LOC000129566161",
    "tech": "WIRELESS",
    "upgrade": "NULL_NA",
    "gnaf_pid": "GAQLD163286153",
    "tech_change_status": "Not Planned",
    "program_type": "Fixed Wireless and Satellite Upgrade Program",
    "target_eligibility_quarter": "NA"
   }
  },
  {
   "type": "Feature",
   "geometry": {
    "type": "Point",
    "coordinates": [
     146.2403612,
     -20.07612907
    ]
   },