{
 "type": "FeatureCollection",
 "generated": "2023-07-16T07:48:39.040124",
 "suburb": "STOKES",
 "features": [
  {
   "type": "Feature",
   "geometry": {
    "type": "Point",
    "coordinates": [
     140.79202602,
     -18.56328486
    ]
   },
   "properties": {
    "name": "LOT 166 WONDOOLA ROAD STOKES 4823",
    "locID": "LOC000114482635",
    "tech": "SATELLITE",
    "upgrade": "NULL_NA",
    "gnaf_pid": "GAQLD163356559"
   }
  },
  {
   "type": "Feature",
   "geometry": {
    "type": "Point",
    "coordinates": [
     140.26458865,
     -18.81884986
    ]
   },
   "properties": {
    "name": "LOT 1 BURKE DEVELOPMENTAL ROAD STOKES 4823",
    "locID": "LOC100075547261",
    "tech": "SATELLITE",
    "upgrade": "NULL_NA",
    "gnaf_pid": "GAQLD425172915"
   }
  },
  {
   "type": "Feature",
   "geometry": {
    "type": "Point",
    "coordinates": [
     139.845456,
     -18.60080796
    ]
   },
   "properties": {
    "name": "LOT 11 BURKETOWN ROAD STOKES 4823",
    "locID": "LOC000186070938",
    "tech": "SATELLITE",
    "upgrade": "NULL_NA",
    "gnaf_pid": "GAQLD425766229"
   }
  },
  {
   "type": "Feature",
   "geometry": {
    "type": "Point",
    "coordinates": [
     139.845456,
     -18.60080796
    ]
   },
   "properties": {
    "name": "LOT 13 BURKETOWN ROAD STOKES 4823",
    "locID": "LOC000186070938",
    "tech": "SATELLITE",
    "upgrade": "NULL_NA",
    "gnaf_pid": "GAQLD425766230"
   }
  },
  {
   "type": "Feature",
   "geometry": {
    "type": "Point",
    "coordinates": [
     139.845456,
     -18.60080796
    ]
   },
   "properties": {
    "name": "LOT 1 BURKETOWN ROAD STOKES 4823",
    "locID": "LOC000186070938",
    "tech": "SATELLITE",
    "upgrade": "NULL_NA",
    "gnaf_pid": "GAQLD425766231"
   }
  },
  {
   "type": "Feature",
   "geometry": {
    "type": "Point",
    "coordinates": [
     139.845456,
     -18.60080796
    ]
   },
   "properties": {
    "name": "LOT 2 BURKETOWN ROAD STOKES 4823",
    "locID": "LOC000186070938",
    "tech": "SATELLITE",
    "upgrade": "NULL_NA",
    "gnaf_pid": "GAQLD425766232"
   }
  },
  {
   "type": "Feature",
   "geometry": {
    "type": "Point",
    "coordinates": [
     139.845456,
     -18.60080796
    ]
   },
   "properties": {
    "name": "LOT 3 BURKETOWN ROAD STOKES 4823",
    "locID": "LOC000186070938",
    "tech": "SATELLITE",
    "upgrade": "NULL_NA",
    "gnaf_pid": "GAQLD425766233"
   }
  },
  {
   "type": "Feature",
   "geometry": {
    "type": "Point",
    "coordinates": [
     139.845456,
     -18.60080796
    ]
   },
   "properties": {
    "name": "LOT 4 BURKETOWN ROAD STOKES 4823",
    "locID": "LOC000186070938",
    "tech": "SATELLITE",
    "upgrade": "NULL_NA",
    "gnaf_pid": "GAQLD425766234"
   }
  },
  {
   "type": "Feature",
   "geometry": {
    "type": "Point",
    "coordinates": [
     139.845456,
     -18.60080796
    ]
   },
   "properties": {
    "name": "LOT 5 BURKETOWN ROAD STOKES 4823",
    "locID": "LOC000186070938",
    "tech": "SATELLITE",
    "upgrade": "NULL_NA",
    "gnaf_pid": "GAQLD425766235"
   }
  },
  {
   "type": "Feature",
   "geometry": {
    "type": "Point",
    "coordinates": [
     139.845456,
     -18.60080796
    ]
   },
   "properties": {
    "name": "LOT 7 BURKETOWN ROAD STOKES 4823",
    "locID": "LOC000186070938",
    "tech": "SATELLITE",
    "upgrade": "NULL_NA",
    "gnaf_pid": "GAQLD425766236"
   }
  },
  {
   "type": "Feature",
   "geometry": {
    "type": "Point",
    "coordinates": [
     139.845456,
     -18.60080796
    ]
   },
   "properties": {
    "name": "17 BURKETOWN ROAD STOKES 4823",
    "locID": "ChIJD952ZqhCH2oRT3OX-adUjwI",
    "tech": "SATELLITE",
    "upgrade": "UNKNOWN",
    "gnaf_pid": "GAQLD719557087"
   }
  },
  {
   "type": "Feature",
   "geometry": {
    "type": "Point",
    "coordinates": [
     140.261,
     -18.6239
    ]
   },
   "properties": {
    "name": "LOT 1 AUGUSTUS DOWNS ROAD STOKES 4823",
    "locID": "LOC000141938121",
    "tech": "SATELLITE",
    "upgrade": "NULL_NA",
    "gnaf_pid": "GAQLD720665429"
   }
  },
  {
   "type": "Feature",
   "geometry": {
    "type": "Point",
    "coordinates": [
     139.895,
     -19.0051
    ]
   },
   "properties": {
    "name": "LOT 5 WILLS DEVELOPMENTAL ROAD STOKES 4823",
    "locID": "LOC000187931835",
    "tech": "SATELLITE",
    "upgrade": "NULL_NA",
    "gnaf_pid": "GAQLD720667284"
   }
  },
  {
   "type": "Feature",
   "geometry": {
    "type": "Point",
    "coordinates": [
     140.98958098,
     -18.58632588
    ]
   },
   "properties": {
    "name": "LOT 1 IFFLEY ROAD STOKES 4823",
    "locID": "LOC000141392934",
    "tech": "SATELLITE",
    "upgrade": "NULL_NA",
    "gnaf_pid": "GAQLD720673173"
   }
  },
  {
   "type": "Feature",
   "geometry": {
    "type": "Point",
    "coordinates": [
     140.897,
     -18.5738
    ]
   },
   "properties": {
    "name": "LOT 166 BURKE DEVELOPMENTAL ROAD STOKES 4823",
    "locID": "LOC000186404725",
    "tech": "SATELLITE",
    "upgrade": "NULL_NA",
    "gnaf_pid": "GAQLD720674206"
   }
  }
 ]
}