{
 "type": "FeatureCollection",
 "generated": "2024-08-31T19:11:21.220483",
 "suburb": "STOKES",
 "features": [
  {
   "type": "Feature",
   "geometry": {
    "type": "Point",
    "coordinates": [
     140.79202602,
     -18.56328486
    ]
   },
   "properties": {
    "name": "LOT 166 WONDOOLA ROAD STOKES 4823",
    "locID": "LOC000114482635",
    "tech": "SATELLITE",
    "upgrade": "NULL_NA",
    "gnaf_pid": "GAQLD163356559",
    "tech_change_status": "Not Planned"
   }
  },
  {
   "type": "Feature",
   "geometry": {
    "type": "Point",
    "coordinates": [
     140.26458865,
     -18.81884986
    ]
   },
   "properties": {
    "name": "LOT 1 BURKE DEVELOPMENTAL ROAD STOKES 4823",
    "locID": "LOC100075547261",
    "tech": "SATELLITE",
    "upgrade": "NULL_NA",
    "gnaf_pid": "GAQLD425172915",
    "tech_change_status": "Not Planned"
   }
  },
  {
   "type": "Feature",
   "geometry": {
    "type": "Point",
    "coordinates": [
     139.845456,
     -18.60080796
    ]
   },
   "properties": {
    "name": "LOT 11 BURKETOWN ROAD STOKES 4823",
    "locID": "LOC000186070938",
    "tech": "SATELLITE",
    "upgrade": "NULL_NA",
    "gnaf_pid": "GAQLD425766229",
    "tech_change_status": "Not Planned"
   }
  },
  {
   "type": "Feature",
   "geometry": {
    "type": "Point",
    "coordinates": [
     139.845456,
     -18.60080796
    ]
   },
   "properties": {
    "name": "LOT 13 BURKETOWN ROAD STOKES 4823",
    "locID": "LOC000186070938",
    "tech": "SATELLITE",
    "upgrade": "NULL_NA",
    "gnaf_pid": "GAQLD425766230",
    "tech_change_status": "Not Planned"
   }
  },
  {
   "type": "Feature",
   "geometry": {
    "type": "Point",
    "coordinates": [
     139.845456,
     -18.60080796
    ]
   },
   "properties": {
    "name": "LOT 1 BURKETOWN ROAD STOKES 4823",
    "locID": "LOC000186070938",
    "tech": "SATELLITE",
    "upgrade": "NULL_NA",
    "gnaf_pid": "GAQLD425766231",
    "tech_change_status": "Not Planned"
   }
  },
  {
   "type": "Feature",
   "geometry": {
    "type": "Point",
    "coordinates": [
     139.845456,
     -18.60080796
    ]
   },
   "properties": {
    "name": "LOT 2 BURKETOWN ROAD STOKES 4823",
    "locID": "LOC000186070938",
    "tech": "SATELLITE",
    "upgrade": "NULL_NA",
    "gnaf_pid": "GAQLD425766232",
    "tech_change_status": "Not Planned"
   }
  },
  {
   "type": "Feature",
   "geometry": {
    "type": "Point",
    "coordinates": [
     139.845456,
     -18.60080796
    ]
   },
   "properties": {
    "name": "LOT 3 BURKETOWN ROAD STOKES 4823",
    "locID": "LOC000186070938",
    "tech": "SATELLITE",
    "upgrade": "NULL_NA",
    "gnaf_pid": "GAQLD425766233",
    "tech_change_status": "Not Planned"
   }
  },
  {
   "type": "Feature",
   "geometry": {
    "type": "Point",
    "coordinates": [
     139.845456,
     -18.60080796
    ]
   },
   "properties": {
    "name": "LOT 4 BURKETOWN ROAD STOKES 4823",
    "locID": "LOC000186070938",
    "tech": "SATELLITE",
    "upgrade": "NULL_NA",
    "gnaf_pid": "GAQLD425766234",
    "tech_change_status": "Not Planned"
   }
  },
  {
   "type": "Feature",
   "geometry": {
    "type": "Point",
    "coordinates": [
     139.845456,
     -18.60080796
    ]
   },
   "properties": {
    "name": "LOT 5 BURKETOWN ROAD STOKES 4823",
    "locID": "LOC000186070938",
    "tech": "SATELLITE",
    "upgrade": "NULL_NA",
    "gnaf_pid": "GAQLD425766235",
    "tech_change_status": "Not Planned"
   }
  },
  {
   "type": "Feature",
   "geometry": {
    "type": "Point",
    "coordinates": [
     139.845456,
     -18.60080796
    ]
   },
   "properties": {
    "name": "LOT 7 BURKETOWN ROAD STOKES 4823",
    "locID": "LOC000186070938",
    "tech": "SATELLITE",
    "upgrade": "NULL_NA",
    "gnaf_pid": "GAQLD425766236",
    "tech_change_status": "Not Planned"
   }
  },
  {
   "type": "Feature",
   "geometry": {
    "type": "Point",
    "coordinates": [
     140.261,
     -18.6239
    ]
   },
   "properties": {
    "name": "LOT 1 AUGUSTUS DOWNS ROAD STOKES 4823",
    "locID": "LOC000141938121",
    "tech": "SATELLITE",
    "upgrade": "NULL_NA",
    "gnaf_pid": "GAQLD720665429",
    "tech_change_status": "Not Planned"
   }
  },
  {
   "type": "Feature",
   "geometry": {
    "type": "Point",
    "coordinates": [
     139.895,
     -19.0051
    ]
   },
   "properties": {
    "name": "LOT 5 WILLS DEVELOPMENTAL ROAD STOKES 4823",
    "locID": "LOC000187931835",
    "tech": "SATELLITE",
    "upgrade": "NULL_NA",
    "gnaf_pid": "GAQLD720667284",
    "tech_change_status": "Not Planned"
   }
  },
  {
   "type": "Feature",
   "geometry": {
    "type": "Point",
    "coordinates": [
     140.98958098,
     -18.58632588
    ]
   },
   "properties": {
    "name": "LOT 1 IFFLEY ROAD STOKES 4823",
    "locID": "LOC000141392934",
    "tech": "SATELLITE",
    "upgrade": "NULL_NA",
    "gnaf_pid": "GAQLD720673173",
    "tech_change_status": "Not Planned"
   }
  },
  {
   "type": "Feature",
   "geometry": {
    "type": "Point",
    "coordinates": [
     140.897,
     -18.5738
    ]
   },
   "properties": {
    "name": "LOT 166 BURKE DEVELOPMENTAL ROAD STOKES 4823",
    "locID": "LOC000186404725",
    "tech": "SATELLITE",
    "upgrade": "NULL_NA",
    "gnaf_pid": "GAQLD720674206",
    "tech_change_status": "Not Planned"
   }
  }
 ]
}